Timestamp,compactImu.a_xyz,compactImu.l_xyz,motorCompact.pwms,stabilizer.pitch,stabilizer.roll,stabilizer.thrust,stabilizer.yaw
190994,536346111,641203710,0,-0.08659296482801437,0.08539151400327682,0,74.29642486572266
191004,536345087,641203710,0,-0.0861235111951828,0.08652634918689728,0,74.29927062988281
191014,536346111,641203710,0,-0.08628782629966736,0.08726947009563446,0,74.30194854736328
191024,536345087,641203710,0,-0.08555614948272705,0.08868767321109772,0,74.3060073852539
191034,536346111,641203710,0,-0.0854782909154892,0.08949485421180725,0,74.30835723876953
191044,536345087,641203710,0,-0.08491892367601395,0.09035003185272217,0,74.31249237060547
191054,536346111,641203710,0,-0.08547212183475494,0.09084728360176086,0,74.31510925292969
191064,536346111,641203710,0,-0.0860845223069191,0.09299921989440918,0,74.31925201416016
191074,536345087,641203710,0,-0.08634743839502335,0.09381835907697678,0,74.32229614257812
191084,536345087,641203710,0,-0.08511528372764587,0.0947365015745163,0,74.32698059082031
191094,536346111,641203710,0,-0.08426456898450851,0.09550818055868149,0,74.32948303222656
191104,536346111,641203710,0,-0.08484131842851639,0.09713174402713776,0,74.33335876464844
191114,536345087,641203710,0,-0.08429136127233505,0.09821014106273651,0,74.33686065673828
191124,536345087,641203710,0,-0.0841505378484726,0.09949589520692825,0,74.34075927734375
191134,536346111,642252286,0,-0.08448542654514313,0.10046768933534622,0,74.3431167602539
191144,536345087,641203710,0,-0.08498039841651917,0.10121753066778183,0,74.34635925292969
191154,536346111,641203710,0,-0.08471811562776566,0.10153888165950775,0,74.3494873046875
191164,536345087,641203710,0,-0.08499755710363388,0.10246540606021881,0,74.35330963134766
191174,536346111,641203710,0,-0.08472056686878204,0.10246318578720093,0,74.35557556152344
191184,536345087,642252286,0,-0.08550476282835007,0.10362247377634048,0,74.35968780517578
191194,536345087,641203710,0,-0.08527698367834091,0.1044929102063179,0,74.36234283447266
191204,536346111,641203710,0,-0.08521094173192978,0.1062798872590065,0,74.36553192138672
191214,536345087,641203710,0,-0.08512654155492783,0.10754463821649551,0,74.3687744140625
191224,536345087,641203710,0,-0.08458981662988663,0.10980479419231415,0,74.37313842773438
191234,536346111,641203710,0,-0.08417684584856033,0.11026623845100403,0,74.37666320800781
191244,536345087,641203710,0,-0.0851060301065445,0.11252973228693008,0,74.3805923461914
191254,536345087,641204734,0,-0.08526759594678879,0.11373013257980347,0,74.38279724121094
191264,536346111,641203710,0,-0.08579320460557938,0.11503160744905472,0,74.38639831542969
191274,536346111,641203710,0,-0.08552736788988113,0.11520266532897949,0,74.38933563232422
191284,536345087,641203710,0,-0.0859343633055687,0.11555465310811996,0,74.39288330078125
191294,536346111,641203710,0,-0.08597584813833237,0.11545393615961075,0,74.39683532714844
191304,536345087,641203710,0,-0.08619296550750732,0.11731962114572525,0,74.3990249633789
191314,536345087,641203710,0,-0.08511997014284134,0.11837556958198547,0,74.40142822265625
191324,536346111,641203710,0,-0.08511921763420105,0.119596928358078,0,74.4049301147461
191334,536346111,641203710,0,-0.08480625599622726,0.12008552998304367,0,74.40773010253906
191344,536346111,641203710,0,-0.08540366590023041,0.12134362757205963,0,74.4110336303711
191354,536346111,641203710,0,-0.0850159227848053,0.12177735567092896,0,74.41315460205078
191364,536345087,641203710,0,-0.08458029478788376,0.12357554584741592,0,74.41658020019531
191374,536345087,642252286,0,-0.0844087153673172,0.12396939843893051,0,74.41908264160156
191384,536345087,642252286,0,-0.08327140659093857,0.1253625601530075,0,74.42211151123047
191394,536345087,642252286,0,-0.08243346214294434,0.12629809975624084,0,74.42496490478516
191404,536345087,642252286,0,-0.08135636150836945,0.12873134016990662,0,74.42886352539062
191414,536345087,642252286,0,-0.0804111510515213,0.1305720955133438,0,74.43213653564453
191424,536345087,642252286,0,-0.0792493000626564,0.13430090248584747,0,74.4344482421875
191434,536345087,642252286,0,-0.07776332646608353,0.1365203708410263,0,74.43767547607422
191444,536345087,642252286,0,-0.07701746374368668,0.14065474271774292,0,74.4416275024414
191454,536345087,641203710,0,-0.07585417479276657,0.142953559756279,0,74.44422912597656
191464,536345087,641203710,0,-0.07404544204473495,0.1469634771347046,0,74.4481201171875
191474,536345087,641203710,0,-0.07268095761537552,0.1504254788160324,0,74.44951629638672
191484,536345087,641203710,0,-0.07226269692182541,0.15459781885147095,0,74.4543228149414
191494,536345087,641203710,0,-0.07158535718917847,0.1573607176542282,0,74.45668029785156
191504,536345087,641203710,0,-0.07052233070135117,0.16040194034576416,0,74.4604263305664
191514,536345087,641204734,0,-0.06956874579191208,0.16192086040973663,0,74.46288299560547
191524,536345087,640156158,0,-0.06848811358213425,0.16567294299602509,0,74.4674072265625
191534,536345087,641204734,0,-0.06744842976331711,0.16735218465328217,0,74.47030639648438
191544,536346111,641203710,0,-0.06676725298166275,0.1704176962375641,0,74.47364807128906
191554,536345087,641203710,0,-0.06716682761907578,0.1717737764120102,0,74.47590637207031
191564,536346111,641203710,0,-0.0676766037940979,0.17210322618484497,0,74.47980499267578
191574,536346111,641203710,0,-0.06876591593027115,0.17257864773273468,0,74.48259735107422
191584,536346111,642252286,0,-0.06816571205854416,0.1734650582075119,0,74.48822021484375
191594,536345087,642252286,0,-0.06792715191841125,0.1739983856678009,0,74.49046325683594
191604,536345087,642253310,0,-0.06705598533153534,0.17425593733787537,0,74.49400329589844
191614,536346111,641204734,0,-0.06706449389457703,0.17512454092502594,0,74.49700164794922
191624,536345087,641204734,0,-0.0661480501294136,0.1775679886341095,0,74.50176239013672
191634,536346111,641203710,0,-0.06574628502130508,0.17846539616584778,0,74.50411224365234
191644,536346111,641203710,0,-0.06626177579164505,0.17943699657917023,0,74.5078353881836
191654,536346111,641203710,0,-0.06700807809829712,0.1792144775390625,0,74.51005554199219
191664,536345087,641203710,0,-0.06700539588928223,0.18146653473377228,0,74.51302337646484
191674,536346111,642252286,0,-0.06718355417251587,0.18245969712734222,0,74.5152816772461
191684,536346111,642252286,0,-0.0681161880493164,0.18327713012695312,0,74.518798828125
191694,536345087,642252286,0,-0.06844174116849899,0.18475525081157684,0,74.52149963378906
191704,536345087,642252286,0,-0.06640985608100891,0.18610024452209473,0,74.52583312988281
191714,536346111,641203710,0,-0.06696520000696182,0.18676050007343292,0,74.52727508544922
191724,536346111,641203710,0,-0.06732439994812012,0.18740224838256836,0,74.53060150146484
191734,536346111,641203710,0,-0.06844335794448853,0.18730366230010986,0,74.53307342529297
191744,536346111,641204734,0,-0.06856818497180939,0.18846026062965393,0,74.53697204589844
191754,536345087,641204734,0,-0.06940629333257675,0.18955056369304657,0,74.5389404296875
191764,536346111,641204734,0,-0.06853107362985611,0.19084759056568146,0,74.54308319091797
191774,536346111,641203710,0,-0.06897421926259995,0.19178664684295654,0,74.54450988769531
191784,536346111,641203710,0,-0.06990868598222733,0.1917441189289093,0,74.54891204833984
191794,536346111,641203710,0,-0.0702696219086647,0.19248764216899872,0,74.55057525634766
191804,536345087,641203710,0,-0.07090160250663757,0.1928693950176239,0,74.55445861816406
191814,536346111,641203710,0,-0.0709558054804802,0.19369159638881683,0,74.5572509765625
191824,536346111,641203710,0,-0.07120443880558014,0.19342514872550964,0,74.5618896484375
191834,536346111,641203710,0,-0.0717618390917778,0.19493117928504944,0,74.56478118896484
191844,536346111,641203710,0,-0.07256215065717697,0.19600729644298553,0,74.56819915771484
191854,536345087,641203710,0,-0.07279510051012039,0.19722527265548706,0,74.57071685791016
191864,536346111,641203710,0,-0.07317622750997543,0.1981445848941803,0,74.57463836669922
191874,536345087,641203710,0,-0.07348049432039261,0.1985785961151123,0,74.57711029052734
191884,536345087,641203710,0,-0.07364775240421295,0.20021462440490723,0,74.58000183105469
191894,536346111,641203710,0,-0.0735221579670906,0.20075014233589172,0,74.58183288574219
191904,536345087,642252286,0,-0.07407046109437943,0.2003418654203415,0,74.58564758300781
191914,536346111,641203710,0,-0.0742189958691597,0.2001306414604187,0,74.5890121459961
191924,536345087,641203710,0,-0.0749453455209732,0.20080214738845825,0,74.59252166748047
191934,536345087,641203710,0,-0.0748235359787941,0.20231479406356812,0,74.59464263916016
191944,536345087,641203710,0,-0.07459160685539246,0.20304284989833832,0,74.59839630126953
191954,536346111,641203710,0,-0.07469392567873001,0.20349343121051788,0,74.60215759277344
191964,536345087,641203710,0,-0.07546207308769226,0.20369085669517517,0,74.60689544677734
191974,536346111,641204734,0,-0.075668103992939,0.204283207654953,0,74.60911560058594
191984,536346111,641203710,0,-0.07681547105312347,0.20417791604995728,0,74.61283111572266
191994,536346111,641203710,0,-0.0765264555811882,0.20417839288711548,0,74.61608123779297
192004,536345087,641203710,0,-0.07695608586072922,0.20416808128356934,0,74.620361328125
192014,536346111,641203710,0,-0.07761189341545105,0.20424723625183105,0,74.62332153320312
192024,536346111,641203710,0,-0.07731487601995468,0.20546415448188782,0,74.6278305053711
192034,536345087,641203710,0,-0.07743272185325623,0.2055412232875824,0,74.63119506835938
192044,536346111,641203710,0,-0.0777633786201477,0.20553436875343323,0,74.63516235351562
192054,536346111,641203710,0,-0.07822085916996002,0.20603181421756744,0,74.63745880126953
192064,536345087,641203710,0,-0.07830982655286789,0.2058369219303131,0,74.64120483398438
192074,536346111,641203710,0,-0.07901902496814728,0.20627853274345398,0,74.6433334350586
192084,536346111,642252286,0,-0.07926687598228455,0.20628885924816132,0,74.64714050292969
192094,536346111,642252286,0,-0.07964473962783813,0.20657797157764435,0,74.64978790283203
192104,536345087,641203710,0,-0.07944139093160629,0.2066527009010315,0,74.6540756225586
192114,536346111,641203710,0,-0.07964704930782318,0.20682461559772491,0,74.65760803222656
192124,536346111,642252286,0,-0.07972525805234909,0.20646676421165466,0,74.66120147705078
192134,536345087,641204734,0,-0.07968829572200775,0.20668625831604004,0,74.6631851196289
192144,536346111,641203710,0,-0.0789971798658371,0.2064526379108429,0,74.66691589355469
192154,536346111,641203710,0,-0.07886120676994324,0.2072780281305313,0,74.67072296142578
192164,536345087,641203710,0,-0.07864518463611603,0.20782792568206787,0,74.67483520507812
192174,536345087,641203710,0,-0.07735811173915863,0.20751811563968658,0,74.67784881591797
192184,536346111,641203710,0,-0.07746971398591995,0.20814350247383118,0,74.68208312988281
192194,536345086,641204734,0,-0.07702458649873734,0.20696480572223663,0,74.68534088134766
192204,536345087,641203710,0,-0.07494404166936874,0.2072804570198059,0,74.68894958496094
192214,536345087,642252286,0,-0.07426509261131287,0.2079310566186905,0,74.69121551513672
192224,536346111,641203710,0,-0.07372816652059555,0.20844446122646332,0,74.69589233398438
192234,536345087,641203710,0,-0.0742998942732811,0.2083519548177719,0,74.69782257080078
192244,536346111,642252286,0,-0.07485167682170868,0.20875021815299988,0,74.70146942138672
192254,536346111,642252286,0,-0.0749143660068512,0.2098156213760376,0,74.70427703857422
192264,536346111,642252286,0,-0.07463307678699493,0.2109948992729187,0,74.70783996582031
192274,536345087,641204734,0,-0.07470756024122238,0.21109922230243683,0,74.71064758300781
192284,536345087,641204734,0,-0.07421591132879257,0.2119169980287552,0,74.714111328125
192294,536346111,642253310,0,-0.07430723309516907,0.21243344247341156,0,74.71678924560547
192304,536346111,642252286,0,-0.07496434450149536,0.21363258361816406,0,74.72112274169922
192314,536345087,641203710,0,-0.07523684948682785,0.2134602665901184,0,74.72460174560547
192324,536346111,641204734,0,-0.07639551907777786,0.21348877251148224,0,74.72850036621094
192334,536346111,642252286,0,-0.07722442597150803,0.21343471109867096,0,74.73207092285156
192344,536345087,641204734,0,-0.07719773799180984,0.21495898067951202,0,74.7365951538086
192354,536345087,641203710,0,-0.07578635215759277,0.2154228687286377,0,74.73912811279297
192364,536346111,641204734,0,-0.07597234100103378,0.21619388461112976,0,74.74285888671875
192374,536345087,641203710,0,-0.07661091536283493,0.21709740161895752,0,74.74617004394531
192384,536346111,641204734,0,-0.07689129561185837,0.21749135851860046,0,74.74969482421875
192394,536346111,642252286,0,-0.07683934271335602,0.2188897579908371,0,74.7529067993164
192404,536346111,642253310,0,-0.07686702907085419,0.22100378572940826,0,74.75704956054688
192414,536346111,641203710,0,-0.07640223950147629,0.22095532715320587,0,74.75967407226562
192424,536346111,641203710,0,-0.07601197063922882,0.22012659907341003,0,74.76342010498047
192434,536345087,641203710,0,-0.07578805088996887,0.2191394418478012,0,74.76583862304688
192444,536346111,641203710,0,-0.0759517028927803,0.21928173303604126,0,74.76908111572266
192454,536346111,641204734,0,-0.07643380016088486,0.2204231321811676,0,74.77095794677734
192464,536346111,641204734,0,-0.07779734581708908,0.2211422175168991,0,74.77472686767578
192474,536346111,641203710,0,-0.07776983082294464,0.22106944024562836,0,74.7780532836914
192484,536345087,641203710,0,-0.0778653547167778,0.22066476941108704,0,74.78163146972656
192494,536346111,641203710,0,-0.07805369049310684,0.22137218713760376,0,74.78507232666016
192504,536346111,641203710,0,-0.0787411630153656,0.2219153791666031,0,74.79077911376953
192514,536345087,641204734,0,-0.07887834310531616,0.22248134016990662,0,74.79403686523438
192524,536346111,642252286,0,-0.07893640547990799,0.22249557077884674,0,74.79732513427734
192534,536345087,641203710,0,-0.07859431952238083,0.22294749319553375,0,74.80086517333984
192544,536346111,641203710,0,-0.07782310992479324,0.223655104637146,0,74.80435180664062
192554,536346111,641203710,0,-0.0781138464808464,0.22385576367378235,0,74.806884765625
192564,536345087,641203710,0,-0.0780789777636528,0.22428272664546967,0,74.81085205078125
192574,536346111,641203710,0,-0.07775435596704483,0.22448770701885223,0,74.81355285644531
192584,536345087,641203710,0,-0.07739526033401489,0.22365932166576385,0,74.81868743896484
192594,536345087,641203710,0,-0.07668036222457886,0.2241489440202713,0,74.82223510742188
192604,536345087,641203710,0,-0.0760541558265686,0.22573700547218323,0,74.82678985595703
192614,536346111,642252286,0,-0.07556634396314621,0.22620047628879547,0,74.82837677001953
192624,536346111,641203710,0,-0.07603210210800171,0.22684569656848907,0,74.83219146728516
192634,536346111,641203710,0,-0.07612244039773941,0.22836008667945862,0,74.8343505859375
192644,536346111,641203710,0,-0.07663877308368683,0.2289963960647583,0,74.83815002441406
192654,536346111,641203710,0,-0.07687363028526306,0.23050448298454285,0,74.8409652709961
192664,536345087,641204734,0,-0.07567860931158066,0.23270480334758759,0,74.8443603515625
192674,536346111,641203710,0,-0.07576321810483932,0.2339029461145401,0,74.84664916992188
192684,536345087,641203710,0,-0.0768468901515007,0.23532839119434357,0,74.84974670410156
192694,536346111,641203710,0,-0.07672242820262909,0.23521332442760468,0,74.85234069824219
192704,536346111,641203710,0,-0.07824886590242386,0.23733115196228027,0,74.85641479492188
192714,536346111,641203710,0,-0.07913665473461151,0.23782101273536682,0,74.8591537475586
192724,536346111,641203710,0,-0.08013604581356049,0.23888732492923737,0,74.86224365234375
192734,536346111,642252286,0,-0.0804300382733345,0.23964343965053558,0,74.8652114868164
192744,536346111,641203710,0,-0.08081825822591782,0.2403963804244995,0,74.869873046875
192754,536346111,641203710,0,-0.0809166356921196,0.2404952198266983,0,74.87271118164062
192764,536346111,641203710,0,-0.08134329319000244,0.24083545804023743,0,74.87680053710938
192774,536345087,641203710,0,-0.08171648532152176,0.24193508923053741,0,74.87919616699219
192784,536346111,641203710,0,-0.08211611956357956,0.2434491664171219,0,74.88422393798828
192794,536346111,641204734,0,-0.08195395767688751,0.24485109746456146,0,74.88709259033203
192804,536346111,642252286,0,-0.08337118476629257,0.24619309604167938,0,74.88996124267578
192814,536346111,641203710,0,-0.0837116613984108,0.2477317899465561,0,74.89358520507812
192824,536345087,641204734,0,-0.0851866826415062,0.2480156421661377,0,74.89643859863281
192834,536346111,642252286,0,-0.08558787405490875,0.24879056215286255,0,74.89860534667969
192844,536345087,641203710,0,-0.08586525917053223,0.25028425455093384,0,74.90312194824219
192854,536345087,641203710,0,-0.085431769490242,0.2503576874732971,0,74.90680694580078
192864,536346111,641203710,0,-0.08533975481987,0.2508407533168793,0,74.91048431396484
192874,536345087,641204734,0,-0.08524961769580841,0.25118717551231384,0,74.9129409790039
192884,536346111,641204734,0,-0.08641071617603302,0.25117266178131104,0,74.9173812866211
192894,536345087,641203710,0,-0.08701091259717941,0.2518164813518524,0,74.91973114013672
192904,536346111,641203710,0,-0.08762075752019882,0.25260376930236816,0,74.92350006103516
192914,536346111,641203710,0,-0.08816350996494293,0.25207728147506714,0,74.9267349243164
192924,536346111,642252286,0,-0.08890751749277115,0.2515923082828522,0,74.93103790283203
192934,536345087,642252286,0,-0.08875379711389542,0.2515720725059509,0,74.93435668945312
192944,536345087,641203710,0,-0.08785060048103333,0.2513848841190338,0,74.93826293945312
192954,536346111,641204734,0,-0.0875316634774208,0.2525414526462555,0,74.9412841796875
192964,536346111,641203710,0,-0.08748265355825424,0.2536144554615021,0,74.94593048095703
192974,536346111,641204734,0,-0.08805658668279648,0.25394806265830994,0,74.94837951660156
192984,536345087,641204734,0,-0.08773860335350037,0.2541623115539551,0,74.95265197753906
192994,536345087,641203710,0,-0.08740884065628052,0.2544494867324829,0,74.95500183105469
193004,536345087,642252286,0,-0.08677221834659576,0.2553296387195587,0,74.95885467529297
193014,536345087,642252286,0,-0.08696354180574417,0.25514641404151917,0,74.96109771728516
193024,536346111,642252286,0,-0.0866256058216095,0.2550332844257355,0,74.96533966064453
193034,536345087,641203710,0,-0.08601521700620651,0.2545144557952881,0,74.96733093261719
193044,536345087,641204734,0,-0.08545336127281189,0.25518643856048584,0,74.9703369140625
193054,536346111,641204734,0,-0.08553624153137207,0.25603973865509033,0,74.97328186035156
193064,536346111,641204734,0,-0.08618547767400742,0.2563157081604004,0,74.97799682617188
193074,536345087,641203710,0,-0.08684024959802628,0.25671693682670593,0,74.98123168945312
193084,536345087,642252286,0,-0.0865345448255539,0.25681430101394653,0,74.98607635498047
193094,536346111,642253310,0,-0.08694490045309067,0.2570154666900635,0,74.98938751220703
193104,536346111,642253310,0,-0.08771567046642303,0.25882941484451294,0,74.99415588378906
193114,536346111,641203710,0,-0.08816403150558472,0.25941047072410583,0,74.99627685546875
193124,536345087,641203710,0,-0.08794139325618744,0.259359210729599,0,75.00053405761719
193134,536345087,641203710,0,-0.08767048269510269,0.25980570912361145,0,75.00262451171875
193144,536346111,641203710,0,-0.08843132853507996,0.26037049293518066,0,75.00716400146484
193154,536345087,641203710,0,-0.08863063156604767,0.26073092222213745,0,75.01065063476562
193164,536346111,641204734,0,-0.08816606551408768,0.26121872663497925,0,75.01374053955078
193174,536346111,641203710,0,-0.08798065781593323,0.2613082826137543,0,75.01607513427734
193184,536346111,641203710,0,-0.08720092475414276,0.2611145079135895,0,75.02056121826172
193194,536345087,641203710,0,-0.0868537649512291,0.26091909408569336,0,75.02290344238281
193204,536345087,641203710,0,-0.08640781044960022,0.25983357429504395,0,75.02657318115234
193214,536345087,641204734,0,-0.0861012190580368,0.2601482570171356,0,75.0285873413086
193224,536346111,641204734,0,-0.085784912109375,0.2606547772884369,0,75.0323715209961
193234,536346111,641203710,0,-0.08608108013868332,0.26119980216026306,0,75.03546905517578
193244,536346111,641204734,0,-0.08695528656244278,0.26243647933006287,0,75.03913879394531
193254,536346111,641204734,0,-0.08742021769285202,0.2629067301750183,0,75.04067993164062
193264,536346111,641203710,0,-0.08742279559373856,0.263896107673645,0,75.04483795166016
193274,536345087,641203710,0,-0.08772674947977066,0.26377323269844055,0,75.04866027832031
193284,536345087,642252286,0,-0.08787841349840164,0.26329556107521057,0,75.05255889892578
193294,536346111,641204734,0,-0.08869311213493347,0.2633759677410126,0,75.0557632446289
193304,536345087,641204734,0,-0.0885373130440712,0.2627394497394562,0,75.0596694946289
193314,536345087,641203710,0,-0.0881233736872673,0.2620898485183716,0,75.0623779296875
193324,536346111,641203710,0,-0.08806112408638,0.26170825958251953,0,75.06678009033203
193334,536346111,641203710,0,-0.08916091918945312,0.2614700198173523,0,75.06963348388672
193344,536345087,641203710,0,-0.08887325972318649,0.2616913318634033,0,75.0737533569336
193354,536346111,641203710,0,-0.089137502014637,0.2624724209308624,0,75.07682037353516
193364,536345087,641203710,0,-0.08870957791805267,0.26247453689575195,0,75.08086395263672
193374,536345087,641203710,0,-0.08811341971158981,0.2617456018924713,0,75.08269500732422
193384,536346111,641203710,0,-0.08839370310306549,0.261340856552124,0,75.08570098876953
193394,536346111,641203710,0,-0.08906537294387817,0.2608841359615326,0,75.0889892578125
193404,536345087,641204734,0,-0.08898597210645676,0.260724276304245,0,75.09282684326172
193414,536345087,641203710,0,-0.0887029692530632,0.2609942555427551,0,75.09622192382812
193424,536345087,641203710,0,-0.08785822242498398,0.2606685757637024,0,75.1009750366211
193434,536346111,641203710,0,-0.08814013749361038,0.26081281900405884,0,75.10315704345703
193444,536345087,641204734,0,-0.08855602890253067,0.2605147659778595,0,75.10710144042969
193454,536345087,641203710,0,-0.08797755092382431,0.26038020849227905,0,75.11019897460938
193464,536345087,642252286,0,-0.08750100433826447,0.25955629348754883,0,75.1136474609375
193474,536346111,642252286,0,-0.08761253952980042,0.2589446008205414,0,75.11613464355469
193484,536345087,641203710,0,-0.08729566633701324,0.2586708664894104,0,75.12030792236328
193494,536346111,641204734,0,-0.08678179234266281,0.2593122720718384,0,75.12287139892578
193504,536346111,641203710,0,-0.0870543122291565,0.2597057819366455,0,75.12657928466797
193514,536345087,641203710,0,-0.087190642952919,0.2591104507446289,0,75.12886810302734
193524,536346111,641204734,0,-0.08783528953790665,0.2588520050048828,0,75.13351440429688
193534,536346111,642253310,0,-0.08824189007282257,0.25915050506591797,0,75.13611602783203
193544,536345087,641203710,0,-0.08861242234706879,0.2591365873813629,0,75.14051818847656
193554,536346111,641203710,0,-0.08820382505655289,0.26023590564727783,0,75.14283752441406
193564,536346111,641203710,0,-0.08830543607473373,0.2601003050804138,0,75.14635467529297
193574,536345087,641203710,0,-0.08815965801477432,0.2598777115345001,0,75.14851379394531
193584,536346111,641204734,0,-0.08845976740121841,0.2605430483818054,0,75.15303802490234
193594,536346111,641203710,0,-0.08867295831441879,0.26080065965652466,0,75.15560913085938
193604,536345087,641203710,0,-0.08831482380628586,0.26048049330711365,0,75.15826416015625
193614,536345087,641203710,0,-0.08766701072454453,0.2601143419742584,0,75.15996551513672
193624,536346111,642252286,0,-0.087265245616436,0.25932058691978455,0,75.16393280029297
193634,536345087,641203710,0,-0.08738408982753754,0.25976505875587463,0,75.16570281982422
193644,536345087,641203710,0,-0.08717289566993713,0.26011860370635986,0,75.16901397705078
193654,536345087,641203710,0,-0.08673201501369476,0.2604163885116577,0,75.171875
193664,536346111,641203710,0,-0.08644857257604599,0.26018980145454407,0,75.17676544189453
193674,536346111,641203710,0,-0.08631289005279541,0.2607116103172302,0,75.17935943603516
193684,536346111,641204734,0,-0.08585260808467865,0.2601242661476135,0,75.18247985839844
193694,536345087,641204734,0,-0.08589107543230057,0.26095661520957947,0,75.18498992919922
193704,537393663,641203710,0,-0.08484677970409393,0.2600870132446289,0,75.19102478027344
193714,536345087,641204734,0,-0.08411610871553421,0.2596434950828552,0,75.1955337524414
193724,537393663,641203710,0,-0.08396639674901962,0.2605022192001343,0,75.20309448242188
193734,536345087,641203710,0,-0.08333588391542435,0.2612183392047882,0,75.20592498779297
193744,536345087,641203710,0,-0.08228766173124313,0.2619723081588745,0,75.2093276977539
193754,536345087,641203710,0,-0.0822484940290451,0.26167839765548706,0,75.2130126953125
193764,537394687,641203711,0,-0.0815734937787056,0.2625984251499176,0,75.21981048583984
193774,537394687,641203711,0,-0.0821879580616951,0.264020174741745,0,75.22688293457031
193784,543686142,640154114,0,-0.0769529864192009,0.259829580783844,0,75.267578125
193794,546831871,641203712,693588530,-0.07115773111581802,0.2570338547229767,57856,75.32064056396484
193804,546831871,641203709,927612740,-0.07257166504859924,0.255863755941391,57856,75.40621185302734
193814,542637567,640157179,1078675270,-0.07680954784154892,0.25749051570892334,22528,75.45207214355469
193824,540539391,640156157,1045055816,-0.08239099383354187,0.25980138778686523,22528,75.4867935180664
193834,538443263,641204733,1129204807,-0.08536683022975922,0.2624672055244446,38400,75.50357055664062
193844,537393663,641205758,1112493126,-0.08618509024381638,0.26563307642936707,38400,75.51903533935547
193854,536346111,641204734,1145916741,-0.08814004808664322,0.26829519867897034,38400,75.52400970458984
193864,536346111,641205758,1162562632,-0.08959448337554932,0.2676219642162323,38400,75.52617645263672
193874,535296510,642251262,1162693445,-0.088155597448349,0.2670147716999054,38400,75.5362777709961
193884,540538366,641202685,1112688965,-0.08834464102983475,0.2641523778438568,38400,75.55105590820312
193894,539490814,643298812,1129400901,-0.08907367289066315,0.26213687658309937,38400,75.5597152709961
193904,538443263,646446586,1146046791,-0.09753331542015076,0.25778958201408386,38400,75.57364654541016
193914,537395712,656932346,1145391951,-0.10291368514299393,0.25312837958335876,38400,75.5789794921875
193924,537394687,647494137,1079463487,-0.12034394592046738,0.25905582308769226,38400,75.583740234375
193934,540538366,646446587,1079266626,-0.12742063403129578,0.2546355426311493,38400,75.60115814208984
193944,542638592,640157184,1162363731,-0.1218385398387909,0.25883588194847107,38400,75.64188385009766
193954,535294463,647500290,1028609092,-0.11599091440439224,0.2605763077735901,38400,75.66702270507812
193964,542641643,634912259,1633953847,-0.13498935103416443,0.23214873671531677,38400,75.68202209472656
193974,539485698,652737022,1214793006,-0.1135576143860817,0.2523822486400604,38400,75.71537780761719
193984,542638595,639103481,1496526441,-0.10150375962257385,0.2618895471096039,38400,75.74748992919922
193994,545786354,643299834,1132414492,-0.17575958371162415,0.2763156294822693,38400,75.79313659667969
194004,542643713,645394942,978341196,-0.21374905109405518,0.23768170177936554,38400,75.86527252197266
194014,546848248,638055935,1516120892,-0.258373886346817,0.27390265464782715,61952,75.91728973388672
194024,551025152,644350463,492789573,-0.3259602189064026,0.20395009219646454,61952,76.0199966430664
194034,547884546,621281790,727078470,-0.3764644265174866,0.2790530025959015,23552,76.0999984741211
194044,549984749,624427516,1448419917,-0.388349324464798,0.23311613500118256,48128,76.20417785644531
194054,545792517,611846655,1011499853,-0.48414647579193115,0.20376268029212952,4608,76.265625
194064,539500026,639110657,1179728195,-0.5543854832649231,0.23749442398548126,27136,76.31282043457031
194074,539514369,655885822,1195194706,-0.5940224528312683,0.23229825496673584,47616,76.3270263671875
194084,536353288,659028482,776557123,-0.7218778729438782,0.26032647490501404,2560,76.34761047363281
194094,534261247,640154109,944392255,-0.8388640880584717,0.26743414998054504,25088,76.34711456298828
194104,530065921,627573242,994199616,-0.982275664806366,0.26995858550071716,52224,76.32386779785156
194114,531111421,619182585,1060913224,-1.040271520614624,0.24792730808258057,12288,76.29279327392578
194124,536368645,630715900,1228222546,-1.1881963014602661,0.3041662275791168,32256,76.28274536132812
194134,543725051,637006328,1278159195,-1.3367235660552979,0.26154541969299316,32256,76.3053207397461
194144,540577276,642250235,0,-1.6389089822769165,0.26867952942848206,0,76.36137390136719
194154,542660089,638057979,0,-1.7793534994125366,0.22296155989170074,0,76.39204406738281
194164,538449410,644349433,0,-1.9284299612045288,0.24734385311603546,0,76.42955780029297
194174,540531202,645400059,0,-1.9433438777923584,0.26472797989845276,0,76.44651794433594
194184,537397757,642254333,0,-1.9389066696166992,0.24973253905773163,0,76.46990203857422
194194,536351247,632816124,0,-1.9248933792114258,0.2782484292984009,0,76.46910095214844
194204,531104243,632815100,0,-2.018221139907837,0.29229697585105896,0,76.4381332397461
194214,527962625,633867773,0,-2.062716484069824,0.27080753445625305,0,76.40553283691406
194224,525854207,627574266,0,-2.0265533924102783,0.29719263315200806,0,76.32778930664062
194234,524793337,644351482,0,-1.9668179750442505,0.2992258369922638,0,76.26998901367188
194244,525857282,647494140,0,-1.8395028114318848,0.30361801385879517,0,76.18185424804688
194254,538429951,659031548,0,-1.8317950963974,0.3041703999042511,0,76.16632843017578
194264,539513336,648542713,0,-1.9519615173339844,0.27424463629722595,0,76.18931579589844
194274,545789444,638056951,0,-2.0333681106567383,0.3030675947666168,0,76.2334976196289
194284,549962229,629668340,0,-2.0331575870513916,0.2970360517501831,0,76.33724975585938
194294,547858949,631766525,0,-1.9255291223526,0.24934354424476624,0,76.40287017822266
194304,551007740,638059004,0,-1.7100720405578613,0.3542575538158417,0,76.51207733154297
194314,556244470,643302903,0,-1.6401304006576538,0.28400251269340515,0,76.60005187988281
194324,551013892,637010428,0,-1.4863768815994263,0.28732404112815857,0,76.74437713623047
194334,553092604,646446591,0,-1.3951345682144165,0.27279144525527954,0,76.83067321777344
194344,547841533,629667324,0,-1.109717845916748,0.2846059203147888,0,76.94168090820312
194354,544692727,639108605,0,-0.9008564949035645,0.2592906653881073,0,76.99373626708984
194364,540494333,644351489,0,-0.5396554470062256,0.23727315664291382,0,77.04258728027344
194374,546785797,645401088,0,-0.2684006094932556,0.21475793421268463,0,77.0897445678711
194384,545780224,671614465,0,-0.023140646517276764,0.2395198941230774,0,77.17454528808594
194394,547877379,634912254,0,-0.03741247579455376,0.243573859333992,0,77.23162078857422
194404,543684093,635960833,0,-0.020330892875790596,0.24889326095581055,0,77.30758666992188
194414,542633467,634911231,0,-0.015975316986441612,0.25268539786338806,0,77.35364532470703
194424,537393664,637009405,0,-0.011208958923816681,0.2595055103302002,0,77.38084411621094
194434,534244858,637009405,0,-0.010261754505336285,0.2446926385164261,0,77.38513946533203
194444,529001983,634911233,0,0.01019266527146101,0.231345996260643,0,77.34664154052734
194454,529000953,635961860,0,0.010260322131216526,0.22661428153514862,0,77.3110580444336
194464,535295486,645401088,0,0.03206706419587135,0.22930455207824707,0,77.26947021484375
194474,535291385,644348412,0,0.051102980971336365,0.2296818643808365,0,77.25959777832031
194484,537386498,645394942,0,0.062424398958683014,0.22022978961467743,0,77.25538635253906
194494,535294459,645395967,0,0.06255338340997696,0.21752017736434937,0,77.26499938964844
194504,533200381,643301887,0,0.06423743069171906,0.1887817680835724,0,77.25773620605469
194514,537391613,644352510,0,0.0473848432302475,0.20396651327610016,0,77.25736236572266
194524,532147715,646446589,0,0.06784499436616898,0.185982346534729,0,77.2419662475586
194534,533203457,645399037,0,0.05462251976132393,0.19722473621368408,0,77.21867370605469
194544,534248954,641203709,0,0.05996285006403923,0.1978582739830017,0,77.20333099365234
194554,533202434,641202687,0,0.058748871088027954,0.17761513590812683,0,77.17842864990234
194564,534251008,641204737,0,0.044866450130939484,0.20348702371120453,0,77.16825866699219
194574,539488769,643300862,0,0.06866093724966049,0.20600111782550812,0,77.17120361328125
194584,539491839,640156159,0,0.0562196746468544,0.20935767889022827,0,77.18363952636719
194594,538438137,638056956,0,0.05807271599769592,0.20873741805553436,0,77.19239044189453
194604,536346112,638059005,0,0.05648213252425194,0.19494499266147614,0,77.19432830810547
194614,532150779,635958782,0,0.0640961304306984,0.1937112808227539,0,77.20718383789062
194624,535299581,635959805,0,0.057323891669511795,0.1707916408777237,0,77.19292449951172
194634,538443261,634912252,0,0.04400714859366417,0.1762460619211197,0,77.17938995361328
194644,540536316,640155134,0,0.04905306547880173,0.16645507514476776,0,77.20052337646484
194654,537395715,641203710,0,0.042737703770399094,0.17469491064548492,0,77.21666717529297
194664,534244863,645398015,0,0.05279092118144035,0.1779857873916626,0,77.22759246826172
194674,536345087,640154113,0,0.046756334602832794,0.1784735769033432,0,77.22667694091797
194684,535296510,643302911,0,0.046298958361148834,0.1805192232131958,0,77.22007751464844
194694,527959552,640157183,0,0.053181242197752,0.17878234386444092,0,77.20077514648438
194704,532151807,641203711,0,0.05080588161945343,0.18956957757472992,0,77.14747619628906
194714,533199359,640154109,0,0.04686702415347099,0.19092802703380585,0,77.12940216064453
194724,536348160,641202685,0,0.036575958132743835,0.19383296370506287,0,77.12405395507812
194734,536345086,641203710,0,0.03462468832731247,0.1932046264410019,0,77.12419128417969
194744,539492865,641203710,0,0.020327307283878326,0.20808829367160797,0,77.14275360107422
194754,537395712,641203710,0,0.018091462552547455,0.21005168557167053,0,77.14974212646484
194764,538443262,640154109,0,0.011545985005795956,0.21782822906970978,0,77.1697769165039
194774,537393663,642254334,0,0.010107072070240974,0.21975749731063843,0,77.18476867675781
194784,537393664,642253311,0,0.013278452679514885,0.22667579352855682,0,77.18717956542969
194794,531102207,641205757,0,0.016115456819534302,0.23090000450611115,0,77.1800765991211
194804,523762176,642257404,0,0.011598349548876286,0.24737392365932465,0,77.10811614990234
194814,514329091,641206781,0,-0.012247330509126186,0.2737601697444916,0,77.0136489868164
194824,521670142,643299839,0,-0.03730228915810585,0.2869250178337097,0,76.87109375
194834,521687549,648541698,0,-0.09856809675693512,0.28226351737976074,0,76.77713775634766
194844,524847617,648542721,0,-0.3286938965320587,0.28028368949890137,0,76.69265747070312
194854,533239295,643298809,0,-0.5448075532913208,0.27365320920944214,0,76.64166259765625
194864,531141119,640155123,0,-0.8845230340957642,0.2862703502178192,0,76.62086486816406
194874,537430530,640156153,0,-1.1062551736831665,0.27427175641059875,0,76.60528564453125
194884,530093561,642255359,0,-1.4185395240783691,0.28383126854896545,0,76.59197998046875
194894,536387075,642254338,0,-1.6309047937393188,0.2865910530090332,0,76.57978820800781
194904,536387068,640155134,0,-1.9628177881240845,0.2727523744106293,0,76.57608032226562
194914,541624830,639103484,0,-2.17134690284729,0.2928094267845154,0,76.59780883789062
194924,541618689,638056952,0,-2.4446871280670166,0.2691752016544342,0,76.64320373535156
194934,543708667,638057974,0,-2.5940802097320557,0.27957475185394287,0,76.67890167236328
194944,541605377,638057977,0,-2.770073652267456,0.2646903991699219,0,76.73863983154297
194954,541597180,638057980,0,-2.8341782093048096,0.2727225720882416,0,76.76480865478516
194964,539497984,641205755,0,-2.8865158557891846,0.2655770182609558,0,76.8086166381836
194974,538455549,644350459,0,-2.9326159954071045,0.2748394310474396,0,76.82445526123047
194984,535313920,643302906,0,-3.0485548973083496,0.2697441875934601,0,76.8385238647461
194994,536363518,641203705,0,-3.144090175628662,0.28252992033958435,0,76.83293914794922
195004,536359423,639107576,0,-3.2790586948394775,0.2727523744106293,0,76.83989715576172
195014,536357375,640155128,0,-3.348200798034668,0.28311076760292053,0,76.83726501464844
195024,535307775,641204728,0,-3.4428136348724365,0.2736061215400696,0,76.84138488769531
195034,533211647,641204727,0,-3.505093574523926,0.2844046950340271,0,76.83223724365234
195044,534256126,639106552,0,-3.593212366104126,0.2725669741630554,0,76.81365966796875
195054,535298560,639106551,0,-3.6144096851348877,0.27986806631088257,0,76.80787658691406
195064,534248958,640156152,0,-3.6251261234283447,0.27633222937583923,0,76.79444122314453
195074,534247936,641203704,0,-3.6226017475128174,0.27768173813819885,0,76.78653717041016
195084,533202430,642253304,0,-3.63435697555542,0.27966395020484924,0,76.7673110961914
195094,534246912,639105528,0,-3.6370410919189453,0.27692660689353943,0,76.7552490234375
195104,534246910,641204727,0,-3.6223278045654297,0.28101179003715515,0,76.74462127685547
195114,535295487,641203705,0,-3.613276243209839,0.2768835723400116,0,76.73625946044922
195124,535297535,642252280,0,-3.601346254348755,0.2800351679325104,0,76.73169708251953
195134,536347134,641203704,0,-3.608496904373169,0.27811434864997864,0,76.72855377197266
195144,538440190,639106551,0,-3.603468179702759,0.26793232560157776,0,76.7378921508789
195154,537388543,640155127,0,-3.58327054977417,0.2655116617679596,0,76.74801635742188
195164,539484670,640155127,0,-3.5378384590148926,0.2647010087966919,0,76.76557159423828
195174,540534272,641203703,0,-3.50281023979187,0.265828937292099,0,76.78636932373047
195184,543679998,641202680,0,-3.4623782634735107,0.2693113088607788,0,76.83272552490234
195194,543676927,639106551,0,-3.4256038665771484,0.2660437524318695,0,76.873046875
195204,546818559,639105526,0,-3.3444063663482666,0.2711099088191986,0,76.94551849365234
195214,547863037,639106552,0,-3.269185781478882,0.26792842149734497,0,77.00981140136719
195224,548909566,641204728,0,-3.123903751373291,0.2652927041053772,0,77.11015319824219
195234,545765885,642254332,0,-3.0259408950805664,0.26578885316848755,0,77.17607116699219
195244,540521982,641204733,0,-2.8796467781066895,0.26429468393325806,0,77.23355865478516
195254,540516863,639108601,0,-2.7654201984405518,0.2682992219924927,0,77.25627136230469
195264,539463166,638059000,0,-2.563156843185425,0.27187344431877136,0,77.28784942626953
195274,540503551,637009401,0,-2.393280506134033,0.27058514952659607,0,77.30714416503906
195284,541543935,638057977,0,-2.0643813610076904,0.2710629999637604,0,77.34708404541016
195294,539449854,643301883,0,-1.8233249187469482,0.2719166576862335,0,77.3702621459961
195304,538411519,646447613,0,-1.513369083404541,0.2714613974094391,0,77.39561462402344
195314,539468287,645399038,0,-1.3586145639419556,0.27417638897895813,0,77.40980529785156
195324,538422783,643301885,0,-1.1756075620651245,0.27749574184417725,0,77.4326400756836
195334,537377279,642253310,0,-1.0716776847839355,0.2789897620677948,0,77.4427261352539
195344,535284223,643301888,0,-0.9414293766021729,0.2821226716041565,0,77.44524383544922
195354,533192191,643301886,0,-0.8794940114021301,0.28586605191230774,0,77.43513488769531
195364,534238719,640155130,0,-0.8130702376365662,0.28691548109054565,0,77.4140625
195374,536323583,635960824,0,-0.7426902651786804,0.2857169806957245,0,77.4088134765625
195384,537360895,637009404,0,-0.5215328931808472,0.2829788625240326,0,77.41902160644531
195394,537362942,643300865,0,-0.3346830904483795,0.28044387698173523,0,77.4253921508789
195404,536326655,647496194,0,-0.11716268956661224,0.277222216129303,0,77.431884765625
195414,535286271,644350465,0,-0.028591427952051163,0.27688857913017273,0,77.43244934082031
195424,533198333,647496191,0,0.03834870085120201,0.2645762860774994,0,77.4139633178711
195434,529007103,641204736,0,0.028542492538690567,0.27506208419799805,0,77.38772583007812
195444,531102206,642254336,0,0.04352289065718651,0.2690516412258148,0,77.34046173095703
195454,529006079,640157183,0,0.03408052399754524,0.27974194288253784,0,77.30640411376953
195464,531102206,642253307,0,0.03763628751039505,0.2760780155658722,0,77.25099182128906
195474,533200384,642251259,0,0.03066568449139595,0.27792981266975403,0,77.22724151611328
195484,535296511,642250235,0,0.022694066166877747,0.27544936537742615,0,77.2122802734375
195494,536346111,641202684,0,0.015294098295271397,0.2758542597293854,0,77.21044921875
195504,536345086,641203710,0,0.01161111332476139,0.2754283845424652,0,77.21592712402344
195514,536345086,641203710,0,0.011311260983347893,0.27468276023864746,0,77.21819305419922
195524,537392637,641202684,0,0.015024779364466667,0.2652115225791931,0,77.22509002685547
195534,538443264,642250232,0,0.009481933899223804,0.2604908049106598,0,77.2348861694336
195544,535296510,641203704,0,-0.013126907870173454,0.2604256272315979,0,77.24346160888672
195554,534248958,641203706,0,-0.018570926040410995,0.25286561250686646,0,77.23674774169922
195564,533199359,641202678,0,-0.03264922276139259,0.2489844411611557,0,77.22158813476562
195574,535297534,641203705,0,-0.046125542372465134,0.24458669126033783,0,77.21089935302734
195584,532151807,641206791,0,-0.04295870289206505,0.24783457815647125,0,77.1886978149414
195594,535297535,640158224,0,-0.022016486153006554,0.2513989508152008,0,77.1780776977539
195604,538442239,641205766,0,0.018941329792141914,0.2609933912754059,0,77.18135833740234
195614,536345087,642253309,0,0.02383510023355484,0.26197385787963867,0,77.18624877929688
195624,536345087,642252285,0,0.02121911011636257,0.2625525891780853,0,77.19098663330078
195634,536345087,641203710,0,0.02048233337700367,0.26244455575942993,0,77.19540405273438
195644,536345087,641204734,0,0.01935560815036297,0.2641679644584656,0,77.1971664428711
195654,536346111,641203710,0,0.01934410072863102,0.26437756419181824,0,77.20049285888672
195664,536345087,641203710,0,0.018057098612189293,0.2641605734825134,0,77.20471954345703
195674,536345087,642252286,0,0.01760837808251381,0.2635611593723297,0,77.20703887939453
195684,536346111,642252286,0,0.016960449516773224,0.2625928521156311,0,77.21062469482422
195694,536346111,642252286,0,0.016999773681163788,0.2633802592754364,0,77.21353149414062
195704,536346111,642252286,0,0.016740046441555023,0.2642580270767212,0,77.2164077758789
195714,536345087,642252286,0,0.01700715534389019,0.26476848125457764,0,77.21866607666016
195724,536346111,641203710,0,0.01567106880247593,0.26622846722602844,0,77.22175598144531
195734,536346111,641203710,0,0.015118466690182686,0.2668355107307434,0,77.2242202758789
195744,536346111,641203710,0,0.013931692577898502,0.26880988478660583,0,77.22727966308594
195754,536346111,641203710,0,0.013521968387067318,0.26887091994285583,0,77.22984313964844
195764,536346111,642252286,0,0.012024386785924435,0.2710312604904175,0,77.23384094238281
195774,536346111,641203710,0,0.010924485512077808,0.27159005403518677,0,77.23538970947266
195784,536346111,641203710,0,0.00982049573212862,0.2742885649204254,0,77.2386474609375
195794,536345087,641203710,0,0.009945528581738472,0.27472007274627686,0,77.24092864990234
195804,536345087,641203710,0,0.009298830293118954,0.27671000361442566,0,77.2452163696289
195814,536346111,641204734,0,0.008608597330749035,0.2769390940666199,0,77.2469253540039
195824,536346111,641204734,0,0.007765241898596287,0.2784842550754547,0,77.24979400634766
195834,536346111,641204734,0,0.007065300829708576,0.27930209040641785,0,77.25223541259766
195844,536346111,641204734,0,0.006039120722562075,0.2808692455291748,0,77.25605773925781
195854,536346111,641203710,0,0.005699671804904938,0.28134584426879883,0,77.2588119506836
195864,536346111,642252286,0,0.004282219335436821,0.28140732645988464,0,77.26252746582031
195874,536346111,642252286,0,0.004052269272506237,0.2810019254684448,0,77.26464080810547
195884,536345087,642252286,0,0.00348059949465096,0.2815786898136139,0,77.26847839355469
195894,536346111,641203710,0,0.0035171154886484146,0.28204989433288574,0,77.27145385742188
195904,536345087,641204734,0,0.00392003683373332,0.2818034887313843,0,77.27406311035156
195914,536345087,641204734,0,0.003996533807367086,0.28208544850349426,0,77.27690887451172
195924,536345087,641204734,0,0.0036741048097610474,0.2831696569919586,0,77.2813720703125
195934,536345087,641204734,0,0.003791130380704999,0.28380823135375977,0,77.28324127197266
195944,536346111,641203710,0,0.00392720103263855,0.28515997529029846,0,77.2875747680664
195954,536346111,642252286,0,0.0034605758264660835,0.2853666841983795,0,77.29031372070312
195964,536346111,642252286,0,0.0027337977662682533,0.28500646352767944,0,77.29440307617188
195974,536345087,642252286,0,0.002538600005209446,0.28429123759269714,0,77.29647064208984
195984,536346111,641203710,0,0.0019524883246049285,0.2841370701789856,0,77.30023193359375
195994,536345087,641203710,0,0.0014973554061725736,0.28473398089408875,0,77.30349731445312
196004,536346111,641204734,0,0.0011127926409244537,0.28532880544662476,0,77.3084945678711
196014,536346111,641203710,0,0.0005456149810925126,0.2858082056045532,0,77.31138610839844
196024,536346111,641204734,0,-0.0001313819520873949,0.2852080166339874,0,77.31562042236328
196034,536345087,641203710,0,-0.00012164943473180756,0.2857556641101837,0,77.31864929199219
196044,536346111,641203710,0,-0.0005253439303487539,0.2853441834449768,0,77.32271575927734
196054,536345087,642252286,0,-0.000825556053314358,0.28571295738220215,0,77.32483673095703
196064,536346111,642253310,0,-0.0002399522199993953,0.2872530519962311,0,77.3293228149414
196074,536345087,641203710,0,-0.0006575050065293908,0.28779923915863037,0,77.33185577392578
196084,536345087,641203710,0,-0.0006449288339354098,0.2877953350543976,0,77.33641815185547
196094,536345087,641203710,0,-0.0003996884624939412,0.28810933232307434,0,77.33955383300781
196104,536346111,641203710,0,0.00013926514657214284,0.2895940840244293,0,77.34449768066406
196114,536346111,641203710,0,-0.00018074801482725888,0.29024890065193176,0,77.3479995727539
196124,536344064,642255360,0,0.002189502352848649,0.29326555132865906,0,77.35249328613281
196134,536343038,641228320,0,0.03869858756661415,0.3207255005836487,0,77.36822509765625
196144,502789630,642289209,0,0.161162331700325,0.39148780703544617,0,77.24772644042969
196154,496501248,638089763,0,0.23360039293766022,0.4480685293674469,0,77.03439331054688
196164,512229885,637025798,0,0.28318628668785095,0.5124781131744385,0,76.77074432373047
196174,504888831,642219500,0,0.2646622955799103,0.49760866165161133,0,76.6593246459961
196184,486014463,640116202,0,0.21326886117458344,0.402940571308136,0,76.31136322021484
196194,479721983,641187318,0,0.18259301781654358,0.3583966791629791,0,76.02537536621094
196204,491256318,640155131,0,0.17238569259643555,0.3368770182132721,0,75.60894012451172
196214,498597374,641197559,0,0.16601981222629547,0.3317149877548218,0,75.39376831054688
196224,504888829,639081955,0,0.11030835658311844,0.2844923734664917,0,75.09908294677734
196234,542638589,641182166,0,0.04463860020041466,0.23826712369918823,0,75.02534484863281
196244,558367229,642238955,0,-0.038718078285455704,0.17765463888645172,0,75.14561462402344
196254,566755838,643296769,0,-0.059902217239141464,0.15289071202278137,0,75.28939056396484
196264,576190975,644348426,0,-0.04076019302010536,0.14509625732898712,0,75.56759643554688
196274,582482431,640156179,0,-0.014859013259410858,0.1460452675819397,0,75.79547882080078
196284,590871039,640143886,0,0.039223141968250275,0.1372654289007187,0,76.20735168457031
196294,583529983,641179148,0,0.06702756881713867,0.1063246801495552,0,76.48809051513672
196304,557316606,643268109,0,0.10841186344623566,0.03681037202477455,0,76.79114532470703
196314,535296511,641178120,0,0.1335001140832901,-0.01125443633645773,0,76.83441925048828
196324,517470718,644333061,0,0.1579965353012085,-0.06765187531709671,0,76.75748443603516
196334,505935359,641200637,0,0.16269876062870026,-0.08597584813833237,0,76.61137390136719
196344,509082110,640155128,0,0.15852877497673035,-0.08437708765268326,0,76.3852310180664
196354,514324990,643302901,0,0.1477639228105545,-0.08144672960042953,0,76.24972534179688
196364,521666048,642262517,0,0.12170412391424179,-0.06785543262958527,0,76.10812377929688
196374,520616446,640168440,0,0.10637236386537552,-0.04599032178521156,0,76.03165435791016
196384,522714622,638071292,0,0.09953887015581131,-0.020399851724505424,0,75.91558837890625
196394,525858302,639119867,0,0.08935664594173431,0.010105396620929241,0,75.84595489501953
196404,525857279,641219066,0,0.08305098861455917,0.03980454429984093,0,75.76689910888672
196414,531102206,640183817,0,0.09004624933004379,0.08150317519903183,0,75.72392272949219
196424,542639617,641234439,0,0.1226884201169014,0.15755949914455414,0,75.72969055175781
196434,563608062,641221115,0,0.12254741042852402,0.19807973504066467,0,75.82258605957031
196444,557316607,641207808,0,0.120929054915905,0.21708400547504425,0,76.02938079833984
196454,537394687,640151045,0,0.12890169024467468,0.22014909982681274,0,76.09990692138672
196464,510131711,642245120,0,0.14056573808193207,0.2049815058708191,0,76.02113342285156
196474,483916287,640150008,0,0.13742780685424805,0.19314318895339966,0,75.79998016357422
196484,483915262,639109619,0,0.1071375384926796,0.1907424032688141,0,75.36431121826172
196494,491257343,642258419,0,0.0886770710349083,0.1988958865404129,0,75.10123443603516
196504,496499199,641208819,0,0.05907466635107994,0.2156582474708557,0,74.76498413085938
196514,499645950,641206773,0,0.03856813162565231,0.21688999235630035,0,74.55664825439453
196524,516422142,640160246,0,0.010950883850455284,0.21946901082992554,0,74.32312774658203
196534,534247934,640162295,0,-0.0020171217620372772,0.23190730810165405,0,74.26195526123047
196544,536346111,642253309,0,-0.01456153579056263,0.2415669709444046,0,74.26869201660156
196554,537393663,641203711,0,-0.014774955809116364,0.24165701866149902,0,74.27010345458984
196564,536346111,642252286,0,-0.01429428905248642,0.24099791049957275,0,74.27281951904297
196574,536346111,641203710,0,-0.015033897943794727,0.24192456901073456,0,74.27658081054688
196584,536346111,642252286,0,-0.01609409600496292,0.24075156450271606,0,74.27946472167969
196594,536346111,641203710,0,-0.01624942198395729,0.24059097468852997,0,74.28217315673828
196604,536345087,641204735,0,-0.01602167636156082,0.24135524034500122,0,74.28600311279297
196614,539489791,641207810,0,-0.006663322448730469,0.249372199177742,0,74.29520416259766
196624,540541439,641217033,0,0.010588780045509338,0.26521551609039307,0,74.31510925292969
196634,546831869,641213961,0,0.027040403336286545,0.28511127829551697,0,74.36741638183594
196644,517472766,642237949,0,0.030393676832318306,0.2699606716632843,0,74.3484878540039
196654,512228863,641194485,0,0.017889225855469704,0.24375487864017487,0,74.21227264404297
196664,527957502,641199602,0,-0.01729930005967617,0.22390088438987732,0,74.0758285522461
196674,538443263,644349430,0,-0.0452328585088253,0.2119966447353363,0,74.06123352050781
196684,613937660,641206740,0,-0.07041783630847931,0.2150939404964447,0,74.28885650634766
196694,653785597,640137699,0,-0.12550018727779388,0.1828949898481369,0,74.88568878173828
196704,656929277,640145920,0,-0.14296627044677734,0.12595009803771973,0,75.84513092041016
196714,674760183,633862667,0,-0.11660175770521164,0.09823662787675858,0,76.5479507446289
196724,586683896,640159280,0,-0.08477717638015747,0.022574173286557198,0,77.4037094116211
196734,552071681,650654225,0,-0.0277019701898098,0.03004845790565014,0,77.52803039550781
196744,546828801,644353534,0,0.013103741221129894,0.07630518078804016,0,77.63479614257812
196754,551023106,641201658,0,0.020964430645108223,0.09031936526298523,0,77.69622802734375
196764,567802367,641196538,0,0.021033961325883865,0.09841890633106232,0,77.87195587158203
196774,586676736,642245118,0,0.018608208745718002,0.08566619455814362,0,78.09061431884766
196784,605551102,642248197,0,0.03114430606365204,0.07486552745103836,0,78.57939910888672
196794,623376897,641205766,0,0.04696877673268318,0.0783962607383728,0,78.99826049804688
196804,634912255,640159233,0,0.06668834388256073,0.09551146626472473,0,79.74943542480469
196814,653786623,638062077,0,0.05293608829379082,0.10472996532917023,0,80.3344955444336
196824,650640894,641208826,0,0.044852323830127716,0.12288544327020645,0,81.25720977783203
196834,639105535,641212926,0,0.043969959020614624,0.1300750970840454,0,81.8467788696289
196844,621280768,642259454,0,0.04743604734539986,0.1550949364900589,0,82.62816619873047
196854,603455999,641209848,0,0.038817670196294785,0.1676323562860489,0,83.02791595458984
196864,588774910,643301880,0,0.01505248062312603,0.17105886340141296,0,83.52033233642578
196874,573046271,643301888,0,0.004410021938383579,0.16792654991149902,0,83.76445770263672
196884,566753791,641201660,0,0.008251127786934376,0.17171795666217804,0,84.02793884277344
196894,568851966,640154105,0,-0.0033322141971439123,0.16671115159988403,0,84.20262145996094
196904,569901566,640156152,0,-0.024615367874503136,0.1667562872171402,0,84.45372772216797
196914,580386302,641206777,0,-0.04265603423118591,0.16679799556732178,0,84.6629638671875
196924,566752767,641202691,0,-0.032861460000276566,0.1671159565448761,0,84.96195220947266
196934,577239552,641206779,0,-0.029170269146561623,0.1703556478023529,0,85.16038513183594
196944,577239551,642253307,0,-0.03150204196572304,0.18252399563789368,0,85.48954772949219
196954,579337728,642251263,0,-0.047980815172195435,0.18054434657096863,0,85.75353240966797
196964,586677758,640156154,0,-0.04661586880683899,0.18787309527397156,0,86.0981674194336
196974,590871039,642253308,0,-0.05522427335381508,0.18736281991004944,0,86.3938217163086
196984,587727359,641203710,0,-0.05323133245110512,0.18840542435646057,0,86.82688903808594
196994,594016767,641205753,0,-0.060406602919101715,0.19732977449893951,0,87.1181411743164
197004,592968191,639109629,0,-0.056362785398960114,0.20970416069030762,0,87.57115173339844
197014,600309248,641205759,0,-0.06460995972156525,0.2241612672805786,0,87.89421081542969
197024,595065344,641205758,0,-0.04986003041267395,0.23410387337207794,0,88.3749008178711
197034,598211072,642256384,0,-0.04774042218923569,0.2429945468902588,0,88.71062469482422
197044,590872064,640164356,0,-0.0250970721244812,0.27545830607414246,0,89.17347717285156
197054,577237503,642258436,0,-0.005606129765510559,0.30015069246292114,0,89.44963073730469
197064,585629185,644356607,0,0.0076255714520812035,0.3247445225715637,0,89.80137634277344
197074,581433856,643307007,0,0.010513782501220703,0.3441081941127777,0,90.04928588867188
197084,587725312,640162303,0,0.014733881689608097,0.3766038715839386,0,90.43394470214844
197094,587727360,639114762,0,0.015844659879803658,0.3915344774723053,0,90.72257232666016
197104,584580607,639110667,0,0.05072784051299095,0.4249347150325775,0,91.1358413696289
197114,577240576,640147968,0,0.063636414706707,0.4284668564796448,0,91.36331176757812
197124,568851968,641190395,0,0.05473241209983826,0.40131235122680664,0,91.67098999023438
197134,560462334,642241020,0,0.050618261098861694,0.38060688972473145,0,91.82518005371094
197144,551026176,642241019,0,0.04419253394007683,0.3552091121673584,0,91.98672485351562
197154,546831870,642239995,0,0.03207213059067726,0.33707237243652344,0,92.05601501464844
197164,541588991,641191419,0,0.020351683720946312,0.3019692301750183,0,92.12799835205078
197174,535297534,641198590,0,0.014294291846454144,0.28032755851745605,0,92.13418579101562
197184,535297535,641203710,0,0.011891006492078304,0.27746087312698364,0,92.13298797607422
197194,536346111,640157183,0,0.009048033505678177,0.2772601842880249,0,92.13020324707031
197204,535297535,641204734,0,0.006708483677357435,0.2783623933792114,0,92.12998962402344
197214,536346111,641203710,0,0.005480008199810982,0.2808060050010681,0,92.13072967529297
197224,536346111,642253310,0,0.0023239750880748034,0.280349463224411,0,92.12919616699219
197234,536346111,642253310,0,0.00033455490483902395,0.27969497442245483,0,92.12931823730469
197244,535297535,642252286,0,-0.0023878072388470173,0.27981314063072205,0,92.13006591796875
197254,536346111,642252287,0,-0.0031016054563224316,0.2801433801651001,0,92.12995147705078
197264,536346111,641204734,0,-0.004358152858912945,0.2802927494049072,0,92.12979888916016
197274,536346110,641203711,0,-0.0047641899436712265,0.2802429497241974,0,92.12934112548828
197284,536346111,641204734,0,-0.006227659527212381,0.2805728614330292,0,92.12953186035156
197294,536346111,641204735,0,-0.008453643880784512,0.2819517254829407,0,92.12850189208984
197304,535297535,641203710,0,-0.010419484227895737,0.2829866111278534,0,92.1280746459961
197314,536346111,642252287,0,-0.012370379641652107,0.282716304063797,0,92.12821197509766
197324,536346111,642252286,0,-0.015288515947759151,0.28132832050323486,0,92.12740325927734
197334,536346111,642252287,0,-0.017835181206464767,0.28130027651786804,0,92.12578582763672
197344,536346111,642252286,0,-0.019342146813869476,0.2822403013706207,0,92.12606811523438
197354,536346111,641203711,0,-0.021336408331990242,0.28291311860084534,0,92.12528991699219
197364,536346111,641204734,0,-0.021377740427851677,0.2827681303024292,0,92.12610626220703
197374,536346111,641204735,0,-0.02270553633570671,0.2838312089443207,0,92.12633514404297
197384,536346111,641203710,0,-0.024316124618053436,0.2846747934818268,0,92.12722778320312
197394,536346111,641204735,0,-0.026873670518398285,0.2856314778327942,0,92.12628936767578
197404,536346111,641203710,0,-0.02945653721690178,0.2857877016067505,0,92.1262435913086
197414,536346111,642252287,0,-0.03155233711004257,0.2862582802772522,0,92.12562561035156
197424,536346111,642252286,0,-0.03274453431367874,0.2859649062156677,0,92.12570190429688
197434,536346111,642252287,0,-0.03508743643760681,0.28660720586776733,0,92.12405395507812
197444,536346111,641204734,0,-0.035934507846832275,0.28780698776245117,0,92.12409973144531
197454,536346111,641203710,0,-0.03734704479575157,0.28901058435440063,0,92.12381744384766
197464,536346111,641204734,0,-0.039113275706768036,0.2889971137046814,0,92.124755859375
197474,536346111,641204735,0,-0.041046399623155594,0.28963297605514526,0,92.12448120117188
197484,536346111,641204734,0,-0.0434994101524353,0.290213942527771,0,92.12559509277344
197494,536346111,641204734,0,-0.045834045857191086,0.29056236147880554,0,92.12530517578125
197504,536346111,642253310,0,-0.04769475385546684,0.2912848889827728,0,92.12500762939453
197514,536346111,642252286,0,-0.04972544685006142,0.29207277297973633,0,92.12504577636719
197524,536346111,642252286,0,-0.05156680569052696,0.2921789884567261,0,92.12626647949219
197534,536346111,641204734,0,-0.0540604330599308,0.2921949625015259,0,92.12579345703125
197544,536346111,641204734,0,-0.055363304913043976,0.2919710874557495,0,92.12675476074219
197554,536346111,641203711,0,-0.05636740103363991,0.2926607131958008,0,92.12630462646484
197564,536346111,641203710,0,-0.057983335107564926,0.29216665029525757,0,92.12683868408203
197574,536346111,641203710,0,-0.06010821834206581,0.29271844029426575,0,92.12682342529297
197584,536346111,641204734,0,-0.061926789581775665,0.2924109697341919,0,92.12650299072266
197594,536346111,642252286,0,-0.06334760040044785,0.29162055253982544,0,92.12657165527344
197604,536346111,642252286,0,-0.0649101585149765,0.29165148735046387,0,92.12614440917969
197614,535297535,641203710,0,-0.06642524152994156,0.29206013679504395,0,92.12554931640625
197624,536346111,641203710,0,-0.06745453923940659,0.290736585855484,0,92.12435150146484
197634,536346111,641203710,0,-0.06900522112846375,0.29031381011009216,0,92.12376403808594
197644,536346111,641204734,0,-0.07103422284126282,0.29030734300613403,0,92.12444305419922
197654,536346111,641203710,0,-0.07317926734685898,0.2902185320854187,0,92.12474060058594
