Timestamp,compactImu.a_xyz,compactImu.l_xyz,motorCompact.pwms,stabilizer.pitch,stabilizer.roll,stabilizer.thrust,stabilizer.yaw
2798834,536346111,641202687,0,0.539990425,-0.711221874,0,-54.65488434
2798844,535297535,641202687,0,0.539111912,-0.711506963,0,-54.6557579
2798854,536346111,641202687,0,0.53792572,-0.712226987,0,-54.65748596
2798864,536346111,641202687,0,0.537595332,-0.713220119,0,-54.65872192
2798874,536346111,641202687,0,0.536554337,-0.714153111,0,-54.66027832
2798884,535297535,641202687,0,0.536558926,-0.714090586,0,-54.6622467
2798894,535297535,641202688,0,0.535090685,-0.714445114,0,-54.66459274
2798904,536346111,641202688,0,0.535234094,-0.713692129,0,-54.66590881
2798914,536346111,641203711,0,0.535575211,-0.712583125,0,-54.66697311
2798924,536345087,641203711,0,0.536017537,-0.712236226,0,-54.66783524
2798934,536345087,641202687,0,0.537230849,-0.71217531,0,-54.66889572
2798944,535297535,641202687,0,0.537386894,-0.712132931,0,-54.6705246
2798954,536346111,641202687,0,0.536722541,-0.712481081,0,-54.671772
2798964,535297535,641202687,0,0.536272347,-0.712856174,0,-54.67377853
2798974,535297535,641202687,0,0.536205947,-0.712281883,0,-54.67595673
2798984,536346111,641202687,0,0.535962462,-0.712014198,0,-54.67717743
2798994,535297535,641202687,0,0.536355317,-0.712113142,0,-54.67882919
2799004,536346111,641202687,0,0.536457777,-0.712577879,0,-54.67979813
2799014,535297535,641203711,0,0.536768258,-0.712101936,0,-54.68189621
2799024,536346111,641203712,0,0.53661406,-0.711197138,0,-54.68322754
2799034,536346111,641202687,0,0.536635816,-0.710108995,0,-54.68473816
2799044,536345087,641202687,0,0.537051857,-0.710290849,0,-54.68548203
2799054,535297535,641202687,0,0.537303686,-0.711383939,0,-54.68728256
2799064,535297535,641202687,0,0.536270797,-0.711410701,0,-54.68866348
2799074,535297535,641202688,0,0.536071718,-0.711379766,0,-54.69190979
2799084,536346111,641202688,0,0.536314189,-0.7120139,0,-54.69374084
2799094,536346111,641202688,0,0.537368774,-0.713004768,0,-54.69461823
2799104,536346111,640154112,0,0.537849784,-0.712759733,0,-54.6953392
2799114,536346111,640155136,0,0.538728356,-0.712361336,0,-54.69710922
2799124,536346111,641203712,0,0.53839463,-0.711890042,0,-54.69734192
2799134,535297535,641202687,0,0.53801316,-0.711757779,0,-54.69952393
2799144,535297535,641202687,0,0.53844142,-0.711678982,0,-54.70236588
2799154,536346111,641202687,0,0.539205611,-0.712009251,0,-54.70345688
2799164,535297535,641203711,0,0.538361013,-0.710908473,0,-54.70484924
2799174,535297535,641202687,0,0.537874103,-0.71034807,0,-54.70759201
2799184,536346111,641202687,0,0.538220882,-0.709846973,0,-54.70905304
2799194,536346111,641202687,0,0.53809005,-0.709503353,0,-54.70975876
2799204,535297535,640154111,0,0.537827969,-0.710248053,0,-54.71109772
2799214,536345087,641202687,0,0.538787067,-0.710768819,0,-54.71315384
2799224,535297535,641203712,0,0.538789988,-0.711007357,0,-54.71458054
2799234,536346111,641203711,0,0.539291739,-0.710591376,0,-54.71675873
2799244,535297535,641202687,0,0.53866756,-0.710925817,0,-54.71896744
2799254,536346111,641202688,0,0.5381971,-0.711885631,0,-54.72021866
2799264,536346111,641202687,0,0.538022816,-0.712054729,0,-54.72039413
2799274,536346111,641202687,0,0.538182914,-0.711843312,0,-54.72145462
2799284,536346111,641202687,0,0.53830415,-0.711479247,0,-54.72185516
2799294,535297535,641202687,0,0.539009333,-0.709702551,0,-54.72411346
2799304,536346111,641202687,0,0.539787829,-0.709678769,0,-54.72481918
2799314,536346111,641202688,0,0.540162206,-0.70987916,0,-54.72671509
2799324,536346111,641203712,0,0.540033698,-0.709412098,0,-54.72681427
2799334,536346111,641203712,0,0.540396035,-0.709088564,0,-54.72799301
2799344,536346111,641202687,0,0.539871931,-0.708820641,0,-54.72874069
2799354,536346111,641203711,0,0.538817763,-0.709899127,0,-54.72999573
2799364,536346111,641203711,0,0.538878024,-0.710010409,0,-54.73022079
2799374,536346111,640155135,0,0.538855672,-0.709712088,0,-54.73171234
2799384,536346111,641202687,0,0.53881228,-0.709582508,0,-54.73254395
2799394,536346111,641202687,0,0.538736522,-0.707661211,0,-54.73414612
2799404,536346111,641203711,0,0.538507402,-0.70591861,0,-54.73483658
2799414,536346111,641202687,0,0.539017498,-0.706065476,0,-54.73613739
2799424,536346111,641203712,0,0.539133728,-0.706032693,0,-54.73670578
2799434,536346111,641202688,0,0.538927257,-0.707088053,0,-54.73823547
2799444,536346111,641202687,0,0.538342774,-0.707153976,0,-54.73906326
2799454,536346111,641202687,0,0.538389623,-0.708047271,0,-54.74058151
2799464,535297535,641202687,0,0.538220823,-0.708539605,0,-54.74264145
2799474,536346111,641203711,0,0.538338125,-0.708403468,0,-54.74438477
2799484,536346111,641202687,0,0.538548827,-0.708405554,0,-54.74543381
2799494,536346111,641203711,0,0.539273381,-0.707933366,0,-54.74611664
2799504,536345087,641203711,0,0.539859593,-0.706942856,0,-54.7470932
2799514,536346111,641202687,0,0.540615737,-0.706688821,0,-54.74810791
2799524,535297535,641202688,0,0.540882707,-0.707148194,0,-54.74991608
2799534,536346111,641202688,0,0.540110826,-0.707659125,0,-54.75152206
2799544,535297535,641202687,0,0.539650977,-0.708131075,0,-54.75378036
2799554,536346111,641202687,0,0.538906932,-0.708311081,0,-54.75537109
2799564,535297535,641202687,0,0.538504362,-0.707726359,0,-54.75679016
2799574,536346111,641202688,0,0.539388061,-0.707929194,0,-54.75816345
2799584,536346111,641203712,0,0.540160656,-0.707183301,0,-54.75902176
2799594,536345087,641202687,0,0.541254222,-0.705508411,0,-54.75965881
2799604,536346111,641202687,0,0.541448116,-0.705302775,0,-54.76070404
2799614,535297535,641202687,0,0.541172028,-0.705643415,0,-54.76196289
2799624,536346111,641202687,0,0.540715098,-0.705515504,0,-54.76289368
2799634,535297535,641202687,0,0.540262282,-0.706546605,0,-54.7652359
2799644,536346111,641202687,0,0.539883494,-0.707259238,0,-54.76589966
2799654,536346111,641202687,0,0.539090276,-0.706911981,0,-54.76737213
2799664,536346111,641202687,0,0.53823334,-0.70717752,0,-54.76771164
2799674,535297535,641202687,0,0.5381037,-0.706105411,0,-54.77080917
2799684,536346111,641202687,0,0.538384497,-0.705660164,0,-54.77175903
2799694,535297535,641202687,0,0.539057314,-0.704354823,0,-54.77443695
2799704,535297535,641202687,0,0.539448738,-0.703820527,0,-54.77567673
2799714,535297535,641202687,0,0.540378511,-0.703694642,0,-54.77782822
2799724,536346111,641202687,0,0.541313291,-0.703705728,0,-54.77864838
2799734,536346111,641202687,0,0.541333437,-0.703960478,0,-54.78004456
2799744,535297535,641202687,0,0.54078716,-0.70528686,0,-54.78163147
2799754,535297535,641202687,0,0.539648056,-0.706732035,0,-54.78348923
2799764,535297535,641202687,0,0.539549232,-0.707189798,0,-54.7849884
2799774,536346111,641202687,0,0.53987509,-0.7073282,0,-54.78705597
2799784,535297535,641203711,0,0.53961128,-0.70754236,0,-54.78852081
2799794,536346111,641202687,0,0.539505064,-0.707146108,0,-54.79014206
2799804,536346111,641202687,0,0.538630724,-0.707202375,0,-54.79127884
2799814,536346111,640154111,0,0.538095117,-0.70756501,0,-54.79241943
2799824,536346111,641202687,0,0.537531376,-0.70785892,0,-54.79309464
2799834,535297535,641202688,0,0.538227558,-0.709538996,0,-54.79460144
2799844,535297535,641203711,0,0.538247645,-0.709211469,0,-54.79635239
2799854,536346111,641203711,0,0.538842559,-0.709177315,0,-54.79720306
2799864,536346111,641202687,0,0.538831472,-0.709247649,0,-54.79699326
2799874,536346111,641202687,0,0.538760126,-0.710322857,0,-54.79851151
2799884,535297535,641202687,0,0.538716078,-0.710361004,0,-54.79970169
2799894,536346111,641202688,0,0.538409591,-0.71095103,0,-54.80123901
2799904,536346111,641202688,0,0.538870871,-0.711609483,0,-54.80260468
2799914,536346111,641202687,0,0.539199173,-0.71310854,0,-54.80266953
2799924,536346111,641202687,0,0.539103448,-0.712825716,0,-54.80288696
2799934,536346111,641202687,0,0.539114416,-0.712968946,0,-54.80407715
2799944,535297535,641202687,0,0.538937628,-0.712989688,0,-54.80435944
2799954,536346111,641202687,0,0.539348841,-0.713274658,0,-54.80552292
2799964,535297535,640154111,0,0.539240956,-0.712881804,0,-54.80706406
2799974,536346111,641202687,0,0.539428353,-0.712155819,0,-54.80854797
2799984,536346111,641202688,0,0.539630532,-0.712092221,0,-54.80907059
2799994,536346111,641202687,0,0.539489686,-0.711897373,0,-54.8106575
2800004,536346111,641202687,0,0.539536715,-0.712401628,0,-54.81192017
2800014,536346111,641202687,0,0.538993597,-0.712801099,0,-54.81330872
2800024,536346111,641202687,0,0.53888154,-0.712469399,0,-54.81409073
2800034,535297535,641202688,0,0.538823068,-0.712587416,0,-54.81534576
2800044,536346111,641202687,0,0.539073527,-0.71271342,0,-54.81683731
2800054,536346111,641202687,0,0.539219379,-0.712793231,0,-54.8176384
2800064,536346111,641202687,0,0.539051235,-0.711994171,0,-54.81807327
2800074,536346111,641202687,0,0.538388193,-0.711384833,0,-54.81953049
2800084,536346111,641202687,0,0.538302958,-0.711350918,0,-54.82084656
2800094,536346111,641203712,0,0.537466764,-0.71216315,0,-54.82210922
2800104,536346111,641202687,0,0.536226511,-0.713350475,0,-54.82291794
2800114,536346111,640154111,0,0.535337567,-0.714645803,0,-54.82386398
2800124,536346111,641202687,0,0.534618974,-0.71430403,0,-54.82462692
2800134,535297535,641203711,0,0.534229219,-0.71364516,0,-54.82654572
2800144,535297535,641202688,0,0.534502864,-0.712211609,0,-54.82828903
2800154,536345087,641202688,0,0.536070824,-0.711905122,0,-54.83060455
2800164,535297535,641202688,0,0.536648333,-0.711949766,0,-54.83132553
2800174,536346111,641202687,0,0.537911296,-0.712105572,0,-54.83276367
2800184,536346111,641202687,0,0.538431048,-0.711925089,0,-54.83332443
2800194,536346111,641202688,0,0.538505137,-0.711687922,0,-54.83575058
2800204,536346111,641202687,0,0.538240969,-0.712120056,0,-54.83682632
2800214,535297534,641202687,0,0.537335336,-0.713878155,0,-54.83909225
2800224,536346111,641202687,0,0.537023365,-0.714649439,0,-54.84051895
2800234,536346111,641203711,0,0.536584854,-0.714420378,0,-54.84142303
2800244,536346111,641203711,0,0.536428869,-0.714196503,0,-54.84236526
2800254,535297535,641202687,0,0.535999835,-0.713075757,0,-54.84446335
2800264,536346111,641202688,0,0.536074162,-0.712605,0,-54.84576035
2800274,536346111,641202687,0,0.536102831,-0.713233769,0,-54.8471489
2800284,535297535,641202687,0,0.535721421,-0.714217067,0,-54.84801865
2800294,535297535,641202688,0,0.535006344,-0.714666247,0,-54.8513298
2800304,536346111,641202687,0,0.534577966,-0.713562965,0,-54.85271454
2800314,535297535,641202687,0,0.534181654,-0.712667942,0,-54.8546524
2800324,536345087,641202687,0,0.534429073,-0.712133944,0,-54.85658646
2800334,535297535,641202687,0,0.535605371,-0.711458683,0,-54.85900497
2800344,536346111,641202687,0,0.536012352,-0.711563706,0,-54.85987854
2800354,536346111,641203711,0,0.536307454,-0.710991621,0,-54.86042786
2800364,535297535,641202687,0,0.536408782,-0.710613668,0,-54.86198807
2800374,536346111,641202687,0,0.536156714,-0.709958851,0,-54.86422729
2800384,536346111,641202687,0,0.535758197,-0.709564269,0,-54.86512375
2800394,536346111,641202688,0,0.535843551,-0.70963043,0,-54.86576843
2800404,536346111,641202688,0,0.536051095,-0.710238278,0,-54.86704254
2800414,535297535,641203711,0,0.535672843,-0.710457563,0,-54.86888885
2800424,536346111,641202687,0,0.53526926,-0.710107207,0,-54.86945724
2800434,535297535,641202687,0,0.535655439,-0.709783137,0,-54.87231445
2800444,536346111,641202687,0,0.536001861,-0.709879994,0,-54.87374878
2800454,535297535,641202688,0,0.535924852,-0.710651398,0,-54.87538147
2800464,536346111,641202688,0,0.53611213,-0.709805548,0,-54.87633514
2800474,536346111,641202687,0,0.535856307,-0.709454298,0,-54.87768936
2800484,536346111,641202687,0,0.535438597,-0.710027516,0,-54.87869644
2800494,535297535,641202688,0,0.536094129,-0.71021086,0,-54.88035202
2800504,536346111,641202687,0,0.536451817,-0.710750282,0,-54.88084793
2800514,536346111,641202687,0,0.536248803,-0.71092099,0,-54.88213348
2800524,535297535,641202687,0,0.535998046,-0.710779905,0,-54.88359451
2800534,536346111,641202687,0,0.535950422,-0.710525215,0,-54.88450241
2800544,536346111,641202688,0,0.535038471,-0.710679054,0,-54.88495636
2800554,536346111,641202687,0,0.534507871,-0.711528957,0,-54.88696671
2800564,536346111,641202687,0,0.534763098,-0.711919308,0,-54.88832092
2800574,536346111,641202687,0,0.534498036,-0.712669969,0,-54.88906479
2800584,536346111,641202687,0,0.534527183,-0.713154674,0,-54.88930893
2800594,536346111,641202687,0,0.534846246,-0.713634014,0,-54.89074326
2800604,536346111,641202687,0,0.534521878,-0.713318706,0,-54.89219666
2800614,536345087,641202687,0,0.535055459,-0.713694036,0,-54.89276505
2800624,535297535,641202687,0,0.535588622,-0.713326097,0,-54.89400864
2800634,535297535,641202688,0,0.534904778,-0.713717163,0,-54.89630508
2800644,536346111,641202688,0,0.535915732,-0.714264572,0,-54.89730835
2800654,535297535,641202687,0,0.535969257,-0.71439904,0,-54.8994751
2800664,536346111,641202687,0,0.535615087,-0.714880943,0,-54.90074921
2800674,535297535,641203712,0,0.535885632,-0.715654314,0,-54.90258789
2800684,536346111,641203711,0,0.535432458,-0.71560818,0,-54.90295029
2800694,536346111,641202688,0,0.534967363,-0.715045333,0,-54.90437698
2800704,535297535,641202687,0,0.535048187,-0.715740263,0,-54.90640259
2800714,536346111,641202687,0,0.535382569,-0.716444314,0,-54.90824509
2800724,535297535,641202687,0,0.535291374,-0.7168414,0,-54.90941238
2800734,536346111,641203712,0,0.535507143,-0.716739535,0,-54.91119003
2800744,536346111,641202688,0,0.535852373,-0.717309475,0,-54.91222382
2800754,536346111,641202687,0,0.536489725,-0.716961443,0,-54.91326141
2800764,535297535,641202687,0,0.536442995,-0.717211306,0,-54.91450119
2800774,535297535,641202688,0,0.535778522,-0.717352211,0,-54.91656494
2800784,535297535,641202688,0,0.535765052,-0.717015803,0,-54.91867447
2800794,536346111,641202687,0,0.536174178,-0.717109799,0,-54.9199028
2800804,535297535,641202687,0,0.536469579,-0.716563344,0,-54.92162704
2800814,536346111,641202687,0,0.536767125,-0.716960132,0,-54.92290878
2800824,536346111,641202687,0,0.537000597,-0.716835439,0,-54.92356873
2800834,535297535,640154111,0,0.536921978,-0.716214955,0,-54.92529678
2800844,535297535,641202687,0,0.53674227,-0.717021883,0,-54.92637634
2800854,535297535,641202687,0,0.536937058,-0.717584193,0,-54.92833328
2800864,536346111,641202687,0,0.536806524,-0.71847266,0,-54.92913055
2800874,536346111,641202687,0,0.536637187,-0.719100595,0,-54.92922211
2800884,535297535,641202687,0,0.535724819,-0.719495237,0,-54.9304657
2800894,535297535,641202687,0,0.535088003,-0.719306529,0,-54.93278885
2800904,536346111,641203712,0,0.535699904,-0.718760192,0,-54.93334579
2800914,536345087,641202688,0,0.53713268,-0.718352973,0,-54.93453217
2800924,536346111,641202688,0,0.538460195,-0.717805743,0,-54.93585587
2800934,536346111,641202687,0,0.539049029,-0.716725111,0,-54.93721771
2800944,536346111,641202687,0,0.538928688,-0.717623055,0,-54.9372139
2800954,536346111,641202687,0,0.537107289,-0.718548119,0,-54.93791962
2800964,536346111,641202687,0,0.536817729,-0.719675243,0,-54.93785858
2800974,535297535,641202687,0,0.536109746,-0.720327616,0,-54.93915939
2800984,536346111,641202687,0,0.535175622,-0.719726682,0,-54.93983459
2800994,535297535,641202687,0,0.534776986,-0.720115423,0,-54.94180298
2801004,536345087,641202687,0,0.535639226,-0.719907105,0,-54.9427681
2801014,536345087,640154111,0,0.537037969,-0.71929729,0,-54.94351196
2801024,536346111,641202687,0,0.53780359,-0.718591511,0,-54.944561
2801034,536346111,641202688,0,0.539064169,-0.71782577,0,-54.94560623
2801044,536346111,641202687,0,0.539486289,-0.718332767,0,-54.94616699
2801054,536346111,641202687,0,0.539234936,-0.718935549,0,-54.94758987
2801064,536346111,641202687,0,0.538913906,-0.719039023,0,-54.9486618
2801074,536346111,640154111,0,0.538504064,-0.719825566,0,-54.94932175
2801084,536346111,641203711,0,0.537747324,-0.720731854,0,-54.95049667
2801094,535297535,641202687,0,0.537054062,-0.7205351,0,-54.95195007
2801104,536346111,641203712,0,0.537133515,-0.720798314,0,-54.95298767
2801114,535297535,640154112,0,0.536557615,-0.720382512,0,-54.95469666
2801124,536346111,641202687,0,0.536466062,-0.720684052,0,-54.95603943
2801134,536346111,641202688,0,0.53690505,-0.720853031,0,-54.95750427
2801144,536346111,641202687,0,0.53644532,-0.721002519,0,-54.95921326
2801154,536346111,641203711,0,0.534845591,-0.721016228,0,-54.96057129
2801164,536346111,641202687,0,0.533410192,-0.721438169,0,-54.96181488
2801174,536346111,641202687,0,0.533203065,-0.723219275,0,-54.96267319
2801184,536346111,641202687,0,0.533294082,-0.723330081,0,-54.96345901
2801194,536346111,641202688,0,0.533997834,-0.722694993,0,-54.96503448
2801204,536346111,641202687,0,0.533625424,-0.721782863,0,-54.96630478
2801214,536346111,641202687,0,0.534196734,-0.721971512,0,-54.96814346
2801224,536346111,641202688,0,0.534006417,-0.721750915,0,-54.96889114
2801234,536346111,641202687,0,0.533304155,-0.721244097,0,-54.97052002
2801244,536346110,641202687,0,0.532656908,-0.722151458,0,-54.97105026
2801254,536346111,641202687,0,0.5315907,-0.723588169,0,-54.97249222
2801264,536346111,641202687,0,0.531650007,-0.723647833,0,-54.97357559
2801274,535297535,641202687,0,0.531791449,-0.724490285,0,-54.97456741
2801284,536346111,641202687,0,0.532017648,-0.72393316,0,-54.97613144
2801294,536346111,641202687,0,0.532055855,-0.722726345,0,-54.97662735
2801304,536346111,641202687,0,0.532786667,-0.72200501,0,-54.97729111
2801314,536346111,641203711,0,0.53365171,-0.720487893,0,-54.97837067
2801324,536346111,641203712,0,0.534188926,-0.719544709,0,-54.9785614
2801334,536346111,641202687,0,0.535532892,-0.718991995,0,-54.98001099
2801344,536346111,641202687,0,0.536034882,-0.719294786,0,-54.98042679
2801354,536346111,641202687,0,0.535999179,-0.719451427,0,-54.98180008
2801364,536346111,641202688,0,0.535786152,-0.719434977,0,-54.98288345
2801374,536346111,641202688,0,0.535702407,-0.719282269,0,-54.9851799
2801384,535297535,641202687,0,0.535877824,-0.719175696,0,-54.98641968
2801394,535297535,641202687,0,0.535898685,-0.719200015,0,-54.98902512
2801404,536346111,641202687,0,0.536297679,-0.719301105,0,-54.99028015
2801414,535297535,641203712,0,0.536965311,-0.718908131,0,-54.99196243
2801424,535297535,641202688,0,0.53706336,-0.718706012,0,-54.99330521
2801434,535297535,641202688,0,0.53711158,-0.71954304,0,-54.99540329
2801444,536346111,641202688,0,0.536526859,-0.719852448,0,-54.99666214
2801454,535297535,641202687,0,0.537101746,-0.720184028,0,-54.99849319
2801464,536346111,641202687,0,0.537280262,-0.72114557,0,-54.99920654
2801474,536346111,641203712,0,0.53820765,-0.72147572,0,-55.00046539
2801484,535296511,640154111,0,0.538943708,-0.720931709,0,-55.00154877
2801494,536345087,641202687,0,0.540246129,-0.71968025,0,-55.00355911
2801504,536346111,641202687,0,0.540665865,-0.719147265,0,-55.00386429
2801514,536346111,641202688,0,0.540275216,-0.718793392,0,-55.00590134
2801524,536346111,641203711,0,0.539332688,-0.718977034,0,-55.00702667
2801534,535297535,641202688,0,0.538392127,-0.719340622,0,-55.00914001
2801544,536346111,641202688,0,0.538332105,-0.720878422,0,-55.0104866
2801554,536346111,641202687,0,0.53734386,-0.722330153,0,-55.01232529
2801564,536346111,641203712,0,0.537300527,-0.722698808,0,-55.01304626
2801574,535297535,640155135,0,0.537546277,-0.722518504,0,-55.01456451
2801584,536346111,641203712,0,0.538092673,-0.722116292,0,-55.01610565
2801594,536345087,641203711,0,0.539667487,-0.720048606,0,-55.01706314
2801604,536346111,641202687,0,0.539861381,-0.719089985,0,-55.01819992
2801614,536345087,641202687,0,0.541086495,-0.718145847,0,-55.01851273
2801624,535297535,640154112,0,0.542105734,-0.718251288,0,-55.01979446
2801634,536346111,640154112,0,0.542246044,-0.719083667,0,-55.02037048
2801644,536346111,640155136,0,0.541681826,-0.719795465,0,-55.02039719
2801654,535297535,641203711,0,0.541264832,-0.720983267,0,-55.02202606
2801664,535297535,641202687,0,0.540501893,-0.721162379,0,-55.02300262
2801674,536346111,641202687,0,0.540406942,-0.721500099,0,-55.02484131
2801684,536346111,641202687,0,0.540635347,-0.720770717,0,-55.02583694
2801694,535297535,641202687,0,0.540821135,-0.719798148,0,-55.02759552
2801704,535297535,641202687,0,0.54082197,-0.72009033,0,-55.02910233
2801714,536346111,641202687,0,0.541363537,-0.720721602,0,-55.03043747
2801724,536346111,641202687,0,0.541174531,-0.720841348,0,-55.03125763
2801734,536346111,641203711,0,0.539807379,-0.720727682,0,-55.0328598
2801744,535297535,641202687,0,0.539197326,-0.720962286,0,-55.03363419
2801754,535297535,641202687,0,0.539382398,-0.722192109,0,-55.03617859
2801764,535297535,641202687,0,0.538722456,-0.722339332,0,-55.03760529
2801774,536346111,641202687,0,0.537990391,-0.721760035,0,-55.03868484
2801784,536346111,641202687,0,0.538692296,-0.721271038,0,-55.03898621
2801794,536346111,641202687,0,0.539313138,-0.721395433,0,-55.04096222
2801804,536346111,641202687,0,0.539674461,-0.720852375,0,-55.04179764
2801814,536346111,641202687,0,0.539651215,-0.720189333,0,-55.04284286
2801824,536346111,641202687,0,0.538869441,-0.720176995,0,-55.04338074
2801834,536346111,641202687,0,0.540385604,-0.720721185,0,-55.0442543
2801844,535297535,641202687,0,0.540467203,-0.721124232,0,-55.04534912
2801854,536346111,640154111,0,0.540828109,-0.721449256,0,-55.04689026
2801864,536346111,641202687,0,0.540706575,-0.721318424,0,-55.04725647
2801874,535297535,641202687,0,0.539805591,-0.721694529,0,-55.0491066
2801884,536345087,641203711,0,0.54020673,-0.721434236,0,-55.04975128
2801894,536346111,641202687,0,0.540888309,-0.71977669,0,-55.05119324
2801904,536346111,641202688,0,0.541368842,-0.719832122,0,-55.05244446
2801914,536346111,641202687,0,0.541684091,-0.721150696,0,-55.05373383
2801924,536346111,641202688,0,0.54140687,-0.721555829,0,-55.05337143
2801934,536346111,641202688,0,0.541107774,-0.722333848,0,-55.05357361
2801944,535297535,641202687,0,0.540455401,-0.722727895,0,-55.05571365
2801954,535297535,641202688,0,0.53978312,-0.722554386,0,-55.05756378
2801964,536346111,641202687,0,0.539668024,-0.722288489,0,-55.05823135
2801974,535297535,641202687,0,0.539481163,-0.722150087,0,-55.06058884
2801984,536346111,641202687,0,0.538998961,-0.723525107,0,-55.06200409
2801994,536346111,641202687,0,0.538655162,-0.724403262,0,-55.06371307
2802004,536346111,641202687,0,0.538432658,-0.724898279,0,-55.06486511
2802014,536346111,641202687,0,0.539395154,-0.725091219,0,-55.06596756
2802024,535297535,641203712,0,0.53863889,-0.724663496,0,-55.06744766
2802034,536346111,641202687,0,0.538211524,-0.723506987,0,-55.06922531
2802044,535297535,641202687,0,0.537865043,-0.723196924,0,-55.07006073
2802054,536346111,641202687,0,0.537399054,-0.723053813,0,-55.07118225
2802064,536346111,641202687,0,0.536997974,-0.724407196,0,-55.07202911
2802074,535297535,641202688,0,0.536477506,-0.724466741,0,-55.07396698
2802084,535297535,641202687,0,0.537017584,-0.72420913,0,-55.07561493
2802094,536346111,641202687,0,0.536549568,-0.724439085,0,-55.07653427
2802104,536346111,641202688,0,0.537054121,-0.724926293,0,-55.07707214
2802114,536346111,641202688,0,0.536349893,-0.725890875,0,-55.07741165
2802124,536346111,641202688,0,0.536114156,-0.726803362,0,-55.07874298
2802134,535297535,641202688,0,0.536296964,-0.726437449,0,-55.07996368
2802144,535297535,641202688,0,0.53619808,-0.726284027,0,-55.0807724
2802154,535297535,641202687,0,0.535746157,-0.726231635,0,-55.08314514
2802164,536346111,641203711,0,0.53592962,-0.726273477,0,-55.0843544
2802174,535297535,640154112,0,0.536692739,-0.723932743,0,-55.0858078
2802184,536346111,641202688,0,0.537623703,-0.723390222,0,-55.08608627
2802194,535297535,641202687,0,0.537658036,-0.724838614,0,-55.08740616
2802204,536346111,641202687,0,0.537403047,-0.725850403,0,-55.08825302
2802214,536346111,641202688,0,0.537760615,-0.726633012,0,-55.08971786
2802224,536346111,641202688,0,0.537518024,-0.726754129,0,-55.09055328
2802234,536346111,641202687,0,0.53605175,-0.725673139,0,-55.0909462
2802244,536346111,641202687,0,0.535743773,-0.725868523,0,-55.09103012
2802254,536346111,641202687,0,0.535567045,-0.724991143,0,-55.09265518
2802264,536346111,641202688,0,0.536426544,-0.724700034,0,-55.09381104
2802274,536346111,641202687,0,0.536618829,-0.724934638,0,-55.0939827
2802284,535297535,641202687,0,0.536390364,-0.724079847,0,-55.09498215
2802294,535297535,641202687,0,0.536209881,-0.724238992,0,-55.09677887
2802304,536346111,641202687,0,0.536250472,-0.724574089,0,-55.09791183
2802314,536346111,641202688,0,0.53620702,-0.725908756,0,-55.09858322
2802324,536346111,641202688,0,0.536144972,-0.726563275,0,-55.09986877
2802334,536346111,641202687,0,0.535826981,-0.72707665,0,-55.10166931
2802344,536346111,641202687,0,0.535390675,-0.728198946,0,-55.10190964
2802354,536346111,641202687,0,0.534570575,-0.727825344,0,-55.103508
2802364,536346111,641202687,0,0.534686923,-0.72658056,0,-55.10402679
2802374,535297535,641203711,0,0.534617245,-0.725996673,0,-55.10560608
2802384,536346111,641203711,0,0.534476221,-0.725104988,0,-55.10602951
2802394,535297535,641202688,1095452219,0.533315182,-0.724627852,8192,-55.10757828
2802404,536346111,641202688,1129204030,0.533250511,-0.725865066,22528,-55.10467148
2802414,535297535,641202688,1179733056,0.533772528,-0.724511325,38400,-55.10630417
2802424,536346111,641203712,1230261827,0.534102678,-0.725429893,53760,-55.10585403
2802434,536347134,641202687,1247038787,0.528476775,-0.730587125,53760,-55.10690308
2802444,536346111,641203711,1213484867,0.527077436,-0.733526766,53760,-55.10860825
2802454,534249981,640154111,1314279236,0.520987749,-0.739839256,4096,-55.10820389
2802464,538443262,642252288,1331384648,0.516833007,-0.74532342,19456,-55.11032104
2802474,535297533,640154113,1264408387,0.503264725,-0.762924731,19456,-55.1132164
2802484,536348156,640154112,1331714119,0.482436478,-0.779023528,35328,-55.11104965
2802494,536349180,641203711,1381782603,0.460420042,-0.80071348,35328,-55.11161041
2802504,534252028,641202686,1398428748,0.449515224,-0.821779549,35328,-55.11233139
2802514,537393664,641201662,1264409419,0.440391988,-0.831013143,35328,-55.10654831
2802524,535292419,642251262,1180590664,0.440847456,-0.825402319,35328,-55.11985397
2802534,536345087,640155137,1382374988,0.445729136,-0.815574825,0,-55.11167526
2802544,536346111,639105536,1482906190,0.452505171,-0.807896614,0,-55.12176132
2802554,536347133,642252287,1499749714,0.443725705,-0.821340263,15360,-55.11481094
2802564,535298556,641202689,1500077389,0.435488403,-0.828931093,15360,-55.11623764
2802574,536346111,641202688,1416061263,0.429701984,-0.838890016,15360,-55.11730194
2802584,534248959,641202687,1449615694,0.428477287,-0.841360033,15360,-55.11529922
2802594,537394687,639105535,1516854095,0.434932739,-0.829465449,15360,-55.11883926
2802604,535298557,637008383,1533698385,0.426545292,-0.842407227,31232,-55.11998367
2802614,535297534,640154111,1516855632,0.422616273,-0.850520015,54784,-55.12352753
2802624,535297535,642252287,1500012624,0.421031177,-0.845277369,7680,-55.12425232
2802634,535299582,641201664,1550212175,0.412213206,-0.846441329,31232,-55.13248062
2802644,536346112,638053887,1483103567,0.418125987,-0.844985545,50688,-55.13708878
2802654,536346110,635960832,1500077132,0.420122355,-0.850708842,50688,-55.1354332
2802664,536345087,635962879,1432969549,0.416267008,-0.852132618,15360,-55.13644791
2802674,534246912,635959808,1433101130,0.421520203,-0.844120502,15360,-55.14244461
2802684,535296511,639104513,1500142922,0.423980534,-0.84037149,39424,-55.14960098
2802694,536346111,640152067,1382573135,0.423400313,-0.856007159,15360,-55.14890671
2802704,534248960,638053891,1483300940,0.429240823,-0.854563653,15360,-55.15173721
2802714,536346112,638055937,1466457934,0.433666974,-0.853846192,15360,-55.1596489
2802724,536348158,638054913,1533566030,0.430886,-0.858231306,15360,-55.15636063
2802734,535300604,642250240,1550342990,0.418915421,-0.879770756,15360,-55.16369629
2802744,534247935,643299836,1416062030,0.411746681,-0.888563216,15360,-55.16800308
2802754,535294465,644347387,1449943369,0.420149148,-0.868571758,15360,-55.17802048
2802764,535296511,645393914,1567383630,0.421153814,-0.867722452,31232,-55.18283844
2802774,536346110,639103487,1500406605,0.409989387,-0.881973326,31232,-55.18821716
2802784,536348157,642249217,1584028494,0.410215795,-0.886656225,18944,-55.18975449
2802794,535299581,644346370,1533828683,0.395422548,-0.909531355,18944,-55.19104004
2802804,535294466,645396990,1449878090,0.405573666,-0.902511775,38400,-55.19570923
2802814,535294463,643295740,1483562566,0.419050992,-0.891780198,65024,-55.2070961
2802824,534248958,641200639,1534026315,0.411159724,-0.90129602,31232,-55.21126175
2802834,533200381,641204736,1550672201,0.404664308,-0.913564324,53248,-55.23055649
2802844,534248958,644350463,1550671433,0.405006081,-0.911556959,7680,-55.23887253
2802854,534246911,639105535,1483563335,0.405657738,-0.914466143,34304,-55.2513504
2802864,534247936,638056960,1533697096,0.415745258,-0.903577328,50176,-55.26557159
2802874,535298558,640156160,1584159304,0.417039961,-0.896637976,15360,-55.26930618
2802884,535296510,641205759,1433101129,0.409431845,-0.902834892,15360,-55.27502823
2802894,532151808,635960833,1550475335,0.415052682,-0.890858352,15360,-55.29660797
2802904,532152830,640156161,1483563590,0.412956536,-0.892561376,15360,-55.32693863
2802914,535296511,641203710,1517116999,0.412975907,-0.888917387,15360,-55.33724213
2802924,531102207,643300861,1433298500,0.405086964,-0.889241099,15360,-55.3546524
2802934,529001986,641203711,1483697475,0.418985546,-0.873961747,31232,-55.40306091
2802944,530054654,640153087,1617846599,0.422520041,-0.871373713,31232,-55.44272232
2802954,535299580,641203711,1517314887,0.393235505,-0.900513232,57344,-55.46591568
2802964,536344065,640153087,1466852168,0.39796111,-0.898737729,10752,-55.46637344
2802974,534247936,643298816,1550934855,0.408155888,-0.881073415,31232,-55.46933746
2802984,534248959,642250237,1534157896,0.406522572,-0.883393347,31232,-55.47637939
2802994,534249981,641201662,1517446981,0.382569402,-0.897627294,31232,-55.49630356
2803004,535294466,644346367,1433429831,0.39183116,-0.895650029,50688,-55.49985504
2803014,536345086,643298813,1534287427,0.393280357,-0.894739866,7680,-55.50125504
2803024,536346110,641202688,1483825733,0.386014283,-0.902189732,7680,-55.49427414
2803034,534246913,642251265,1433429315,0.401805907,-0.89077574,27136,-55.49975586
2803044,534249982,644347389,1584488775,0.401018709,-0.893689394,31232,-55.51261902
2803054,535297535,642253312,1466984520,0.392762512,-0.899311244,31232,-55.51672745
2803064,535294464,644348417,1517643076,0.406780303,-0.890937269,31232,-55.5186615
2803074,536346108,642250237,1551196739,0.404602319,-0.903123379,31232,-55.52104187
2803084,536345088,640153087,1467115335,0.400012434,-0.911650836,31232,-55.5214119
2803094,535292418,643299840,1484088900,0.432920456,-0.884854913,31232,-55.52280045
2803104,534245889,640154110,1568041031,0.445206702,-0.871707797,46592,-55.52852631
2803114,533202429,640155137,1668571975,0.44539538,-0.877174377,46592,-55.54993439
2803124,532156920,643302913,1719295810,0.429792285,-0.892511129,46592,-55.56718445
2803134,536346111,640154109,1467444295,0.405177087,-0.916702271,46592,-55.57538223
2803144,534247935,642250240,1652122436,0.419460833,-0.899664164,46592,-55.57874298
2803154,536346109,643299839,1551460420,0.418443888,-0.912411571,46592,-55.5883255
2803164,536347133,638057983,1601791301,0.410357445,-0.914689958,46592,-55.58300018
2803174,536346112,641203714,1551460165,0.418876678,-0.908825755,46592,-55.57969284
2803184,537392639,642252287,1450929476,0.419850171,-0.910527468,46592,-55.57220459
2803194,534247936,639107585,1534618436,0.427447736,-0.895524442,46592,-55.57868576
2803204,536347133,640155138,1585079875,0.432920337,-0.896859288,46592,-55.58478928
2803214,538444284,640155134,1551722051,0.420335591,-0.915899217,46592,-55.5725441
2803224,535295489,641204738,1534881351,0.424119592,-0.913319111,61440,-55.56721115
2803234,532149761,641204737,1668966980,0.455261081,-0.885762215,61440,-55.59241104
2803244,532153852,638059007,1685874756,0.439723283,-0.893025935,61440,-55.61632919
2803254,534246913,640156162,1568566850,0.44492799,-0.884081066,61440,-55.63534927
2803264,536346110,639105536,1652385606,0.449007869,-0.883137882,61440,-55.63917923
2803274,536346111,641202688,1585212231,0.446936667,-0.892044485,61440,-55.63173294
2803284,537391617,641203711,1568631620,0.4595339,-0.876833558,61440,-55.62187195
2803294,535297534,639106559,1736534086,0.468274713,-0.866364241,11264,-55.62471771
2803304,539491839,641203714,1568829256,0.465556026,-0.874707699,11264,-55.61246872
2803314,536347134,640155134,1635872071,0.460753471,-0.876527429,11264,-55.59910202
2803324,537392639,639106559,1619226182,0.460110337,-0.871011376,11264,-55.59214401
2803334,535296511,642253313,1669689671,0.465658426,-0.867727339,26624,-55.59396744
2803344,534249982,637011455,1719955272,0.459894508,-0.868790388,26624,-55.60583115
2803354,534248958,640156161,1720020807,0.461937129,-0.859396517,26624,-55.61454391
2803364,532152829,637008382,1820749897,0.459829718,-0.858791769,42496,-55.63077927
2803374,533201407,640156161,1736865097,0.450250924,-0.862858236,42496,-55.66365814
2803384,535297534,641205761,1753970508,0.451398134,-0.859730899,57856,-55.66931534
2803394,536346110,640154111,1804301132,0.453657091,-0.857881844,57856,-55.67403412
2803404,535297533,640153087,1753904459,0.454341263,-0.859396398,19968,-55.66959381
2803414,533200382,638055934,1753905483,0.449200362,-0.868655384,57856,-55.683918
2803424,536346110,642252289,1703574093,0.445958823,-0.875957251,57856,-55.6926651
2803434,537391618,641202688,1569554508,0.45424971,-0.870698512,57856,-55.68691635
2803444,537392640,641201663,1737522253,0.454578638,-0.870827973,8192,-55.68233871
2803454,538443263,639106559,1720942673,0.45369634,-0.871574163,22528,-55.66666412
2803464,537395709,639106560,1821670479,0.441090137,-0.879780829,22528,-55.65794754
2803474,535294466,640155136,1754432078,0.451593727,-0.870636046,22528,-55.66117477
2803484,533198335,644348417,1905688655,0.466719151,-0.855707884,38400,-55.679039
2803494,534248957,638055935,1922465358,0.469072968,-0.864514768,38400,-55.70016861
2803504,537398779,643298816,1973124690,0.452820003,-0.882372081,53760,-55.70088196
2803514,537393664,640152062,1855620179,0.437496424,-0.897266746,53760,-55.68983841
2803524,535294465,643297791,1939703380,0.446207494,-0.890716314,4096,-55.6920433
2803534,536346109,641202686,1973322835,0.440577209,-0.894953668,4096,-55.69146347
2803544,534248959,639107584,1973192021,0.440714478,-0.898452699,4096,-55.69634247
2803554,533201405,638057985,2040234835,0.443877906,-0.898240983,4096,-55.71525574
2803564,532151807,637008385,2124251735,0.454202831,-0.890585303,19456,-55.73719788
2803574,536348156,641203715,2107538515,0.454799026,-0.899139524,4096,-55.74873734
2803584,538443261,643300865,1939899730,0.443843126,-0.913452148,4096,-55.74131775
2803594,536342020,645395966,1822789970,0.45749402,-0.894282341,19456,-55.72580719
2803604,534240772,644347390,1872858191,0.489546388,-0.863922358,4096,-55.73258972
2803614,532151810,640155132,2006615890,0.497593582,-0.828241229,4096,-55.76177597
2803624,537396732,635959806,2090958161,0.491325289,-0.827358484,4096,-55.76292419
2803634,537404919,640154112,2124315220,0.431847095,-0.884669542,4096,-55.75465775
2803644,540545536,643299840,1956283225,0.406667858,-0.898507476,4096,-55.73820496
2803654,538444289,638057985,2024113236,0.39919582,-0.872384071,19456,-55.71026993
2803664,539488761,640157183,1906804300,0.401910096,-0.892820239,4096,-55.69322205
2803674,537387525,638059003,1771802455,0.437352061,-0.879311681,4096,-55.67556763
2803684,535294467,638055932,1956349270,0.45360598,-0.854412556,4096,-55.6727829
2803694,536350204,638055935,2107800655,0.437275529,-0.85100919,4096,-55.67673874
2803704,536348157,646444546,1923255380,0.420582384,-0.884158611,19456,-55.67233276
2803714,539489797,645396994,1906739796,0.432617873,-0.852283657,19456,-55.65660477
2803724,538440191,639107583,2024047700,0.460033178,-0.83906126,19456,-55.639431
2803734,536346110,642251261,1990297686,0.454481453,-0.854250133,19456,-55.63191223
2803744,536351228,642251263,2141357146,0.435169935,-0.863802552,17152,-55.62810135
2803754,537397760,645395971,1822725721,0.406508058,-0.891750097,17152,-55.62160873
2803764,538448386,643299841,2091156826,0.402142286,-0.880723119,17152,-55.60730362
2803774,537402880,641200638,2091026011,0.341520488,-0.879799068,17152,-55.59783936
2803784,538449406,641201662,2074380122,0.302251756,-0.894219518,17152,-55.59210968
2803794,539492867,642253313,1907134291,0.262025565,-0.874273896,17152,-55.57040405
2803804,538455553,645396993,2175107161,0.220904291,-0.850649953,17152,-55.55586243
2803814,540555774,643297792,2158264157,0.10706412,-0.856436253,17152,-55.52633667
2803824,540558839,645396991,2124907096,0.007730487,-0.897720218,17152,-55.50270462
2803834,539506183,643300863,1923254105,-0.131607503,-0.881655872,19456,-55.4706192
2803844,539509253,640154112,2124710747,-0.215582684,-0.83872664,17152,-55.45679855
2803854,540554758,643298816,2124513376,-0.32515949,-0.776846111,17152,-55.42531967
2803864,539508224,639105533,2141356125,-0.417428732,-0.762488365,17152,-55.40765381
2803874,541604348,633864699,2158394461,-0.55104661,-0.763523519,17152,-55.36751938
2803884,540556792,633862654,2208726106,-0.636025727,-0.797693431,17152,-55.34458542
2803894,539506166,643300863,2192210776,-0.767544448,-0.864741266,17152,-55.31561661
2803904,540553730,642253308,2107671136,-0.843715727,-0.873015642,17152,-55.29193115
2803914,541597188,635961851,2174843490,-0.93082577,-0.820361197,17152,-55.25344849
2803924,539504128,641202685,2141945942,-1.018657446,-0.796292484,17152,-55.23013306
2803934,539513339,641202686,2326296927,-1.165602207,-0.811404586,57600,-55.20228958
2803944,538460665,639107583,2292612447,-1.256803393,-0.837394476,57600,-55.18888474
2803954,537411072,643300863,2309390692,-1.394046068,-0.839624822,32768,-55.17445755
2803964,536359427,646443517,2259125601,-1.478556514,-0.818887591,32768,-55.17288589
2803974,534259203,643301886,2275969892,-1.572750568,-0.78072542,7680,-55.1828804
2803984,532165124,638057983,2359591522,-1.624222994,-0.740980864,32768,-55.1999588
2803994,531111424,640154109,2342815327,-1.69417429,-0.72740829,32768,-55.23897552
2804004,527967749,639106556,2308933732,-1.738710523,-0.713446259,32768,-55.27996826
2804014,527963657,642255362,2308869217,-1.784171224,-0.635237813,32768,-55.34666824
2804024,527964683,646447614,2225114467,-1.82555604,-0.575623214,32768,-55.39365005
2804034,527964689,641205751,2208076642,-1.915668845,-0.435454994,32768,-55.46187592
2804044,527964689,634913276,2191298661,-1.961967587,-0.336055398,32768,-55.50724792
2804054,524819986,637007358,2291831137,-2.013929844,-0.174026683,32768,-55.58319092
2804064,523775504,638059005,2291764582,-2.063877344,-0.079967141,32768,-55.64892578
2804074,522721812,643301888,2308215907,-2.118521929,0.089413814,32768,-55.74871445
2804084,521680400,640155131,2375125867,-2.17398715,0.188065663,32768,-55.82559204
2804094,523776524,641203708,2425458278,-2.287482738,0.306787521,32768,-55.93456268
2804104,521685510,641203710,2358807907,-2.400053501,0.351210564,32768,-56.0056572
2804114,523788808,638061050,2509277542,-2.578239441,0.429461956,32768,-56.10564804
2804124,523784711,637010430,2458683247,-2.675752878,0.461118668,32768,-56.17657471
2804134,524819978,640158204,2358481508,-2.801671267,0.556172192,32768,-56.26380157
2804144,525870605,640159225,2257818473,-2.874729633,0.624248624,32768,-56.32084274
2804154,524816917,642253307,2324403563,-2.910954952,0.788816333,32768,-56.40454483
2804164,526907923,639107577,2157418852,-2.939487457,0.897883296,32768,-56.46012878
2804174,527957525,641201661,2241042533,-2.928731918,1.079387546,32768,-56.53030014
2804184,527954445,634910202,2257884008,-2.90930295,1.162002206,32768,-56.57503128
2804194,527956484,635958780,2375520096,-2.902509689,1.23022449,32768,-56.64103317
2804204,530058740,637008380,2442889056,-2.91895628,1.181056142,32768,-56.67562866
2804214,531115496,637008380,2627698267,-3.002274036,1.020640373,32768,-56.72150803
2804224,530076123,639105535,2728228703,-3.086472273,0.816428781,32768,-56.7486496
2804234,532165083,640156157,2762044761,-3.195219278,0.503135264,32768,-56.78604889
2804244,531115485,645399041,2594275162,-3.263808012,0.285527974,32768,-56.81007004
2804254,534252013,643303934,2476901466,-3.305753469,0.094570398,32768,-56.83122253
2804264,533193204,642253310,2359331932,-3.284481764,0.016166558,32768,-56.84617233
2804274,533187075,644347387,2292158556,-3.183620214,0.011821752,32768,-56.86754227
2804284,533180936,639106551,2274922852,-3.070806026,0.03461612,32768,-56.88541794
2804294,532120083,642251262,2057347162,-2.859162569,0.162865058,32768,-56.9141922
2804304,531078673,646447610,2107743322,-2.728477955,0.258285165,32768,-56.94150162
2804314,532137500,643302905,2174064997,-2.55975914,0.466299921,32768,-56.97512054
2804324,535288339,642251258,2375322216,-2.480769157,0.594972789,32768,-56.98837662
2804334,534238737,639106556,2291437928,-2.399359703,0.745823681,32768,-57.00091934
2804344,534238729,638057980,2141559127,-2.382508755,0.81697607,32768,-57.00770187
2804354,535296527,638057983,2107480927,-2.340463161,0.919157743,32768,-57.01711655
2804364,535301646,639108606,2425522026,-2.300387621,1.005043387,32768,-57.02406311
2804374,536342033,640156162,2324336242,-2.259028435,1.137163877,32768,-57.03050995
2804384,536338954,641203709,2107480672,-2.262946129,1.212129235,32768,-57.0293808
2804394,536347146,643301884,2074123102,-2.271339893,1.307565212,32768,-57.02474594
2804404,538451460,645398015,2458551412,-2.256990433,1.337529182,32768,-57.02199554
2804414,535297534,639107581,2358479977,-2.277935266,1.340153217,32768,-57.01656723
2804424,534255096,641204732,2292552022,-2.342953444,1.316554189,32768,-57.0217247
2804434,533215735,640158203,2493024098,-2.428543568,1.249276042,32768,-57.04115295
2804444,533219827,635965948,2642967666,-2.495074987,1.184984207,32768,-57.05670547
2804454,533208563,639110652,2476377952,-2.614639044,1.091851711,32768,-57.07718277
2804464,533222897,637012471,2459732063,-2.746138573,1.014763474,32768,-57.09175873
2804474,535321069,637009402,2744546662,-2.922555685,0.8728019,32768,-57.09789658
2804484,533225956,631768567,2761258598,-3.061450005,0.729862213,32768,-57.10979843
2804494,533215712,632815098,2711845463,-3.247584343,0.486745119,32768,-57.12841415
2804504,532169188,638060025,2526381412,-3.354620218,0.30220294,32768,-57.14810944
2804514,532164082,638061048,2643820386,-3.461497307,0.147613943,32768,-57.18165588
2804524,529008114,640160252,2660400997,-3.462746143,0.063266203,32768,-57.21220016
2804534,528996857,640161273,2510130263,-3.433418751,-0.004295743,32768,-57.26709366
2804544,527953404,643304957,2459536732,-3.402531385,-0.028356189,32768,-57.30848312
2804554,528991761,646447612,2308413533,-3.289223194,0.066052824,32768,-57.36959839
2804564,527928853,637009401,2157616988,-3.161383629,0.185460925,32768,-57.41024017
2804574,528974376,640153085,1989323872,-2.909168959,0.474959165,32768,-57.4723587
2804584,527928871,640154104,2140119397,-2.716233253,0.690408766,32768,-57.51950836
2804594,527915562,632815098,1989062242,-2.404075146,1.030167222,32768,-57.59073639
2804604,530011676,639105534,1923329362,-2.21498394,1.218813658,32768,-57.62730789
2804614,531090975,635962876,2139726698,-1.984205246,1.466442585,32768,-57.67981339
2804624,530038291,640157185,2290784362,-1.85525918,1.590533018,32768,-57.71105194
2804634,532139531,645398016,2174132317,-1.769740343,1.703944087,32768,-57.75445175
2804644,532158976,642253306,2392363357,-1.791774392,1.732587337,32768,-57.78110123
2804654,532172281,643301887,2576320612,-1.902005792,1.690148473,32768,-57.80755234
2804664,534268400,642257404,2643689827,-1.993351698,1.633360863,32768,-57.82193756
2804674,534264299,638061052,2577304413,-2.177348852,1.492754459,7680,-57.82898331
2804684,537420263,646446591,2677703268,-2.300821781,1.366002679,7680,-57.8230896
2804694,540562924,641205754,2626780267,-2.473609686,1.180100441,32768,-57.7953186
2804704,539509227,640156157,2610200422,-2.57869482,1.059996128,32768,-57.77331161
2804714,541601261,641204733,2543550307,-2.70002532,0.889195561,32768,-57.73067474
2804724,542644720,641206781,2493154657,-2.743086576,0.795793056,32768,-57.69752121
2804734,542636534,645399041,2376173662,-2.750409603,0.704526722,32768,-57.64307404
2804744,542638585,646449660,2476771938,-2.737398863,0.672588885,7680,-57.61323166
2804754,542631427,645400062,2308541286,-2.67758894,0.67983377,32768,-57.5582695
2804764,542622212,644349436,2275381342,-2.603895187,0.723066568,32768,-57.52103043
2804774,542613001,638057978,2057476446,-2.454482079,0.802494764,32768,-57.4651947
2804784,541576712,639107581,2275251812,-2.367142916,0.857702672,7680,-57.43873596
2804794,541573639,637011450,2358939243,-2.217481375,0.942735314,7680,-57.40115738
2804804,540524030,638057984,2242353498,-2.158233166,0.951949239,7680,-57.37480164
2804814,540539388,642253311,2443939933,-2.088332415,0.935302675,48384,-57.3415451
2804824,539494905,640157181,2677834858,-2.046322107,0.909206808,48384,-57.32369232
2804834,538444282,644350464,2643756403,-2.032105923,0.864463925,48384,-57.29678345
2804844,538437108,643301882,2443678302,-2.032799721,0.819758832,48384,-57.28498077
2804854,540547591,647493117,2259068269,-2.071551085,0.811179578,63488,-57.26272202
2804864,537410056,647494140,2761198204,-2.08735919,0.85973537,63488,-57.24962616
2804874,539492877,641203712,2459606654,-2.126782656,0.944515467,38400,-57.22971725
2804884,539494923,646448637,2528027245,-2.169063091,1.037531614,13568,-57.20726776
2804894,541601303,640157181,2408753811,-2.236256838,1.192974567,54016,-57.17076874
2804904,538453525,643303933,2644353156,-2.289670706,1.33954072,54016,-57.14693069
2804914,539505179,644350461,2392305291,-2.407988787,1.545111656,54016,-57.12652206
2804924,539518493,644350460,2794362516,-2.493294477,1.719422936,54016,-57.10599899
2804934,539519509,644348417,2777717401,-2.692822933,1.915497541,28928,-57.07286072
2804944,540583435,643298813,2929758856,-2.909039736,2.016855478,28928,-57.0364418
2804954,542697992,641206777,2944632740,-3.338258743,2.088299274,54016,-56.97919083
2804964,543745545,643303929,3062139046,-3.648216009,2.149338484,28928,-56.92840195
2804974,544791050,646449660,2777846686,-4.144515038,2.236176014,28928,-56.84582138
2804984,546896399,645396990,3061745071,-4.445341587,2.313171625,28928,-56.77866364
2804994,547931665,645392896,2777452456,-4.903082848,2.446413755,28928,-56.67079926
2805004,550034964,645393915,2861010601,-5.202979565,2.551927805,28928,-56.59012604
2805014,552107544,648543736,2626327216,-5.542294502,2.737881184,28928,-56.45039749
2805024,553147927,645395965,2560335000,-5.715625763,2.886303425,28928,-56.35358429
2805034,554180112,644347394,2626785196,-5.770354271,3.043131113,28928,-56.20517349
2805044,554157581,646446589,2376903566,-5.758346558,3.128162861,3584,-56.10956955
2805054,554155529,644352509,2560661667,-5.582285404,3.230326891,3584,-55.9706955
2805064,554135041,642254339,2444273035,-5.405781269,3.270063877,3584,-55.88132095
2805074,553096701,643300863,2494471317,-5.114378929,3.26613903,3584,-55.75170517
2805084,553088506,643300861,2544279446,-4.906664371,3.235568523,3584,-55.67214966
2805094,553101819,643301883,2377492371,-4.691430092,3.194322109,44032,-55.54978561
2805104,553107960,643303930,2728367007,-4.552375793,3.159917355,3584,-55.46318054
2805114,553102839,646447614,2444665492,-4.403252602,3.096468687,44032,-55.33285522
2805124,553115127,641202685,2779223197,-4.308372974,3.059022188,44032,-55.24666214
2805134,552061429,644349438,2611910557,-4.195465565,2.971082687,44032,-55.11915207
2805144,551030264,645395966,2711787682,-4.173650265,2.917135954,44032,-55.03637314
2805154,552077817,646445564,2678493606,-4.175551891,2.855643034,44032,-54.90953064
2805164,551028214,645398010,2645466007,-4.208072186,2.812679529,44032,-54.8255043
2805174,549981686,646448636,2762313126,-4.206966877,2.731299877,44032,-54.71247864
2805184,547880441,645399042,2695141792,-4.199780464,2.688748598,44032,-54.64253235
2805194,546838010,642254342,2778632106,-4.173312664,2.642154694,44032,-54.5541153
2805204,546830841,642251267,2712180637,-4.159582615,2.610081673,44032,-54.49704361
2805214,546840056,643300859,2695271332,-4.181150436,2.541970015,44032,-54.40839767
2805224,547882487,643303931,2778960547,-4.18747139,2.498854876,44032,-54.34899139
2805234,545784309,643303933,2662438297,-4.207010746,2.434037685,44032,-54.26173019
2805244,545785332,640154108,2846199456,-4.197040081,2.377742767,44032,-54.20937729
2805254,544728562,640153085,2662307481,-4.167878151,2.260517359,44032,-54.13713455
2805264,543686131,643300862,2779026337,-4.136827946,2.178813696,44032,-54.09601974
2805274,544728564,647499264,2712112541,-4.075960159,2.082297802,3584,-54.02950668
2805284,544733685,646447617,2712245917,-4.05002594,2.023839712,44032,-53.98550797
2805294,544734711,642251267,2779090597,-3.997850657,1.938578248,44032,-53.91802979
2805304,544735739,641205760,2661521571,-3.992564201,1.899748564,44032,-53.87371063
2805314,543694336,642257401,2761789357,-4.014425278,1.895922303,44032,-53.80711365
2805324,544734723,643301879,2611518112,-4.049138546,1.91846025,44032,-53.76173019
2805334,543693313,641204733,2711654826,-4.075845718,1.937232256,44032,-53.6908226
2805344,544734719,639106560,2745209512,-4.070584297,1.937834501,44032,-53.64511108
2805354,544734718,643303933,2594805411,-4.071091175,1.932453632,44032,-53.5723877
2805364,542633469,642255358,2778698152,-4.03175211,1.922395945,44032,-53.52960968
2805374,544722427,639108610,2544933277,-3.951321363,1.899994493,44032,-53.47132874
2805384,542626296,638057986,2729022111,-3.860531807,1.872192144,44032,-53.43371964
2805394,543664631,640155134,2561775771,-3.697030067,1.799239397,44032,-53.3788414
2805404,540521974,641205757,2628622747,-3.584885597,1.745115519,44032,-53.34920502
2805414,542618100,639106557,2645464221,-3.408291817,1.653218985,44032,-53.31069565
2805424,540528115,638060036,2712310941,-3.316405773,1.586910963,44032,-53.2853241
2805434,539486707,637012484,2795867556,-3.202275515,1.484489322,44032,-53.25283051
2805444,538442228,637011451,2762445472,-3.183328629,1.418567657,44032,-53.23775101
2805454,538451444,637015548,2879556262,-3.208521843,1.331660867,44032,-53.22091675
2805464,538448373,635965951,2829422241,-3.235120535,1.283694267,44032,-53.20746231
2805474,537403898,635958781,2762052261,-3.2913692,1.222443342,44032,-53.19354248
2805484,536348158,638053882,2762250407,-3.308870077,1.198382139,19200,-53.18943024
2805494,535289343,644350459,2578359196,-3.286952019,1.187823892,19200,-53.19100189
2805504,534230529,641205757,2662113182,-3.198663473,1.200017929,19200,-53.19791412
2805514,534220293,642250241,2511317402,-2.987728119,1.227020621,19200,-53.21712494
2805524,534219271,641204736,2628362912,-2.814454556,1.262164235,19200,-53.23043442
2805534,535259655,640161277,2728566183,-2.518494368,1.328141809,19200,-53.24711227
2805544,535255561,638064122,2644746407,-2.30768919,1.38213098,19200,-53.25984955
2805554,535249415,633863675,2745473957,-1.936982751,1.463901401,19200,-53.2761116
2805564,535238146,635958781,2712313248,-1.643946528,1.486999393,19200,-53.28765106
2805574,535228928,639106557,2678759583,-1.10895133,1.489303827,19200,-53.3086319
2805584,535218685,645401085,2612044698,-0.710940182,1.481467843,19200,-53.32400513
2805594,535215611,640157182,2561844886,-0.048456632,1.456187129,19200,-53.34300232
2805604,534161915,633865726,2595333272,0.422473758,1.437018275,19200,-53.36391068
2805614,534162936,633867771,2528684687,1.122012854,1.393237114,19200,-53.39651489
2805624,533117429,641206776,2662637972,1.57709074,1.348351359,19200,-53.41982651
2805634,533125622,645396982,2595465107,2.183922052,1.262471437,19200,-53.45557785
2805644,534187512,641204732,2729024927,2.537147522,1.216230989,19200,-53.47635651
2805654,533148154,639105534,2695668122,2.980937243,1.165395498,19200,-53.50518036
2805664,533156344,641200634,2779487132,3.223714352,1.12532413,19200,-53.52383804
2805674,532113913,641205756,2762514077,3.528742552,1.067604303,19200,-53.56018829
2805684,532120058,645401084,2745736606,3.693729401,1.041905999,19200,-53.58364868
2805694,531076603,643303934,2862848672,3.913720369,1.013326883,19200,-53.62332916
2805704,531080699,640156156,2812713632,4.023968697,0.993111551,19200,-53.6531868
2805714,530037244,641206783,2979632297,4.167427063,0.967263043,19200,-53.70145035
2805724,528986622,641205757,2795740577,4.248216152,0.960734606,19200,-53.73892975
2805734,530030076,634916348,2779292313,4.398741722,0.950982392,19200,-53.79623032
2805744,527925757,632818176,2745672092,4.545886993,0.945758581,19200,-53.84114075
2805754,526871039,639108606,2578297231,4.804695129,0.944024086,19200,-53.91766357
2805764,527915521,646447606,2561453462,4.994571686,0.951899529,19200,-53.96782684
2805774,528956931,643301882,2494542992,5.327452183,0.985587001,19200,-54.03805542
2805784,530007558,640155137,2594876313,5.574106216,1.021285653,19200,-54.07781219
2805794,532104709,640157182,2544611222,5.935185909,1.073882818,19200,-54.12611771
2805804,531066374,640154104,2594614173,6.132298946,1.109702945,19200,-54.15548706
2805814,531075593,639109627,2644552352,6.34485817,1.181836724,19200,-54.20285416
2805824,532128264,644351488,2628037023,6.457287788,1.238958716,19200,-54.2314682
2805834,530033159,644349440,2745083297,6.605451107,1.308836222,19200,-54.27482224
2805844,530035202,639107581,2695341723,6.693338871,1.336834192,19200,-54.30765152
2805854,530040317,637011458,2779096218,6.794599056,1.341036916,19200,-54.35829544
2805864,528996857,637010430,2829295261,6.830605984,1.321725965,19200,-54.39386749
2805874,531095027,638064120,2362031222,6.846332073,1.254362345,19200,-54.44332504
2805884,531092972,638062079,2813370257,6.87163353,1.173141241,19200,-54.47104645
2805894,530046441,639107581,2779948172,6.89863348,0.999113202,19200,-54.51736069
2805904,530050540,639109629,2712774287,6.898535252,0.886814892,19200,-54.54903793
2805914,531102192,635963897,2712578192,6.873422146,0.755988538,19200,-54.59392929
2805924,532154866,640158203,2579017098,6.827633381,0.684594393,19200,-54.61684799
2805934,533211637,637014523,2562174857,6.717694283,0.601281226,19200,-54.63992691
2805944,536367610,634914301,2595334803,6.603269577,0.564424217,19200,-54.64644241
2805954,537433594,639108609,2729091227,6.310365677,0.517737985,19200,-54.63619232
2805964,535354872,637013499,2796002972,6.0156703,0.48542884,19200,-54.63348007
2805974,536411640,642257402,2929694117,5.463624001,0.44178322,19200,-54.63204956
2805984,536424948,648549888,3064041122,5.038146019,0.403446048,19200,-54.62937927
2805994,538531308,646450686,3248390312,4.32006216,0.284451336,19200,-54.62047577
2806004,539583971,640156162,3282271907,3.809343338,0.14991267,19200,-54.60490036
2806014,539586012,641207813,3366156452,3.028452873,-0.122428566,19200,-54.57629776
2806024,539578844,645404157,3165160862,2.522545815,-0.315529764,19200,-54.55871582
2806034,539563491,642254335,3148383902,1.86204505,-0.564988554,19200,-54.53889084
2806044,539545069,639109632,2846660762,1.518330336,-0.692415595,19200,-54.52162933
2806054,539522553,640161274,2729418392,1.173622966,-0.77118814,19200,-54.5027504
2806064,540549634,637010431,2528422548,1.057640791,-0.771873176,19200,-54.48177719
2806074,539486731,640157183,2494737303,1.054567575,-0.695151746,19200,-54.45162964
2806084,539475471,640158206,2444537747,1.115126848,-0.612674117,19200,-54.43068314
2806094,538424850,640157182,2377167768,1.25188601,-0.4611938,19200,-54.40598679
2806104,539473430,640157181,2427302042,1.351137996,-0.337261528,19200,-54.39029694
2806114,539477525,640157182,2410721177,1.468913674,-0.141262203,19200,-54.36317062
2806124,539486740,643301888,2561124512,1.52129209,-0.01666067,19200,-54.3456459
2806134,538449427,642253310,2560993187,1.492137909,0.157382786,19200,-54.32392883
2806144,538461711,641204739,2728369832,1.424096346,0.255003512,19200,-54.30830002
2806154,538471944,643301889,2795805093,1.214220047,0.361755073,19200,-54.28955841
2806164,537431554,645401082,2879559333,1.024537444,0.394721508,19200,-54.2748909
2806174,538483196,641205757,2946666663,0.690926611,0.395825237,19200,-54.25399017
2806184,538483192,640160259,2980680868,0.465829521,0.372762382,59648,-54.24014282
2806194,538481140,640157184,2947059617,0.151820615,0.294214398,19200,-54.21615219
2806204,539523569,638056954,2914031518,-0.045392193,0.221761435,59648,-54.20004272
2806214,539514353,640157181,2930808224,-0.267866284,0.104906201,59648,-54.16685867
2806224,539507187,641206782,2863765917,-0.371071488,0.041083496,59648,-54.14824295
2806234,539499000,642254335,2729615773,-0.460749984,-0.031245017,59648,-54.12410736
2806244,539491833,644351488,2746523803,-0.47759527,-0.063786544,59648,-54.10718155
2806254,538440191,648548867,2695931038,-0.457651377,-0.076719649,59648,-54.08606339
2806264,539485699,644351490,2662377118,-0.426916867,-0.061523497,59648,-54.06906128
2806274,538439174,638061057,2696062883,-0.376381725,-0.007435335,34816,-54.04371262
2806284,538440199,637014525,2696063393,-0.356706202,0.042880762,34816,-54.03324127
2806294,538442248,640159224,2712839842,-0.354160994,0.131634235,34816,-54.01768494
2806304,539490823,642252285,2746197413,-0.353637666,0.179603904,34816,-54.00346756
2806314,539493892,645395970,2813502888,-0.359328926,0.228276089,9216,-53.98025131
2806324,538448387,644348415,2847122854,-0.382953495,0.252329946,9216,-53.96422577
2806334,537401856,645402110,2863570598,-0.439469963,0.277949691,34816,-53.94523239
2806344,538451455,645402111,2880610983,-0.483725429,0.289714843,9216,-53.93357468
2806354,538451454,641203712,2880610983,-0.547833622,0.292099774,9216,-53.91679382
2806364,538451455,640155130,2847320744,-0.602747798,0.286640555,49920,-53.90576553
2806374,537399806,643305977,2948442279,-0.671482027,0.291487247,24832,-53.89217377
2806384,536348159,645402109,2914626474,-0.695163071,0.296848387,24832,-53.88744736
2806394,536345085,647496196,2947984044,-0.690712869,0.290244371,24832,-53.88278198
2806404,537392635,647496193,2898045864,-0.678919137,0.272213519,24832,-53.8757019
2806414,537393660,646448634,2982128810,-0.66907233,0.248834506,0,-53.86584091
2806424,536344059,645399041,2998774955,-0.657485783,0.226448223,0,-53.85870361
2806434,537395705,650638844,2999169196,-0.653469861,0.176321104,40448,-53.84873581
2806444,538443258,654839290,3049237935,-0.65911448,0.149996027,40448,-53.84146881
2806454,538443260,648547845,3116543411,-0.657413602,0.131110951,15616,-53.82553864
2806464,539494908,646448641,3049501106,-0.661890864,0.119117111,15616,-53.80964279
2806474,539497985,651693559,3066540981,-0.710666239,0.129399613,55552,-53.78035355
2806484,539494912,654834174,3116348091,-0.734769046,0.132868126,55552,-53.75988007
2806494,540543490,651693572,3015947451,-0.755497754,0.158598721,55552,-53.72343063
2806504,541592066,650644986,3066475446,-0.773104548,0.189510569,55552,-53.6919632
2806514,540542466,653786626,3100096188,-0.796151578,0.219251841,30720,-53.65441895
2806524,539494912,657982972,3083056056,-0.802810073,0.231655911,55552,-53.63320541
2806534,539489793,650643969,3100358072,-0.801113904,0.2548289,30720,-53.60246658
