Timestamp,compactImu.a_xyz,compactImu.l_xyz,motorCompact.pwms,stabilizer.pitch,stabilizer.roll,stabilizer.thrust,stabilizer.yaw
38113,536346111,641203712,0,0.912271023,-0.098208033,0,0.355767846
38116,536346111,641203712,0,0.912093103,-0.098608881,0,0.355910569
38120,536346111,641203712,0,0.911735773,-0.099059619,0,0.356070459
38123,536346111,641203712,0,0.911735773,-0.099059619,0,0.356070459
38127,536346111,641203713,0,0.911761463,-0.099197172,0,0.35630542
38132,536346111,641203713,0,0.911903858,-0.098931663,0,0.356227756
38135,536346111,641203713,0,0.911903858,-0.098931663,0,0.356227756
38138,536346111,641203713,0,0.911885858,-0.098359443,0,0.355977625
38142,536346111,641203713,0,0.912069917,-0.097579621,0,0.356157064
38145,536346111,642252288,0,0.912095308,-0.096830182,0,0.356219739
38149,536346111,642252288,0,0.911894798,-0.096446417,0,0.356324166
38154,536346111,642252288,0,0.911770284,-0.096351445,0,0.356290013
38157,536346111,642252288,0,0.911757469,-0.096681021,0,0.356217951
38163,536346111,642252288,0,0.911671519,-0.096960329,0,0.356527895
38165,536346111,642252288,0,0.911488235,-0.097035155,0,0.356885195
38167,536346111,642252289,0,0.911488235,-0.097035155,0,0.356885195
38171,536346111,641203713,0,0.911647737,-0.096780673,0,0.356928527
38176,536346111,641203713,0,0.911335289,-0.096880741,0,0.357484758
38179,536346111,641203713,0,0.911335289,-0.096880741,0,0.357484758
38183,536346111,641203712,0,0.910994828,-0.09686856,0,0.358060807
38188,536346111,641203712,0,0.910824537,-0.097156174,0,0.358547568
38191,536346110,642252288,0,0.910824537,-0.097156174,0,0.358547568
38196,536346111,642252288,0,0.911097527,-0.098131955,0,0.357785612
38199,536346111,641203712,0,0.911097527,-0.098131955,0,0.357785612
38203,536346111,641203713,0,0.911197364,-0.097850017,0,0.357829392
38208,536346111,642252289,0,0.911414981,-0.097444147,0,0.358152568
38211,536346111,642252289,0,0.911414981,-0.097444147,0,0.358152568
38216,536346111,642252289,0,0.910402477,-0.097209394,0,0.358167648
38219,536346111,642252289,0,0.910402477,-0.097209394,0,0.358167648
38223,535296511,642252288,0,0.910221994,-0.097400419,0,0.357782423
38228,536346111,642252289,0,0.910855889,-0.097912967,0,0.35714063
38230,536346111,642252289,0,0.910855889,-0.097912967,0,0.35714063
38233,536346111,642252289,0,0.910641253,-0.098025277,0,0.357177764
38238,536346111,641203713,0,0.910574555,-0.097923934,0,0.357472271
38241,536346111,641203713,0,0.910738766,-0.097917877,0,0.35821411
38245,536346111,641203712,0,0.911057591,-0.097783871,0,0.358639479
38250,536346111,641203712,0,0.911146045,-0.097756661,0,0.358909816
38253,536346111,641203712,0,0.91082567,-0.097700447,0,0.359018803
38257,536346111,641203712,0,0.910864532,-0.097287051,0,0.359154195
38262,536345087,642252289,0,0.911276162,-0.096927039,0,0.359497786
38265,536346111,642252289,0,0.911708355,-0.096550725,0,0.360007852
38269,536346111,642252288,0,0.911568344,-0.096395433,0,0.360385507
38273,536346111,642252288,0,0.911333501,-0.096247263,0,0.360151619
38275,536346111,642252288,0,0.911333501,-0.096247263,0,0.360151619
38278,536346111,642252288,0,0.911058962,-0.096022658,0,0.359654278
38282,536346110,642252288,0,0.911185384,-0.096072711,0,0.359251618
38285,536346110,642252288,0,0.911187887,-0.096448347,0,0.358993173
38289,536346111,642252288,0,0.91066128,-0.096361302,0,0.359265506
38292,536346111,642252288,0,0.910793006,-0.095997483,0,0.359722137
38294,536346111,642252288,0,0.910793006,-0.095997483,0,0.359722137
38297,536346111,642252288,0,0.910981238,-0.095671102,0,0.3602404
38304,536346111,642252289,0,0.911191821,-0.096249677,0,0.361427188
38307,536346111,642252289,0,0.911191821,-0.096249677,0,0.361427188
38311,536346111,642252289,0,0.91113174,-0.096449755,0,0.361237913
38316,536346111,642252289,0,0.910978794,-0.096668266,0,0.360678643
38319,536346111,642252289,0,0.910978794,-0.096668266,0,0.360678643
38323,536346111,642252289,0,0.911105692,-0.096831061,0,0.360960454
38328,536346111,642252289,0,0.91116035,-0.097309284,0,0.362125605
38331,536346111,642252288,0,0.91116035,-0.097309284,0,0.362125605
38335,536346111,642252288,0,0.910955489,-0.097926579,0,0.362347215
38340,536346111,642252288,0,0.909787536,-0.098318562,0,0.36292994
38343,536346111,642252288,0,0.909787536,-0.098318562,0,0.36292994
38348,536346111,642252288,0,0.909526408,-0.097977705,0,0.363358438
38351,536346111,642252288,0,0.909526408,-0.097977705,0,0.363358438
38359,536346111,642252288,0,0.908867776,-0.098076008,0,0.36392194
38364,536345087,641203712,0,0.909239233,-0.098144144,0,0.364959776
38368,536346111,641203712,0,0.909098089,-0.098287746,0,0.365736902
38372,536346111,641203712,0,0.909139216,-0.098291621,0,0.36631453
38375,536346111,642252288,0,0.909139216,-0.098291621,0,0.36631453
38379,536346111,642252289,0,0.909247935,-0.097925596,0,0.366413683
38388,536346111,642252289,0,0.90891403,-0.097486831,0,0.366070926
38391,536346111,642252289,0,0.90891403,-0.097486831,0,0.366070926
38395,536346111,642252289,0,0.909347177,-0.097073793,0,0.36583221
38400,536346111,642252289,0,0.909624398,-0.09694577,0,0.366081387
38402,536346111,641203712,0,0.909624398,-0.09694577,0,0.366081387
38405,536346111,642252288,0,0.909468293,-0.096798271,0,0.36572504
38410,536346111,641203712,0,0.909290373,-0.09682405,0,0.365596116
38413,536346111,642252288,0,0.909356117,-0.096530683,0,0.365713626
38417,536346111,642252288,0,0.909234166,-0.096243717,0,0.365840822
38421,536346111,642252288,0,0.909133852,-0.096028939,0,0.366187125
38423,536346111,642252288,0,0.909133852,-0.096028939,0,0.366187125
38427,536346111,642252288,0,0.909033895,-0.095676035,0,0.366414785
38431,536346111,642252289,0,0.908845007,-0.095460981,0,0.366763771
38433,536346111,642252289,0,0.908545732,-0.095487535,0,0.366906822
38437,536346110,642252289,0,0.908432424,-0.096118376,0,0.367272198
38441,536346110,642252288,0,0.908504128,-0.096842565,0,0.367859304
38443,536346111,642252288,0,0.908504128,-0.096842565,0,0.367859304
38447,536346111,642252288,0,0.908725142,-0.09745118,0,0.368018717
38451,536346111,642252288,0,0.908736467,-0.098041579,0,0.367645741
38456,536346110,642252288,0,0.908258677,-0.099278539,0,0.367320955
38459,536345087,642252289,0,0.908258677,-0.099278539,0,0.367320955
38464,535297535,642252288,0,0.909038246,-0.099693693,0,0.365949422
38467,535297535,642252288,0,0.909038246,-0.099693693,0,0.365949422
38471,536346111,642252288,0,0.90890348,-0.099344619,0,0.365467012
38476,536346111,641203712,0,0.908815205,-0.098984987,0,0.365625203
38479,536346111,642252288,0,0.908815205,-0.098984987,0,0.365625203
38483,536346111,642252288,0,0.90901351,-0.099074692,0,0.365451664
38488,536346111,642252288,0,0.909267902,-0.09868487,0,0.364548504
38491,536346111,641203713,0,0.909267902,-0.09868487,0,0.364548504
38495,536346111,641203713,0,0.909460664,-0.099009492,0,0.364160031
38500,536346111,641203713,0,0.909308553,-0.098501287,0,0.363763899
38503,536346111,641203713,0,0.909308553,-0.098501287,0,0.363763899
38508,536346111,642252289,0,0.909388959,-0.09796267,0,0.363455981
38511,536346111,642252289,0,0.909388959,-0.09796267,0,0.363455981
38515,536345087,642252289,0,0.909955323,-0.097800411,0,0.363408923
38520,536346111,642252289,0,0.910368025,-0.097690493,0,0.363863021
38523,536346110,641203712,0,0.910368025,-0.097690493,0,0.363863021
38527,536346110,641203712,0,0.910211265,-0.098249547,0,0.363931835
38532,536346111,641203712,0,0.909620762,-0.098817915,0,0.364274055
38535,536346111,641203712,0,0.909620762,-0.098817915,0,0.364274055
38540,536346111,641203712,0,0.909190118,-0.098683611,0,0.363760054
38543,536346111,641203712,0,0.909190118,-0.098683611,0,0.363760054
38547,536346111,641203712,0,0.909027755,-0.098991647,0,0.363404125
38552,536346111,642252288,0,0.908962369,-0.099292405,0,0.363446712
38554,536346111,642252288,0,0.908962369,-0.099292405,0,0.363446712
38557,535297535,642252288,0,0.909222066,-0.099421076,0,0.363037288
38562,536346111,641203712,0,0.909026504,-0.099230558,0,0.362553298
38565,536346111,641203712,0,0.90927279,-0.098666921,0,0.362386674
38569,536346111,641203713,0,0.909754395,-0.098280273,0,0.362816215
38574,536346111,641203713,0,0.909562349,-0.097899742,0,0.363077134
38577,536346111,641203713,0,0.909681141,-0.097401746,0,0.36286974
38584,536346111,642252289,0,0.910669565,-0.097355321,0,0.362155825
38587,536346111,642252289,0,0.910669565,-0.097355321,0,0.362155825
38591,536346111,642252288,0,0.91058743,-0.097395971,0,0.361956507
38600,536346111,642252289,0,0.910472035,-0.096789069,0,0.36234808
38602,536346111,642252289,0,0.910472035,-0.096789069,0,0.36234808
38605,536346111,642252288,0,0.910629392,-0.097117461,0,0.362037152
38610,536346111,642252288,0,0.910856485,-0.09720435,0,0.361938179
38613,536346111,642252288,0,0.910760224,-0.097217724,0,0.361621618
38618,536346111,642252288,0,0.910578251,-0.097407043,0,0.361337304
38622,536346111,642252288,0,0.910696208,-0.097438596,0,0.36107862
38626,536346111,642252288,0,0.910746038,-0.097739786,0,0.361092806
38632,536346111,642252288,0,0.910573423,-0.09852948,0,0.361574709
38635,536346111,642252288,0,0.910573423,-0.09852948,0,0.361574709
38639,536346111,642252288,0,0.910253465,-0.098525666,0,0.361419797
38647,536346111,642252288,0,0.910096526,-0.098961279,0,0.361783713
38649,536346111,642252288,0,0.910345137,-0.099275619,0,0.36185503
38652,536346111,642252288,0,0.910302401,-0.099425972,0,0.361566573
38655,536346111,642252288,0,0.910302401,-0.099425972,0,0.361566573
38660,536346110,641203713,0,0.910326779,-0.100453317,0,0.361368388
38664,536346111,641203713,0,0.910476267,-0.100241259,0,0.361353904
38667,536346111,641203712,0,0.910476267,-0.100241259,0,0.361353904
38671,536346111,641203712,0,0.910516918,-0.099782154,0,0.361379355
38676,536346111,641203712,0,0.91002202,-0.099866003,0,0.3615399
38678,536346111,642252288,0,0.91002202,-0.099866003,0,0.3615399
38681,536346111,642252288,0,0.909731686,-0.099805541,0,0.36186114
38686,536346111,642252288,0,0.909569979,-0.100110553,0,0.362197936
38689,536346111,642252288,0,0.909423888,-0.100004636,0,0.362256974
38693,536346111,642252288,0,0.909528255,-0.099299476,0,0.361936986
38698,536346110,642252288,0,0.909713089,-0.099517241,0,0.362139702
38700,536346111,642252288,0,0.909976602,-0.099757046,0,0.362902611
38705,536345087,642252288,0,0.910400391,-0.099749595,0,0.363103479
38710,536346111,642252288,0,0.910512447,-0.099697441,0,0.363461345
38712,536346111,642252288,0,0.910527229,-0.099566527,0,0.364118844
38715,536346111,642252288,0,0.910527229,-0.099566527,0,0.364118844
38719,536346111,642252289,0,0.910381794,-0.099486895,0,0.364569902
38721,536346111,642252289,0,0.910152256,-0.099616244,0,0.364808291
38725,536346111,642252288,0,0.910351574,-0.099687412,0,0.365099669
38730,536346111,642252288,0,0.910303652,-0.099627174,0,0.365326583
38733,536346111,642252288,0,0.910114348,-0.099975608,0,0.365347683
38737,536346111,642252289,0,0.910410583,-0.099886097,0,0.365598589
38742,536346111,642252289,0,0.910647333,-0.099521726,0,0.366122067
38745,536346111,642252288,0,0.910999596,-0.098831944,0,0.366378993
38749,536346111,642252288,0,0.911242843,-0.098546416,0,0.366581321
38754,536346111,642252288,0,0.911165118,-0.098239094,0,0.366959482
38757,536346111,642252288,0,0.910995603,-0.097921781,0,0.367291033
38762,536346111,642252288,0,0.910784066,-0.097651854,0,0.367394537
38765,536346111,642252288,0,0.910736084,-0.097899653,0,0.367347091
38769,536346111,642252288,0,0.910713971,-0.098065928,0,0.367392689
38774,536346111,642252288,0,0.910595834,-0.097911477,0,0.36741221
38777,536346111,642252288,0,0.910547853,-0.097942062,0,0.367805362
38781,536346111,642252288,0,0.910436869,-0.097853743,0,0.367549956
38786,536346111,641203712,0,0.910597444,-0.097707354,0,0.367237359
38789,536346111,641203712,0,0.910552502,-0.097953156,0,0.367432594
38794,536346111,641203712,0,0.910345137,-0.098035544,0,0.36741817
38797,536346111,641203712,0,0.910479009,-0.097478241,0,0.36697346
38800,536346111,641203712,0,0.910567105,-0.097181663,0,0.36689803
38804,536346110,642252288,0,0.910283089,-0.097624198,0,0.366717964
38807,536346111,642252288,0,0.910283089,-0.097624198,0,0.366717964
38810,536346111,642252288,0,0.909920156,-0.097820468,0,0.366670758
38814,536346111,642252288,0,0.909883082,-0.097593993,0,0.366886169
38818,536346111,642252288,0,0.909873903,-0.097565815,0,0.36731413
38822,536346110,642252288,0,0.909672856,-0.097976573,0,0.367701471
38825,535297534,642252288,0,0.909372509,-0.098543487,0,0.367134988
38830,536346111,642252288,0,0.908706784,-0.098583356,0,0.366853535
38833,536346111,642252289,0,0.908502877,-0.098501064,0,0.366890311
38838,536346111,642252289,0,0.908310831,-0.098358952,0,0.367029756
38842,536346111,642252289,0,0.908233702,-0.098119847,0,0.367054462
38844,536346111,642252289,0,0.908448815,-0.097869247,0,0.366854042
38848,536346111,642252289,0,0.908358574,-0.097804844,0,0.366503984
38852,536346111,642252289,0,0.908362567,-0.097649045,0,0.366839588
38854,536346111,642252289,0,0.908362567,-0.097649045,0,0.366839588
38858,536345087,642252288,0,0.908770919,-0.097247206,0,0.367214859
38862,536346111,642252288,0,0.909249961,-0.096932299,0,0.367548406
38866,536346111,642252289,0,0.909493446,-0.096958846,0,0.367651075
38869,536346111,642252289,0,0.909629822,-0.097086467,0,0.367524564
38872,536346111,642252289,0,0.909965515,-0.097088225,0,0.367376775
38876,536346111,642252289,0,0.909906387,-0.09665034,0,0.367364913
38879,536346111,642252289,0,0.909906387,-0.09665034,0,0.367364913
38882,536346110,642252289,0,0.909641981,-0.096662059,0,0.367704809
38886,536346110,642252289,0,0.909626484,-0.097341485,0,0.368036568
38890,536346110,642252289,0,0.909518659,-0.097986288,0,0.368010283
38894,536346111,642252288,0,0.909108937,-0.098403327,0,0.367955536
38898,536346111,642252288,0,0.90887934,-0.098690495,0,0.367865473
38902,536346111,642252288,0,0.908959746,-0.09865468,0,0.367777854
38906,536346111,642252288,0,0.908829629,-0.098332696,0,0.367634684
38910,536346111,641203713,0,0.908606827,-0.098424301,0,0.368143171
38914,536346111,641203712,0,0.908271194,-0.0985367,0,0.36843437
38918,536346111,641203712,0,0.90774256,-0.098573998,0,0.368182272
38922,536346111,641203712,0,0.907555282,-0.098688222,0,0.368314296
38926,536346111,642252288,0,0.907708466,-0.098217882,0,0.368664622
38930,536346111,642252289,0,0.907978594,-0.097948514,0,0.368916273
38934,536346110,642252289,0,0.908303976,-0.09823209,0,0.369014084
38938,536346111,642252289,0,0.908509135,-0.098780155,0,0.36891982
38942,536346111,642252289,0,0.908238888,-0.098714843,0,0.368904054
38946,536346111,642252288,0,0.907918334,-0.098326944,0,0.368750811
38950,536346111,641203712,0,0.907844722,-0.097991444,0,0.368659616
38954,536346111,641203712,0,0.907548547,-0.097960986,0,0.368911207
38956,536346111,641203712,0,0.907263517,-0.098231643,0,0.369397491
38960,536346110,641203712,0,0.907247424,-0.098626859,0,0.369528055
38963,536346110,642252288,0,0.907247424,-0.098626859,0,0.369528055
38966,536346111,642252288,0,0.907213271,-0.098910041,0,0.369208217
38970,536346111,642252288,0,0.907332838,-0.098747931,0,0.368865043
38974,536345087,642252288,0,0.907622576,-0.098857768,0,0.368956327
38978,536346111,642252288,0,0.907987654,-0.099206395,0,0.369309455
38982,536346111,642252288,0,0.908045232,-0.099399358,0,0.369338095
38986,536346110,641203712,0,0.90833205,-0.099663384,0,0.369321078
38989,536346110,641203712,0,0.908706009,-0.100171022,0,0.369418234
38992,536346111,641203713,0,0.909025609,-0.099983908,0,0.369390041
38995,536346111,641203713,0,0.909025609,-0.099983908,0,0.369390041
38998,536346111,641203713,0,0.909238756,-0.099694327,0,0.369365424
39002,536346111,641203713,0,0.909038186,-0.099448241,0,0.369534671
39005,536346111,641203712,0,0.908810556,-0.099369794,0,0.369728714
39009,536346111,641203712,0,0.908463418,-0.099083133,0,0.370116949
39012,536346111,641203713,0,0.908794641,-0.098448806,0,0.370610505
39015,536346111,641203713,0,0.908794641,-0.098448806,0,0.370610505
39018,536346111,641203713,0,0.909259498,-0.097939931,0,0.370955527
39022,536346111,641203712,0,0.909697711,-0.097510166,0,0.371060818
39026,536346111,641203712,0,0.90966326,-0.097163439,0,0.371081322
39030,536346111,642252289,0,0.909757555,-0.0969235,0,0.371295333
39034,536346111,642252288,0,0.910015702,-0.096611969,0,0.371236056
39038,536346111,642252288,0,0.910197079,-0.096601263,0,0.371339858
39042,536346111,642252288,0,0.910099506,-0.096704833,0,0.371179461
39046,536346111,642252288,0,0.910014749,-0.096561357,0,0.370910525
39050,536346111,642252288,0,0.910175264,-0.096526802,0,0.370675981
39054,536346111,642252288,0,0.910266697,-0.09664318,0,0.370562494
39058,536346111,642252288,0,0.910197496,-0.096321583,0,0.370289326
39062,536346110,642252288,0,0.910259306,-0.09619125,0,0.369896352
39066,536346110,642252288,0,0.910429597,-0.096680403,0,0.369847
39070,536346111,642252288,0,0.910287142,-0.096577443,0,0.370097876
39074,536346111,641203712,0,0.910184085,-0.096380845,0,0.370319337
39078,536346111,642252289,0,0.910398185,-0.096606858,0,0.370612055
39082,536346111,642252289,0,0.91071105,-0.096892118,0,0.371088803
39086,536346111,642252289,0,0.911231577,-0.096810289,0,0.371314406
39090,536346111,642252288,0,0.911706686,-0.096393578,0,0.371540129
39094,536346110,642252288,0,0.911785066,-0.096530229,0,0.371754974
39098,536346111,642252288,0,0.911641359,-0.097007267,0,0.371577889
39102,536346111,642252289,0,0.911240399,-0.097332574,0,0.371005327
39105,536346111,642252289,0,0.910995305,-0.097503923,0,0.370771468
39108,536346111,642252289,0,0.911020935,-0.097699612,0,0.370677322
39112,536346111,642252288,0,0.911361396,-0.09757594,0,0.370893031
39115,536345087,642252288,0,0.911361396,-0.09757594,0,0.370893031
39118,535297535,642252288,0,0.911883354,-0.097411431,0,0.370489627
39122,536346111,642252289,0,0.912059247,-0.097192094,0,0.370049238
39125,536346111,642252288,0,0.911996424,-0.096742958,0,0.369795471
39128,536346111,642252288,0,0.911914766,-0.096386231,0,0.369710535
39131,536346111,642252288,0,0.911914766,-0.096386231,0,0.369710535
39134,536346111,642252289,0,0.911933661,-0.096018098,0,0.369874209
39138,536346111,642252289,0,0.912122428,-0.095969893,0,0.370131671
39140,536346111,642252289,0,0.912518203,-0.095866047,0,0.370141327
39144,536346111,642252289,0,0.913039804,-0.096037358,0,0.370248944
39147,536345087,642252289,0,0.913039804,-0.096037358,0,0.370248944
39150,536346111,642252289,0,0.913645566,-0.096316457,0,0.370585173
39152,536346111,642252289,0,0.913832784,-0.095940575,0,0.371274948
39156,536346111,642252289,0,0.914044201,-0.095699862,0,0.371761262
39159,536346111,642252289,0,0.914044201,-0.095699862,0,0.371761262
39162,536346111,642252289,0,0.914277554,-0.095856495,0,0.372159243
39164,536346110,642252289,0,0.914274812,-0.096365511,0,0.371894747
39168,536346110,642252289,0,0.914410532,-0.096748091,0,0.372035503
39171,536346111,642252289,0,0.914410532,-0.096748091,0,0.372035503
39174,536346111,642252288,0,0.914652944,-0.09632957,0,0.37230134
39176,536346111,642252288,0,0.914729357,-0.096187688,0,0.372201324
39180,536346110,642252289,0,0.914932668,-0.096514307,0,0.372177035
39183,536346111,642252288,0,0.914932668,-0.096514307,0,0.372177035
39186,536346111,642252288,0,0.915221632,-0.09643466,0,0.372113854
39189,536346110,642252288,0,0.915128589,-0.096777007,0,0.372511834
39192,536346111,642252288,0,0.915049076,-0.09704563,0,0.373031467
39195,536346111,642252289,0,0.915049076,-0.09704563,0,0.373031467
39198,536346111,642252289,0,0.915293038,-0.09737955,0,0.373283863
39202,536346111,642252288,0,0.915424049,-0.09763848,0,0.373351157
39206,536346111,642252288,0,0.915275633,-0.097834185,0,0.373789936
39210,536346111,642252288,0,0.915227175,-0.097813189,0,0.374198228
39214,535297535,642252288,0,0.914937437,-0.097313121,0,0.373872817
39218,536346111,641203712,0,0.914812982,-0.096954308,0,0.373206079
39222,536346111,641203712,0,0.914271414,-0.096754216,0,0.373091131
39226,536346110,641203712,0,0.914178014,-0.097038031,0,0.373215497
39228,536346110,642252289,0,0.914454162,-0.097668752,0,0.373710692
39232,536346111,642252289,0,0.91476804,-0.097946905,0,0.373777539
39235,536346111,642252289,0,0.91476804,-0.097946905,0,0.373777539
39238,536346111,642252289,0,0.914343953,-0.098249316,0,0.373480201
39242,536346111,642252288,0,0.914127767,-0.098094292,0,0.37339434
39246,536346111,641203712,0,0.913727224,-0.097598851,0,0.373010159
39250,536346110,642252288,0,0.91366297,-0.097853638,0,0.373101234
39254,536346111,642252288,0,0.913800716,-0.098239452,0,0.373401999
39257,536346111,642252288,0,0.913723767,-0.098540634,0,0.373544246
39260,536346111,642252288,0,0.913407803,-0.098783098,0,0.373509049
39263,536346111,641203712,0,0.913407803,-0.098783098,0,0.373509049
39266,536346111,641203712,0,0.912745774,-0.09867651,0,0.37355572
39270,536345087,642252288,0,0.912874281,-0.098744519,0,0.373897195
39274,536345087,642252289,0,0.913526714,-0.099037237,0,0.373873591
39278,536346110,642252289,0,0.914143026,-0.099500924,0,0.373568982
39282,536346111,642252289,0,0.914537013,-0.100006945,0,0.373171777
39284,536346111,642252289,0,0.914942205,-0.099947378,0,0.373144239
39288,536346111,642252289,0,0.915001988,-0.099871814,0,0.373446167
39291,536346111,642252289,0,0.915001988,-0.099871814,0,0.373446167
39294,536346110,642252289,0,0.915153086,-0.100149654,0,0.373950303
39298,536346110,642252289,0,0.91534096,-0.100866459,0,0.373949707
39302,536346111,641203712,0,0.91517961,-0.101239733,0,0.37404114
39306,536346111,641203712,0,0.915218055,-0.100977473,0,0.374305516
39309,536346111,641203712,0,0.915487051,-0.100651518,0,0.374675184
39312,536346111,642252288,0,0.915739477,-0.100594439,0,0.374523729
39315,536346111,642252288,0,0.915739477,-0.100594439,0,0.374523729
39318,536346111,642252288,0,0.916085958,-0.100381047,0,0.374386668
39321,536346111,642252288,0,0.916056454,-0.100029685,0,0.374505073
39324,536346111,642252288,0,0.91593796,-0.099510655,0,0.374308556
39327,536346111,642252288,0,0.91593796,-0.099510655,0,0.374308556
39330,536346111,642252288,0,0.915949166,-0.099249564,0,0.37428987
39332,536346110,642252288,0,0.915968895,-0.099923104,0,0.374545336
39336,536346111,641203712,0,0.915998757,-0.100220785,0,0.374906808
39339,536346111,641203712,0,0.915998757,-0.100220785,0,0.374906808
39342,536346111,641203713,0,0.916148961,-0.100267798,0,0.375412017
39346,536346111,641203713,0,0.916374564,-0.099998236,0,0.375600815
39348,536346111,641203713,0,0.91675216,-0.099672951,0,0.37598893
39352,536346111,641203713,0,0.916769266,-0.099476412,0,0.376193404
39355,536346111,641203713,0,0.916769266,-0.099476412,0,0.376193404
39358,536346111,642252288,0,0.916937947,-0.099334955,0,0.376105905
39362,536346111,642252288,0,0.916857004,-0.099226862,0,0.375853926
39365,536346111,641203712,0,0.916720629,-0.099128745,0,0.37611565
39368,536346111,641203712,0,0.916364133,-0.099193498,0,0.376580447
39371,536346111,641203712,0,0.916364133,-0.099193498,0,0.376580447
39374,536346111,641203712,0,0.915870309,-0.099253178,0,0.376965642
39376,536346111,642252288,0,0.915856123,-0.099475719,0,0.377277315
39380,536346111,642252289,0,0.915757895,-0.099538475,0,0.377850682
39383,536346110,642252289,0,0.915757895,-0.099538475,0,0.377850682
39387,536346110,642252289,0,0.915530682,-0.100125134,0,0.378512651
39389,536346111,642252289,0,0.915560067,-0.100507073,0,0.378673464
39392,536346111,642252289,0,0.915449798,-0.10047166,0,0.378258526
39395,536346111,642252289,0,0.915449798,-0.10047166,0,0.378258526
39398,536346111,642252289,0,0.915240407,-0.100412004,0,0.378193945
39401,536346111,642252288,0,0.915399849,-0.100185499,0,0.378545612
39404,536346111,641203712,0,0.915241301,-0.100019887,0,0.378787935
39407,536346111,641203712,0,0.915241301,-0.100019887,0,0.378787935
39410,536346111,642252288,0,0.915067971,-0.099824101,0,0.379006386
39413,536346111,642252288,0,0.915186942,-0.099521518,0,0.379026681
39416,536346111,642252288,0,0.915150464,-0.099252291,0,0.379196733
39419,536346111,642252288,0,0.915150464,-0.099252291,0,0.379196733
39422,536346111,642252288,0,0.915002644,-0.0990474,0,0.379321784
39425,536346111,642252288,0,0.914780974,-0.099032581,0,0.379272431
39428,536346111,642252288,0,0.914821088,-0.099009104,0,0.379259139
39431,536346111,642252289,0,0.914821088,-0.099009104,0,0.379259139
39434,536346111,642252289,0,0.914691627,-0.098959841,0,0.37937218
39438,536346111,642252289,0,0.914583087,-0.098872498,0,0.379493564
39441,536346111,641203713,0,0.914512157,-0.098963208,0,0.379635781
39444,536346111,641203712,0,0.914137006,-0.099029802,0,0.379900545
39447,536346111,641203712,0,0.914137006,-0.099029802,0,0.379900545
39450,536346111,642252288,0,0.91384232,-0.098987095,0,0.380038321
39453,536346111,642252288,0,0.913546145,-0.098932713,0,0.380353034
39456,536346111,642252288,0,0.91329813,-0.098554492,0,0.380809486
39459,536346111,642252288,0,0.91329813,-0.098554492,0,0.380809486
39462,536346111,642252288,0,0.913012445,-0.098398902,0,0.381168455
39465,536346110,642252288,0,0.91281271,-0.098794654,0,0.381115586
39468,536346111,642252288,0,0.912724137,-0.099121824,0,0.380578279
39471,536346111,642252288,0,0.912724137,-0.099121824,0,0.380578279
39474,536346110,642252288,0,0.912917197,-0.099518716,0,0.380669504
39477,536346111,642252288,0,0.913049996,-0.099866793,0,0.381052911
39480,536346111,641203713,0,0.913022578,-0.10020341,0,0.381491512
39483,536346111,642252289,0,0.913022578,-0.10020341,0,0.381491512
39486,536346111,642252289,0,0.913242936,-0.100151308,0,0.381359577
39489,536346111,642252289,0,0.913458169,-0.100307189,0,0.380895883
39492,536346111,642252289,0,0.913608372,-0.100338869,0,0.380660921
39495,536346111,642252289,0,0.913608372,-0.100338869,0,0.380660921
39498,536346111,642252288,0,0.913699031,-0.100148156,0,0.380788952
39502,536346111,642252288,0,0.913538218,-0.100079335,0,0.381023794
39507,536346111,641203712,0,0.913217187,-0.100035034,0,0.381095886
39509,536346110,641203712,0,0.912813008,-0.100576952,0,0.381307214
39512,536346110,641203712,0,0.912637532,-0.101130418,0,0.381641358
39515,536346111,642252288,0,0.912637532,-0.101130418,0,0.381641358
39518,536346111,642252288,0,0.912810802,-0.101009391,0,0.382235467
39521,536346111,642252288,0,0.913164377,-0.100953668,0,0.382718116
39524,536346111,642252288,0,0.913531721,-0.101353392,0,0.383104831
39527,536346111,642252288,0,0.913531721,-0.101353392,0,0.383104831
39531,536346111,642252288,0,0.913662612,-0.101341002,0,0.383594841
39536,536346111,642252289,0,0.91392684,-0.101196885,0,0.384375691
39538,536346111,642252289,0,0.91392684,-0.101196885,0,0.384375691
39542,536346111,642252289,0,0.914146125,-0.100612186,0,0.384648949
39547,536346111,642252289,0,0.914235592,-0.100322999,0,0.384768426
39549,536346111,642252289,0,0.914496362,-0.100105137,0,0.384688437
39552,536345086,642252289,0,0.915174961,-0.10066139,0,0.384815931
39555,536345086,642252289,0,0.915174961,-0.10066139,0,0.384815931
39559,536346111,642252288,0,0.915741622,-0.101081066,0,0.384935766
39562,536346111,642252288,0,0.916036844,-0.101172961,0,0.38523832
39565,536346111,642252288,0,0.916232288,-0.101350062,0,0.385487169
39569,536346111,641203712,0,0.916033447,-0.101156436,0,0.385867894
39572,536346111,641203712,0,0.915893912,-0.101252802,0,0.386037201
39575,536346110,641203712,0,0.915893912,-0.101252802,0,0.386037201
39580,536346110,641203712,0,0.916077077,-0.102408066,0,0.386665225
39582,536346110,641203712,0,0.916077077,-0.102408066,0,0.386665225
39585,536346111,641203712,0,0.915911257,-0.102595814,0,0.386618018
39588,536346111,642252288,0,0.915758729,-0.102211103,0,0.386501074
39592,536346111,642252288,0,0.915656149,-0.102151744,0,0.386482567
39594,536346111,642252288,0,0.915656149,-0.102151744,0,0.386482567
39597,536346111,642252288,0,0.915777981,-0.102393992,0,0.386341184
39600,536346111,642252288,0,0.915501475,-0.10267175,0,0.386232853
39603,536346111,642252288,0,0.915501475,-0.10267175,0,0.386232853
39606,536346111,642252288,0,0.914860427,-0.102910943,0,0.386185169
39609,536346111,642252288,0,0.9145298,-0.102663517,0,0.386217862
39613,536346111,642252288,0,0.91430068,-0.102403373,0,0.386201382
39616,536346111,642252288,0,0.913864553,-0.102517851,0,0.385846674
39619,536346111,642252288,0,0.913864553,-0.102517851,0,0.385846674
39623,536346111,642252288,0,0.913487673,-0.102643631,0,0.385654747
39625,536346111,642252288,0,0.913391411,-0.102871262,0,0.386067182
39628,536346111,642252288,0,0.913607895,-0.103136905,0,0.386380643
39631,536346111,642252289,0,0.913607895,-0.103136905,0,0.386380643
39635,536346111,641203713,0,0.913885891,-0.103316456,0,0.387046397
39637,536346111,641203713,0,0.914172888,-0.10338892,0,0.38725847
39640,536346111,641203712,0,0.914534748,-0.10310743,0,0.387251347
39644,536346111,641203713,0,0.914776385,-0.103085659,0,0.386999071
39646,536346111,641203713,0,0.914776385,-0.103085659,0,0.386999071
39649,536346111,641203713,0,0.914605856,-0.102999322,0,0.387177199
39652,536346111,642252289,0,0.91449517,-0.102826521,0,0.387216806
39656,536346111,641203713,0,0.914780974,-0.102711909,0,0.387503564
39658,536346111,641203713,0,0.914780974,-0.102711909,0,0.387503564
39661,536346111,642252289,0,0.914943755,-0.102782138,0,0.387542456
39664,536346111,642252288,0,0.915092111,-0.102938421,0,0.387464941
39668,536346111,642252288,0,0.915318966,-0.102944128,0,0.387713403
39670,536346111,642252288,0,0.915318966,-0.102944128,0,0.387713403
39673,536346111,642252288,0,0.915184617,-0.102734178,0,0.388200253
39677,536346111,641203712,0,0.91515547,-0.102956943,0,0.388720214
39680,536346111,641203712,0,0.915157318,-0.10324619,0,0.388899982
39683,536346111,642252288,0,0.915157318,-0.10324619,0,0.388899982
39687,536346110,642252288,0,0.9150002,-0.103591844,0,0.389093697
39689,536346110,642252288,0,0.915173352,-0.104148552,0,0.389335006
39692,536346111,642252288,0,0.915262401,-0.104393758,0,0.388922721
39695,536346111,642252288,0,0.915262401,-0.104393758,0,0.388922721
39699,536346111,642252288,0,0.915223002,-0.104219854,0,0.388674647
39701,536346111,642252288,0,0.915036798,-0.104399636,0,0.389053851
39704,536346111,642252289,0,0.915110528,-0.104713418,0,0.389270186
39708,536346111,642252289,0,0.915402412,-0.105020702,0,0.388988942
39710,536346111,641203713,0,0.915402412,-0.105020702,0,0.388988942
39713,536346111,641203713,0,0.915547669,-0.105286576,0,0.388907522
39716,536345087,641203713,0,0.916343868,-0.105332278,0,0.388995767
39720,536345087,641203713,0,0.917245448,-0.105195001,0,0.389160156
39722,536346111,641203713,0,0.917245448,-0.105195001,0,0.389160156
39725,536346111,641203713,0,0.917253375,-0.105292454,0,0.389172167
39729,536346111,642252289,0,0.917261064,-0.105509236,0,0.388654947
39731,536346111,642252289,0,0.917261064,-0.105509236,0,0.388654947
39734,536346111,642252289,0,0.917096913,-0.105328135,0,0.388211876
39737,536346111,642252288,0,0.916994631,-0.105371207,0,0.388056755
39741,536346111,642252288,0,0.917001128,-0.10550867,0,0.38793993
39743,536346111,642252288,0,0.917001128,-0.10550867,0,0.38793993
39746,536346111,642252288,0,0.916916668,-0.105559394,0,0.387870312
39750,536346111,642252288,0,0.91685915,-0.105686039,0,0.388047427
39752,536346111,642252289,0,0.916772723,-0.105569944,0,0.388480574
39755,536346111,642252289,0,0.916772723,-0.105569944,0,0.388480574
39758,536346111,642252289,0,0.916664183,-0.105345882,0,0.388533026
39762,536346111,642252288,0,0.916980505,-0.105191439,0,0.388871849
39765,536346111,642252288,0,0.917333543,-0.104968131,0,0.388836235
39768,536346111,642252288,0,0.917586267,-0.104552768,0,0.388743311
39772,536346111,642252288,0,0.917582631,-0.104413107,0,0.388501525
39774,536346111,642252288,0,0.917582631,-0.104413107,0,0.388501525
39777,536346111,642252288,0,0.917356074,-0.104651511,0,0.388255745
39780,536346111,642252289,0,0.917136133,-0.104926296,0,0.388442993
39784,536346111,642252289,0,0.917427659,-0.10526143,0,0.388354689
39786,536346110,642252289,0,0.917427659,-0.10526143,0,0.388354689
39789,536346110,642252289,0,0.917764664,-0.105750442,0,0.388492465
39793,536346111,642252289,0,0.917776227,-0.105673127,0,0.38852191
39795,536346111,642252289,0,0.917776227,-0.105673127,0,0.38852191
39798,536346111,642252289,0,0.917874873,-0.105789982,0,0.388662606
39801,536346111,642252289,0,0.918189347,-0.105724715,0,0.389168143
39806,536346111,642252289,0,0.918127358,-0.105804019,0,0.389890283
39809,536345087,642252289,0,0.918527842,-0.105708115,0,0.390037179
39813,536346111,642252289,0,0.91911149,-0.105220616,0,0.390190065
39818,536346111,642252289,0,0.919239342,-0.104945146,0,0.390145242
39820,536346111,642252289,0,0.919322312,-0.104735814,0,0.390220106
39823,536346111,642252289,0,0.919322312,-0.104735814,0,0.390220106
39828,536346111,642252288,0,0.918995857,-0.104207717,0,0.389360607
39831,536346111,642252288,0,0.918995857,-0.104207717,0,0.389360607
39835,536346111,642252288,0,0.918710887,-0.103993908,0,0.389344364
39839,536346111,642252288,0,0.918683767,-0.103820659,0,0.389259934
39841,536346111,642252288,0,0.91868943,-0.103943788,0,0.38938123
39844,536346111,642252288,0,0.918438733,-0.104429118,0,0.389415979
39848,536346111,642252288,0,0.918143392,-0.10493885,0,0.3896541
39851,536346111,642252289,0,0.918143392,-0.10493885,0,0.3896541
39855,536346110,642252289,0,0.918052077,-0.105374411,0,0.390105128
39859,536346111,642252289,0,0.918080628,-0.105842091,0,0.390285313
39861,536346111,642252289,0,0.917849004,-0.105764464,0,0.390350878
39865,536346111,641203713,0,0.917435706,-0.10557548,0,0.390443921
39870,536346111,641203713,0,0.9170596,-0.105378032,0,0.390047967
39873,536346111,641203713,0,0.9169119,-0.105525061,0,0.390180647
39877,536346111,641203713,0,0.916445076,-0.105680428,0,0.390652746
39882,536346111,641203712,0,0.916020751,-0.10546077,0,0.390822262
39885,536346111,641203712,0,0.916097939,-0.105572402,0,0.390730739
39889,536345087,642252288,0,0.91674608,-0.105573453,0,0.390815824
39894,536346111,642252288,0,0.916861415,-0.10554003,0,0.390823156
39897,536346111,642252288,0,0.916899264,-0.10571035,0,0.390705526
39902,536346111,642252288,0,0.916816175,-0.10595379,0,0.39078176
39905,536346111,642252288,0,0.916784763,-0.105614319,0,0.391047478
39909,536345087,642252288,0,0.917221606,-0.104993694,0,0.391124099
39914,536346111,642252288,0,0.917426705,-0.104751118,0,0.39119193
39917,536346111,642252288,0,0.917557895,-0.104291283,0,0.391450047
39920,536346111,642252288,0,0.917009115,-0.103987277,0,0.391832888
39924,536346111,642252288,0,0.916467726,-0.103699654,0,0.391672522
39927,536346111,642252288,0,0.916467726,-0.103699654,0,0.391672522
39931,536346111,642252288,0,0.916258574,-0.10346888,0,0.391594797
39936,536346111,642252288,0,0.916497588,-0.103589334,0,0.392618656
39939,536346111,641203713,0,0.916497588,-0.103589334,0,0.392618656
39943,536346111,641203713,0,0.916690886,-0.103713587,0,0.393139154
39948,536346111,641203713,0,0.916203201,-0.104172654,0,0.393388689
39951,536346111,642252289,0,0.916203201,-0.104172654,0,0.393388689
39955,536346111,642252288,0,0.916084468,-0.10370791,0,0.393105656
39960,536346111,642252288,0,0.916168213,-0.103140168,0,0.392796844
39963,536346111,642252288,0,0.916168213,-0.103140168,0,0.392796844
39968,536346111,642252288,877874735,0.915811598,-0.103701867,57856,0.392714381
39971,536346111,642252288,877874735,0.915811598,-0.103701867,57856,0.392714381
39975,536346111,642252288,994658105,0.9157179,-0.104210384,57856,0.392440826
39980,536346111,642252288,1112624960,0.915463865,-0.104934894,38400,0.392721027
39983,536346111,642252289,1112624960,0.915463865,-0.104934894,38400,0.392721027
39987,536346111,642252289,1112624960,0.915672958,-0.105182521,38400,0.392760009
39992,536346111,642252289,1163153987,0.915223837,-0.105305798,53760,0.39291048
39995,536346110,642252289,1163153987,0.915223837,-0.105305798,53760,0.39291048
40000,536345086,642252289,1146442562,0.915974081,-0.10669221,53760,0.392875731
40003,536346111,642252289,1146442562,0.915974081,-0.10669221,53760,0.392875731
40007,536346111,642252288,1146442306,0.915798783,-0.10693983,53760,0.392761022
40012,535297535,641203712,1146442562,0.915159345,-0.106453098,53760,0.391634375
40015,536346111,641203713,1146442562,0.915159345,-0.106453098,53760,0.391634375
40019,536346111,642252288,1146442562,0.915492058,-0.105637692,53760,0.391817242
40024,535297535,642252288,1146442561,0.913473487,-0.105954923,53760,0.392660975
40027,535296511,642252289,1146442561,0.913473487,-0.105954923,53760,0.392660975
40032,537394686,642252289,1129796161,0.915903986,-0.107146606,53760,0.394052058
40035,537394686,642252288,1129796161,0.915903986,-0.107146606,53760,0.394052058
40038,535297535,642253312,1146508098,0.91352433,-0.107148327,53760,0.395976305
40042,535296510,642251265,1129731392,0.914993763,-0.105604589,53760,0.392148674
40045,536346110,641203712,1146573632,0.914609492,-0.108385384,53760,0.39337343
40049,536346111,642252289,1112953921,0.914408386,-0.1076397,53760,0.394920737
40054,535297535,641203712,1112953920,0.914262235,-0.105973445,53760,0.395092875
40057,535297535,642251264,1129796928,0.914185345,-0.105588302,53760,0.392679453
40061,536346110,641203713,1146573887,0.913155615,-0.107646689,53760,0.391232759
40066,537394687,642252289,1096308032,0.914031684,-0.105797358,53760,0.395168811
40069,535297534,641203712,1129861951,0.912528217,-0.107833721,53760,0.395610422
40073,535296511,643300865,1113019966,0.914240539,-0.108566403,53760,0.391001165
40078,537394687,640155137,1113084992,0.913373291,-0.108787008,53760,0.393354833
40081,536345087,644348417,1079531071,0.915395558,-0.107718609,53760,0.396065354
40086,536346110,641203712,1129927742,0.914726257,-0.110557497,53760,0.394764423
40089,536346111,643300864,1096242496,0.913491309,-0.109751232,53760,0.395279616
40092,535297535,642252289,1113085502,0.913152337,-0.109151103,53760,0.393208355
40096,536345087,643301887,1096373822,0.912964344,-0.107400939,53760,0.394332945
40099,537394687,642252288,1096373822,0.912964344,-0.107400939,53760,0.394332945
40102,536346111,642251264,1096373567,0.912231386,-0.105796009,53760,0.397660345
40105,536346110,643300865,1113216318,0.912203074,-0.107095301,53760,0.398341596
40110,536346111,642251265,1096373822,0.912408531,-0.10711842,53760,0.398479134
40112,536345087,642251265,1096373822,0.913662314,-0.107015252,53760,0.398213893
40115,536346111,640154113,1096373822,0.913662314,-0.107015252,53760,0.398213893
40120,536345086,640154113,1079662397,0.914429188,-0.111265972,53760,0.399258286
40123,536345087,640155136,1079662397,0.914429188,-0.111265972,53760,0.399258286
40127,535296511,640155136,1096439357,0.914492965,-0.111814588,53760,0.398309201
40132,536346110,642252288,1113216316,0.912863851,-0.112918191,53760,0.396505117
40135,536346110,642253312,1113216316,0.912863851,-0.112918191,53760,0.396505117
40139,537394687,642253312,1062950972,0.914453804,-0.112571903,53760,0.396021008
40144,536347134,645400065,1096439101,0.90860182,-0.111097224,53760,0.400045127
40147,536346110,645400065,1096439101,0.90860182,-0.111097224,53760,0.400045127
40152,535296512,644350465,1062950972,0.913022041,-0.103335463,53760,0.399149746
40154,535296511,645398017,1062950972,0.913022041,-0.103335463,53760,0.399149746
40157,535297534,644350465,1096505147,0.913666785,-0.103574254,53760,0.396334231
40162,536347133,643300866,1096504892,0.911010921,-0.106573135,53760,0.395623505
40164,537394687,641202690,1046239292,0.911402762,-0.107727811,53760,0.398323268
40167,536345087,644348417,1046239292,0.911402762,-0.107727811,53760,0.398323268
40171,536345087,644347392,1029528122,0.91606909,-0.10670729,53760,0.399107456
40174,535298558,643298817,1096504891,0.914559186,-0.109021336,53760,0.398209423
40177,535296510,641201665,1079793723,0.912773252,-0.112091087,53760,0.396690428
40181,535295487,642251265,1029528121,0.917684019,-0.112968259,53760,0.393989593
40185,536347133,645396994,1079793467,0.916720092,-0.115661897,53760,0.394680232
40187,536348157,645398018,1079793467,0.916720092,-0.115661897,53760,0.394680232
40192,536347134,643301890,1046239547,0.911136985,-0.121038891,53760,0.397122532
40196,535296513,643301889,995843131,0.912944674,-0.113179274,53760,0.396030664
40200,535296512,644349441,1046305081,0.914058745,-0.110107437,53760,0.394336849
40204,536348157,646447618,1113412922,0.907488108,-0.112899445,53760,0.394766212
40208,536345088,642253314,979262521,0.910814047,-0.108526923,53760,0.395156592
40211,536345087,643301890,979262521,0.910814047,-0.108526923,53760,0.395156592
40216,536348157,644350464,1096701241,0.904727578,-0.112149008,53760,0.397124946
40219,535299581,645399041,1096701241,0.904727578,-0.112149008,53760,0.397124946
40223,534247935,641205760,1046305081,0.899315715,-0.114538491,53760,0.395148844
40228,536346112,639107583,1012750906,0.901511133,-0.10745129,53760,0.391122401
40231,536346111,639106559,1012750906,0.901511133,-0.10745129,53760,0.391122401
40235,536345086,638056958,1046436152,0.899230659,-0.109096698,53760,0.392167211
40240,536344063,640155134,996105272,0.900426686,-0.112090789,53760,0.390314639
40243,535296511,641202686,996105272,0.900426686,-0.112090789,53760,0.390314639
40248,535297533,642251265,1029724727,0.897518694,-0.119258024,53760,0.387995511
40251,536346110,642251265,1029724727,0.897518694,-0.119258024,53760,0.387995511
40255,536346111,644349441,1012947767,0.899820864,-0.12198396,53760,0.389425725
40260,535298560,644348417,1012816697,0.896620691,-0.115645543,53760,0.389785379
40262,534251007,644349441,1012816697,0.896620691,-0.115645543,53760,0.389785379
40266,535296512,641204737,1046436406,0.893030584,-0.114552528,53760,0.385624319
40270,536345088,641204737,962682422,0.897493184,-0.110189095,53760,0.384819001
40273,536345086,640156160,996236086,0.900151968,-0.107755877,53760,0.386218846
40277,535298557,640156160,1029790262,0.898910105,-0.110308371,53760,0.386137933
40282,535297534,640155135,1029790518,0.895703018,-0.114612579,53760,0.384536654
40285,536345088,641201664,945839927,0.896942675,-0.111735545,53760,0.384202391
40289,536345087,642251264,1013078837,0.896891475,-0.112650231,53760,0.384523243
40294,536347134,643300865,996236086,0.895508528,-0.113630109,53760,0.387454659
40297,536346110,643300865,996301621,0.895824492,-0.115539618,53760,0.389324605
40302,535296510,642253312,996302132,0.896943808,-0.115901373,53760,0.386101007
40304,534247933,641204735,1013144627,0.896098018,-0.11898008,53760,0.382564932
40307,536347133,641204735,1013144627,0.896098018,-0.11898008,53760,0.382564932
40311,537394687,639107583,996301622,0.891817689,-0.120902263,53760,0.385289788
40316,535297536,639107584,979459637,0.889364064,-0.113120563,53760,0.385178983
40319,533199359,640156160,979459637,0.889364064,-0.113120563,53760,0.385178983
40324,534248958,642251267,996302131,0.890098214,-0.113430656,53760,0.371459663
40327,537395710,642251268,996302131,0.890098214,-0.113430656,53760,0.371459663
40331,537394685,642251267,979655477,0.88964349,-0.116574638,53760,0.376710266
40336,535296509,643300864,979721778,0.892095625,-0.125500157,53760,0.380270928
40339,535296511,642252287,979721778,0.892095625,-0.125500157,53760,0.380270928
40342,534246911,641203710,929259571,0.893634319,-0.123508312,53760,0.379093707
40346,536346111,640154112,946036532,0.893406153,-0.118927121,53760,0.379422426
40349,535297534,641203712,996498737,0.893183589,-0.121675014,53760,0.378261089
40353,535298557,641204740,996432947,0.889959633,-0.12534979,53760,0.379491776
40358,536346110,641203716,946167603,0.891177952,-0.124780975,53760,0.38131988
40360,535297534,641204739,963010097,0.894052088,-0.126793042,53760,0.380493581
40363,535296510,641204736,963010097,0.894052088,-0.126793042,53760,0.380493581
40368,536346110,643303933,946167346,0.890927553,-0.125289366,53760,0.378481448
40371,537394686,643302910,946167346,0.890927553,-0.125289366,53760,0.378481448
40375,539491839,642251265,946232882,0.888757229,-0.125364736,53760,0.382627368
40380,536345086,643299842,929521712,0.893078566,-0.127386302,53760,0.39231199
40383,536346110,642251266,929521712,0.893078566,-0.127386302,53760,0.39231199
40388,537395713,642251265,912547892,0.888875782,-0.123254441,53760,0.392412812
40392,534247937,643300864,912745007,0.891272426,-0.117866606,53760,0.388431758
40396,534247935,643300863,946233391,0.891925216,-0.11598891,53760,0.383929282
40400,537395710,642252287,946232882,0.886164963,-0.116858929,53760,0.387650192
40404,537395710,642252289,929521457,0.881999433,-0.117535479,53760,0.391316205
40408,536345087,642252290,896033327,0.88501811,-0.117024019,53760,0.391022295
40412,536345088,642252290,912744752,0.886859059,-0.113898091,53760,0.390885919
40416,535297534,640156160,946364463,0.885244727,-0.114097148,53760,0.38877672
40418,537395711,639107584,946364463,0.885244727,-0.114097148,53760,0.38877672
40422,536346111,640156160,896033326,0.886242211,-0.113488905,53760,0.389266789
40426,536345087,641203712,879255856,0.886561394,-0.111247897,53760,0.394618571
40430,537394686,641203713,896033326,0.88768065,-0.109821051,53760,0.393823683
40434,535298558,641204737,912875821,0.889370918,-0.112091221,53760,0.391557842
40438,534248958,642252289,912810287,0.888337553,-0.112981133,53760,0.392585009
40442,536345086,642251264,896098861,0.889736056,-0.113987736,53760,0.389879107
40445,535295487,642251262,862610477,0.893879652,-0.113708921,53760,0.388866574
40450,535297533,643298814,896033071,0.890637517,-0.114374727,53760,0.392589509
40454,537394686,642251263,896229932,0.889184117,-0.118190587,53760,0.391854465
40456,535296511,642252287,879387693,0.890611172,-0.118212469,53760,0.390907347
40460,536346111,642252289,879321902,0.891217351,-0.116241314,53760,0.3919532
40464,535296511,641203713,879453227,0.894986153,-0.115080789,53760,0.389783829
40468,536345085,642253313,896229932,0.8961972,-0.117326282,53760,0.389867276
40472,538443263,642252289,862675502,0.896697104,-0.117326848,53760,0.396688104
40476,536346110,642252289,879452716,0.896703184,-0.119840659,53760,0.39726603
40480,535296510,641203713,862676011,0.898446143,-0.120314702,53760,0.394221514
40484,535295488,640156161,845899308,0.901980639,-0.116139904,53760,0.392660707
40488,535296511,642253312,862676011,0.903751194,-0.114026174,53760,0.391136527
40492,536345087,642252288,862741547,0.904238999,-0.113093086,53760,0.392812669
40496,538444287,643299840,862741037,0.901002765,-0.113269389,53760,0.397944003
40500,536348157,644349440,896295467,0.895035326,-0.117051721,53760,0.398042947
40504,536347135,641203713,845964331,0.891671777,-0.117112771,53760,0.398754478
40508,537394688,639106560,812410412,0.891694307,-0.11212837,53760,0.402951896
40512,535295488,639107583,829253161,0.894465387,-0.10732688,53760,0.401091278
40516,534247934,642253311,879584296,0.895388603,-0.108529069,53760,0.3959786
40520,536346111,642252288,845964587,0.89348495,-0.107149042,53760,0.396823287
40524,536347136,641203712,845964587,0.888927758,-0.103976652,53760,0.39856559
40528,536347134,641202689,846095401,0.885334969,-0.105353199,53760,0.39989236
40532,537394687,641202689,812541481,0.885544181,-0.10490939,53760,0.402898967
40536,535296513,642252289,795764777,0.88865155,-0.100049503,53760,0.401487887
40538,536345089,643300864,795764777,0.88865155,-0.100049503,53760,0.401487887
40542,534247936,642252288,879782187,0.888457596,-0.095504358,4096,0.397325993
40546,534246910,640154113,879847722,0.890267015,-0.094771475,4096,0.394190133
40549,536344062,640154113,863201576,0.895231187,-0.09789212,4096,0.391132683
40552,537394687,640155136,913533743,0.894718707,-0.098092534,19456,0.394022226
40556,539492863,641204734,896821807,0.888768196,-0.097465418,19456,0.402158946
40558,537394686,642253310,896821807,0.888768196,-0.097465418,19456,0.402158946
40562,536346110,642253311,896953387,0.887012899,-0.09991508,19456,0.402774185
40565,535295487,640155137,1065383990,0.889803112,-0.100123838,15360,0.402053922
40568,536345088,639107586,1048541240,0.893752098,-0.095816091,15360,0.403853655
40572,535296510,641203714,1098937909,0.895424962,-0.097303897,15360,0.402540833
40576,536346110,643299840,1082160695,0.893910944,-0.100181058,15360,0.403746486
40580,537393664,643300864,1015052599,0.896087945,-0.097099781,15360,0.406671882
40584,536345087,641203713,1233879872,0.899360597,-0.095182352,11264,0.406495541
40588,536346110,639105537,1250656576,0.89839834,-0.097421572,11264,0.406722844
40592,535298557,639106560,1267499327,0.89514792,-0.101747125,11264,0.405210674
40596,536346110,641204737,1351912007,0.894282103,-0.103339404,57856,0.406268567
40600,539490815,641204737,1318423113,0.895394444,-0.101366021,57856,0.415895909
40604,538443263,642253313,1351977544,0.894865692,-0.100223012,57856,0.421425283
40608,535297533,642252289,1385531974,0.894135237,-0.104127608,57856,0.419198602
40612,536346111,642252289,1335135048,0.893635273,-0.103201427,57856,0.420153141
40616,536347136,641204738,1385598539,0.891984284,-0.098656669,8192,0.420892
40621,534248959,641203713,1402441033,0.88943404,-0.097034894,8192,0.418935835
40624,534248957,643300864,1402572358,0.888011694,-0.100452051,8192,0.414604664
40628,534247935,643301887,1402573643,0.887605965,-0.097246893,22528,0.41053158
40632,536343039,643300863,1386058569,0.893392742,-0.095714644,22528,0.410118848
40636,535294463,644348416,1402769993,0.89907825,-0.095353425,22528,0.408626646
40640,533200383,643299840,1503368269,0.896723211,-0.094200239,38400,0.401011676
40644,535296510,641202689,1453299019,0.900038958,-0.095896102,38400,0.399183005
40648,538443262,641201665,1503827280,0.900504768,-0.098915547,53760,0.405073047
40652,538444285,642250241,1520604239,0.89656508,-0.105759829,53760,0.410482973
40656,538442235,641203712,1487312460,0.898626089,-0.11519926,53760,0.418123633
40660,540538368,643299840,1487380055,0.902295351,-0.11228884,19456,0.43105641
40664,540539392,641202688,1537776726,0.904084504,-0.108143494,19456,0.443519384
40668,540540415,640155137,1554618965,0.903514802,-0.107163206,19456,0.455511004
40672,540540414,644350465,1554684500,0.901778996,-0.109932967,19456,0.467711598
40676,539494908,644348416,1604950100,0.892669857,-0.118785784,19456,0.476118863
40679,538448380,644349440,1604950100,0.892669857,-0.118785784,19456,0.476118863
40682,538442236,643299840,1554356051,0.8782987,-0.125681683,4096,0.483718336
40686,539489793,643300865,1437179471,0.880465865,-0.126451239,4096,0.4921
40689,539488770,641203712,1420271185,0.887564182,-0.118915915,4096,0.501406133
40692,540538369,640155137,1504353620,0.891896546,-0.111715741,19456,0.514670134
40694,541588992,642252288,1504353620,0.891896546,-0.111715741,19456,0.514670134
40698,541591036,645398016,1571657810,0.889326513,-0.116971657,19456,0.528777301
40702,541592061,644349440,1554749780,0.880761683,-0.123868562,19456,0.544271111
40705,542643711,646445568,1537841495,0.866013646,-0.126025662,19456,0.561572313
40708,543694336,646446593,1537775961,0.84429574,-0.122495607,19456,0.582428455
40712,545792511,646446593,1537906521,0.818447948,-0.121033281,19456,0.608226478
40716,546846208,646445570,1587975005,0.777921259,-0.118925333,19456,0.637177765
40720,546847230,645396994,1571459930,0.735550404,-0.121044599,19456,0.666803241
40724,546846208,645396993,1537840731,0.695646942,-0.119100757,19456,0.694664657
40727,545801728,644348417,1537840731,0.695646942,-0.119100757,19456,0.694664657
40730,546854400,644348417,1621463391,0.639503479,-0.117924057,19456,0.721779943
40734,546853376,645396992,1587909215,0.578351796,-0.113536261,19456,0.749526203
40737,547905023,643299839,1604817246,0.515172899,-0.112379588,19456,0.779307425
40740,547910141,645395967,1705216610,0.433154523,-0.11750786,19456,0.811191142
40744,548957696,645396992,1587843171,0.353304565,-0.114582919,19456,0.846058488
40748,548962815,646446592,1688373605,0.260977209,-0.113141052,19456,0.881111741
40752,548964861,645396992,1705281636,0.163293943,-0.117633678,19456,0.916637838
40756,548967934,645398017,1721796455,0.057740353,-0.120708346,19456,0.950827122
40760,548966908,646446593,1705281635,-0.044409703,-0.127774939,19456,0.984245479
40764,547926531,645398016,1754695281,-0.171404809,-0.116153337,19456,1.01573658
40768,546882048,644348417,1838907755,-0.308628082,-0.11425937,19456,1.043720841
40772,545831425,646445569,1755023210,-0.438983887,-0.108521327,19456,1.070569634
40776,546883070,649591295,1872396140,-0.581035316,-0.11070466,19456,1.09997797
40780,547933696,649591294,1821933936,-0.727819562,-0.108281888,19456,1.131621718
40784,547934716,647494143,1889238380,-0.87620008,-0.116539486,19456,1.163067222
40788,547932669,645396990,1838907502,-1.019440889,-0.122670755,19456,1.195862532
40792,548982270,644348415,1855487601,-1.166088581,-0.124947831,19456,1.230231762
40796,548985345,649590271,1855225461,-1.319560885,-0.118098654,19456,1.263677239
40800,547938816,647493119,1922398836,-1.477612615,-0.114645876,19456,1.29490912
40804,546894333,646443517,2006152565,-1.648379922,-0.121133462,19456,1.323550224
40808,546892284,646443515,1972795507,-1.816015363,-0.131539792,19456,1.352528334
40812,546889211,644347385,1939241330,-1.976500154,-0.142278135,19456,1.381517768
40814,547941883,642250234,1939241330,-1.976500154,-0.142278135,19456,1.381517768
40818,548992510,642250237,2056155516,-2.155628204,-0.150341734,19456,1.413594007
40822,548984319,640154111,1872067445,-2.310799837,-0.148399398,19456,1.447326899
40825,548984322,642249215,1905490295,-2.458045244,-0.142591193,19456,1.480819106
40828,548983298,642249213,1922136186,-2.606280565,-0.133971393,19456,1.514219165
40832,548982271,642249212,1989440630,-2.752675772,-0.134685755,19456,1.547151804
40836,547932665,635958780,2039968115,-2.896570444,-0.15139477,19456,1.577979445
40840,546884090,631764476,2006152311,-3.038237095,-0.164250702,19456,1.60765326
40844,547930624,634911228,1922005115,-3.174084187,-0.158438087,19456,1.637794018
40848,545826306,638057979,1888844661,-3.29089427,-0.148293585,19456,1.664079785
40852,544779776,640155131,2006021240,-3.412630558,-0.144124106,19456,1.687108874
40856,543734265,635962871,2174054776,-3.54816246,-0.156723022,17152,1.706458211
40860,544778753,638060022,1955691645,-3.672919273,-0.147600323,17152,1.729652762
40864,545816068,638059000,1838777206,-3.763522863,-0.129012108,17152,1.754710793
40868,545825287,639106554,2005431426,-3.87912941,-0.103427567,19456,1.779634118
40872,543727103,639105531,2056548725,-3.988489866,-0.101034194,19456,1.801173806
40876,542674428,638055931,2023060595,-4.08775425,-0.109773301,19456,1.818531632
40880,542672376,637008378,2073457267,-4.18192625,-0.128781304,19456,1.836437464
40884,542671353,639105530,2039706741,-4.27269125,-0.145177349,19456,1.852669477
40888,540568057,641201657,1989638001,-4.347445011,-0.163109243,19456,1.865499139
40890,542664188,642250232,1989638001,-4.347445011,-0.163109243,19456,1.865499139
40894,542661124,642251257,1955822971,-4.416126728,-0.160212293,17152,1.884094834
40897,542656006,643300858,1888780666,-4.470150471,-0.140686348,17152,1.901507616
40900,541600262,643300859,1855685747,-4.498931408,-0.119752742,17152,1.917472959
40902,541597188,642252282,1855685747,-4.498931408,-0.119752742,17152,1.917472959
40906,541607430,635960828,1939373941,-4.526087761,-0.103251956,17152,1.931548476
40910,539514369,637009403,2089514626,-4.590771675,-0.083567277,17152,1.944119334
40913,539500028,638057979,1973452396,-4.623718739,-0.086865269,17152,1.953339338
40916,538448377,635960827,1956740971,-4.633749485,-0.102293499,17152,1.960923076
40918,537404917,635959804,1956740971,-4.633749485,-0.102293499,17152,1.960923076
40922,536363506,638056955,2258071411,-4.676998138,-0.137800023,17152,1.962519407
40925,537402872,641202685,2006548081,-4.706498146,-0.161789224,17152,1.964650154
40928,538443260,642250237,1839105901,-4.702869892,-0.169562459,17152,1.971055508
40930,538442236,642251261,1839105901,-4.702869892,-0.169562459,17152,1.971055508
40934,538437119,643299836,1922859375,-4.694655418,-0.173981518,17152,1.978140354
40937,537381366,643298811,1873249636,-4.658183575,-0.189533487,17152,1.982393622
40940,537386484,641201658,2040691561,-4.635166645,-0.220097378,17152,1.985096812
40942,537389559,641202682,2040691561,-4.635166645,-0.220097378,17152,1.985096812
40946,538428931,640156157,1838712691,-4.612365723,-0.217147946,17152,1.991141438
40949,537375239,639108605,1688309866,-4.55811739,-0.196455002,17152,1.996404886
40952,536323593,641205757,1704956011,-4.491606712,-0.164577022,17152,1.997786999
40956,533174784,639107580,1873250400,-4.418603897,-0.160411447,17152,1.990157962
40959,532132352,637010428,1873250400,-4.418603897,-0.160411447,17152,1.990157962
40962,531081728,638059004,1872595305,-4.359554768,-0.154111132,17152,1.978315353
40966,531072513,635961848,1806077792,-4.284971237,-0.153852403,17152,1.964104056
40969,531072516,635961848,1688376676,-4.200317383,-0.13825801,17152,1.951613903
40972,530024959,638057977,1839631456,-4.118071079,-0.138721079,17152,1.936864018
40974,528975354,640154105,1839631456,-4.118071079,-0.138721079,17152,1.936864018
40978,525832691,642249210,1923779162,-4.036153316,-0.164607882,17152,1.914349437
40982,525828592,644347386,1991018326,-3.95528388,-0.212496772,17152,1.886062145
40985,527917565,642251259,1672125017,-3.846680164,-0.232219666,17152,1.861598372
40988,528972295,641203707,1654364521,-3.751057625,-0.208543524,17152,1.842332721
40991,528978441,642253308,1654364521,-3.751057625,-0.208543524,17152,1.842332721
40994,530022920,644350461,1822463082,-3.674999237,-0.178901255,57600,1.825318933
40997,530015745,642253309,1706203736,-3.566693306,-0.166473195,57600,1.809330106
41000,528977407,642252285,1923518307,-3.483931541,-0.165208712,57600,1.789464712
41003,527932924,642252285,1923518307,-3.483931541,-0.165208712,57600,1.789464712
41006,527930876,644349436,1906805596,-3.412959576,-0.179385751,17152,1.768487811
41009,528980481,642251259,1738839392,-3.33753705,-0.178658679,17152,1.750914812
41014,527933954,646446586,1822527586,-3.275388479,-0.173664883,17152,1.731379628
41018,527937033,646445560,1738775397,-3.208913565,-0.150575981,57600,1.710105538
41021,528988673,645396984,1973783652,-3.163212061,-0.146804273,57600,1.69007194
41024,527945211,642251258,2007337826,-3.129328489,-0.159341946,57600,1.667701483
41027,526895609,640154107,2007337826,-3.129328489,-0.159341946,57600,1.667701483
41030,526896630,637009403,1923648345,-3.08714819,-0.184904888,17152,1.642169714
41033,526903802,638057980,1990232162,-3.062372208,-0.208395332,17152,1.617590785
41036,527954432,638059006,1888980331,-3.05093646,-0.203717828,17152,1.594831109
41039,527956478,641205758,1888980331,-3.05093646,-0.203717828,17152,1.594831109
41042,526906879,643302909,1973324131,-3.043569565,-0.205289945,17152,1.571216345
41045,525857280,639108603,1906151011,-3.032026291,-0.20032461,17152,1.543361545
41048,523764222,637011450,2090764902,-3.034564734,-0.203163072,57600,1.511495829
41051,523762175,641204730,2090764902,-3.034564734,-0.203163072,57600,1.511495829
41054,522705411,642252281,1872861027,-3.016759157,-0.19448261,57600,1.479093313
41058,522718723,639106553,1990103397,-3.002332211,-0.184925094,57600,1.4427706
41060,522725890,641202682,2156823150,-3.033298969,-0.177236453,17152,1.405634403
41064,521674235,639106554,2107475551,-3.056234837,-0.191131309,17152,1.366312027
41067,522716665,635960827,2107475551,-3.056234837,-0.191131309,17152,1.366312027
41070,523769341,637009403,2074119522,-3.064303637,-0.206694439,57600,1.330101728
41073,523770370,639107579,2073529452,-3.082774639,-0.206706256,57600,1.297388911
41076,524816910,640156156,1855035507,-3.095763445,-0.163493261,57600,1.26781249
