Timestamp,compactImu.a_xyz,compactImu.l_xyz,motorCompact.pwms,stabilizer.pitch,stabilizer.roll,stabilizer.thrust,stabilizer.yaw
224661,534348186,667415036,3016482766,-3.751922607,-5.914316654,8192,-127.5563278
224671,533335440,660076028,2881807320,-4.393886566,-6.501553059,8192,-127.6407242
224681,534415748,660078085,3418082776,-5.622820854,-7.481536388,8192,-127.8112793
224691,537585009,663227900,3418275804,-6.587545395,-8.221473694,36352,-127.9436111
224701,536555872,655890944,4004817104,-8.206168175,-9.48491478,61440,-128.1967773
224711,538649945,666370560,3686902738,-9.304859161,-10.39716244,61440,-128.3815918
224721,541783383,661123584,4005799873,-10.88751221,-11.80741405,61440,-128.665329
224731,542811486,667424255,4075460009,-11.84165859,-12.72989464,61440,-128.8406525
224741,543834475,666371587,4141653675,-13.07889652,-14.01762009,61440,-129.083725
224751,544856449,655883780,3302409148,-13.75218582,-14.76665115,61440,-129.2161713
224761,545881498,659031546,3486695865,-14.57723808,-15.6844635,61440,-129.3728333
224771,545865138,660082176,3134377664,-15.01901531,-16.1386795,61440,-129.442276
224781,546901445,660084225,3117404609,-15.55711842,-16.63279915,61440,-129.5111389
224791,546896341,654836228,2882197443,-15.8729763,-16.86508942,21248,-129.5505066
224801,547946974,656939514,3016020678,-16.34369469,-17.10083008,21248,-129.5956726
224811,546903521,663224833,2982466249,-16.67851448,-17.22811508,21248,-129.6365967
224821,549006816,654835201,3183594184,-17.21673775,-17.42025566,21248,-129.7084351
224831,549010908,657983998,3167012809,-17.60595703,-17.56878662,21248,-129.7611237
224841,547967451,655883779,3502620358,-18.21554565,-17.81141853,61440,-129.8547058
224851,549017048,657982970,3435775696,-18.64525223,-17.99450493,8192,-129.9277496
224861,551108056,659029511,3603742410,-19.25139046,-18.26957321,8192,-130.0104828
224871,552151515,654838266,3402352336,-19.6291523,-18.43702126,8192,-130.0447388
224881,550048222,661129728,3603546061,-20.15858269,-18.65946007,8192,-130.0995331
224891,551085544,656931332,3637098705,-20.45127106,-18.75886917,8192,-130.1149445
224901,550022638,655887866,3838487760,-20.80856514,-18.83797646,8192,-130.1068726
224911,553143805,662176255,4056719311,-20.94744301,-18.80484009,8192,-130.0604248
224921,552068629,659031559,4207578075,-20.9382267,-18.57219887,8192,-129.9082031
224931,550982194,660082177,4291530193,-20.7554493,-18.24269676,8192,-129.7478638
224941,550938200,659028479,3486952156,-20.17546844,-17.44305038,8192,-129.4142914
224951,549845629,655882747,3285174736,-19.54560471,-16.66922188,8192,-129.1204529
224961,547716762,656936444,2363220960,-18.31899071,-15.23468781,8192,-128.6296844
224971,546648749,657981950,2580476115,-17.34362793,-14.13598633,8192,-128.2975159
224981,543497905,657978882,1927020255,-15.79279613,-12.44817448,8192,-127.8370667
224991,541408941,652735993,2176970697,-14.76564789,-11.35322952,5632,-127.5810318
225001,538280603,656933376,1622594484,-13.32181168,-9.837693214,34816,-127.2709503
225011,538302088,655881717,2125316783,-12.47343636,-8.954501152,34816,-127.1124649
225021,536231536,645389823,0,-11.39504814,-7.841510296,0,-126.9429626
225031,537301593,633860603,0,-10.80046177,-7.238473892,0,-126.8603058
225041,538366538,624425465,0,-10.06720448,-6.484606743,0,-126.7533646
225051,540474942,617081335,0,-9.669608116,-6.066892624,0,-126.6880798
225061,541532723,609742327,0,-9.15494442,-5.551170349,0,-126.5911026
225071,542589484,602402300,0,-8.864347458,-5.264268875,0,-126.5304108
225081,543644197,596110839,0,-8.481302261,-4.882522106,0,-126.4384079
225091,544696864,581433851,0,-8.2620821,-4.66901207,0,-126.3771362
225101,544700956,580384251,0,-7.9579916,-4.380015373,0,-126.2823257
225111,544704026,578289144,0,-7.781935215,-4.205360889,0,-126.2195435
225121,545754648,580384252,0,-7.546548367,-3.952483177,0,-126.1275711
225131,545756693,574092795,0,-7.397352695,-3.803632021,0,-126.0640259
225141,545758739,568849915,0,-7.190881729,-3.610418081,0,-125.966362
225151,546807315,566752763,0,-7.064386368,-3.483914375,0,-125.9015427
225161,546808338,563607038,0,-6.859766483,-3.309739351,0,-125.8049469
225171,546808337,561509885,0,-6.723017693,-3.198089361,0,-125.7413101
225181,547855889,561509886,0,-6.515618324,-3.03354454,0,-125.6383514
225191,547855889,559412732,0,-6.381030083,-2.925966978,0,-125.5666046
225201,546806290,560462330,0,-6.199203491,-2.761375904,0,-125.4611206
225211,547853841,558364155,0,-6.075844288,-2.650554895,0,-125.3921051
225221,548899346,558364156,0,-5.873700142,-2.487040997,0,-125.2846069
225231,547850770,557315580,0,-5.721041679,-2.384535551,0,-125.209938
225241,548895252,556268027,0,-5.491957188,-2.211560488,0,-125.1026001
225251,548894229,556268028,2493225121,-5.326822281,-2.085946321,28928,-125.0294724
225261,548892181,556267004,2494341543,-5.060169697,-1.902876973,19200,-124.9207535
225271,547840536,563608059,2510726822,-4.867912292,-1.764801502,19200,-124.8570862
225281,544691739,574092795,2494410413,-4.540541649,-1.535809636,34816,-124.7578583
225291,544688668,582481403,2847851196,-4.300114155,-1.37035358,55552,-124.7004013
225301,542589470,595064314,2764098242,-3.918689489,-1.109207153,30720,-124.6312943
225311,540489248,597158392,2747453371,-3.654050827,-0.933172166,30720,-124.5964279
225321,540488226,604500477,2646922172,-3.231149197,-0.653429925,30720,-124.5548859
225331,538390053,617085431,2680149181,-2.945406675,-0.445777893,30720,-124.5331116
225341,538393123,626523643,2613041342,-2.533194304,-0.134645104,30720,-124.5125961
225351,536299039,632813051,2865224388,-2.270301819,0.050359573,21248,-124.5103912
225361,536305179,640150009,3033456331,-1.91532433,0.299657136,8192,-124.5032959
225371,535263767,644346359,3050102220,-1.721967459,0.437669963,8192,-124.5054398
225381,534220307,648538613,3083722186,-1.482572794,0.615093887,8192,-124.5141525
225391,535274001,656927223,3049971150,-1.353999972,0.705214798,8192,-124.5176773
225401,536323596,665317876,3067009995,-1.178668022,0.821520567,8192,-124.5225143
225411,535278091,661122551,3100629961,-1.077917933,0.887363911,8192,-124.5293427
225421,536325641,662167035,3067141065,-0.919382572,0.967909515,8192,-124.5276718
225431,537374218,673710585,2983190986,-0.818829477,1.013373256,8192,-124.528801
225441,536327687,673702386,3117406666,-0.673006952,1.09130609,8192,-124.5261765
225451,537374216,669509117,3000164295,-0.577406347,1.128293157,8192,-124.5251389
225461,536327690,678948336,2966282956,-0.437375367,1.198892117,8192,-124.5215912
225471,537374215,669513205,3050691780,-0.350088239,1.250086069,8192,-124.5181198
225481,537378310,676850169,3067206601,-0.220364571,1.304535866,8192,-124.5129471
225491,539473419,679998963,2949767626,-0.140338734,1.349376559,8192,-124.5103531
225501,537380359,673702394,2882397645,-0.030613767,1.405014157,8192,-124.4977493
225511,536334852,672650737,3067075531,0.027294077,1.431962729,8192,-124.4905548
225521,539480581,673705470,3000163786,0.104937114,1.467755437,8192,-124.4757156
225531,535293441,675804659,3117275596,0.135121852,1.477672338,8192,-124.467926
225541,535295490,668464638,3117275595,0.142088294,1.499785662,8192,-124.4743652
225551,538435079,676850164,2865620686,0.158719271,1.511210442,8192,-124.4733963
225561,538436100,667412982,3000032971,0.190686405,1.550707936,8192,-124.4586792
225571,539484677,673704440,2966413260,0.214625314,1.571116447,8192,-124.4421005
225581,538438144,671604213,3117602506,0.247866914,1.592264771,8192,-124.417923
225591,539487749,669515264,2882397390,0.253577977,1.591745496,8192,-124.4068451
225601,540535300,679998960,2798113733,0.276289254,1.637881041,46336,-124.3773956
225611,538443260,677897717,2814495677,0.267580271,1.628023863,30720,-124.3610611
225621,539491834,668463608,2444146089,0.246389329,1.579374909,34816,-124.3341599
225631,538445305,663217666,2528031399,0.2352667,1.539455652,34816,-124.3144226
225641,539493878,665316859,0,0.220430419,1.454888225,0,-124.290947
225651,539494900,660069876,0,0.193813428,1.394189835,0,-124.2713089
225661,540545525,644346365,0,0.145221964,1.290004611,0,-124.2369995
225671,541588983,625469945,0,0.120906442,1.230195284,0,-124.2097168
225681,542638585,620228088,0,0.088891201,1.151043653,0,-124.1601181
225691,542636541,611841530,0,0.083015501,1.1210289,0,-124.1232529
225701,544729600,604501498,0,0.077320658,1.094173193,0,-124.0634003
225711,543678978,605550074,0,0.095659599,1.094991207,0,-124.0220032
225721,543672836,589821431,0,0.149654239,1.117128968,0,-123.9597702
225731,544719369,589820413,0,0.203480378,1.145563126,0,-123.917305
225741,545762826,584578555,0,0.341817349,1.211933613,0,-123.8431244
225751,545758735,579337720,0,0.432729512,1.286182761,0,-123.797554
225761,545755667,575141373,0,0.615943313,1.427741408,0,-123.7277222
225771,545748502,574092795,0,0.76816988,1.539425015,0,-123.6821899
225781,545746458,570947065,0,1.015169621,1.729664564,0,-123.6128464
225791,545740316,568849917,0,1.209301472,1.874263763,0,-123.5680923
225801,545735200,566753787,0,1.544434428,2.120110512,0,-123.5002975
225811,545731107,567802363,0,1.793549657,2.301065207,0,-123.4565964
225821,545723942,566753787,0,2.204476833,2.599523067,0,-123.3952637
225831,546767401,564657659,1571410066,2.511603117,2.823157549,28928,-123.3561935
225841,543620648,569899515,1538119571,3.000615358,3.158457518,3584,-123.3109741
225851,541531682,577237498,1823462297,3.314455509,3.352408171,19200,-123.29142
225861,540495385,584578554,1941362588,3.697479963,3.581161261,34816,-123.2731476
225871,538418697,591919610,2344012710,3.860104561,3.664821625,49920,-123.2643661
225881,538442232,604499447,2864826036,3.930639505,3.660761833,55552,-123.2518234
225891,537415145,609743352,3015753397,3.842200756,3.558712721,55552,-123.2362213
225901,537432539,617084409,3200366266,3.562389851,3.292686224,30720,-123.2088699
225911,538490325,624424441,3200432057,3.301808357,3.051759481,30720,-123.1825943
225921,539537877,630714874,3217535672,2.882612705,2.678147078,30720,-123.1381454
225931,539531742,638055930,3032662458,2.619894981,2.447222471,30720,-123.1090088
225941,541616615,644347385,2915549881,2.309995174,2.183542252,30720,-123.0608673
225951,541603315,649590268,2747715768,2.177414656,2.068119526,30720,-123.027359
225961,541588993,651688445,2563299257,2.10194397,2.013313055,30720,-122.9796753
225971,542627335,657978870,2462703541,2.107771635,2.030501127,30720,-122.9501495
225981,540528139,663223799,2529745592,2.171780348,2.115108967,30720,-122.9076233
225991,543671820,666365428,2529745592,2.226118326,2.178893328,30720,-122.8793411
226001,540534277,665320956,2647053242,2.285303831,2.245231152,30720,-122.8325195
226011,540541440,661120507,2848442807,2.293806076,2.262372494,30720,-122.8073196
226021,540550650,660072950,2781137596,2.21674943,2.217872143,30720,-122.7674026
226031,541603317,669517304,2831534522,2.129067183,2.1616714,30720,-122.736969
226041,540558833,666367478,2915549627,1.967118502,2.053586006,30720,-122.6880569
226051,540559853,672658932,2915550392,1.840417027,1.950391531,30720,-122.6602402
226061,542654961,669512184,2798176187,1.657026768,1.797097802,30720,-122.6124649
226071,541603312,668459510,2815084726,1.553494573,1.701722264,30720,-122.5765533
226081,541599221,670567923,2731002813,1.424636126,1.577458262,30720,-122.5258331
226091,541597176,666365436,2731134392,1.352770329,1.527053595,30720,-122.4979706
226101,541594107,665315833,2714422201,1.287276149,1.474110246,30720,-122.4501114
226111,542641661,667415032,2714357177,1.246130109,1.453056097,30720,-122.4189529
226121,542642684,671606259,2714421948,1.184498787,1.421871543,30720,-122.3656616
226131,541598204,668462583,2781399482,1.120619893,1.393286347,30720,-122.3334274
226141,541600251,664271353,2764424896,1.025434494,1.35085547,30720,-122.2853546
226151,541600248,667418097,2781530296,0.943937063,1.314964175,30720,-122.2569122
226161,543698427,664271354,2714224832,0.82265985,1.258452415,30720,-122.2035828
226171,541602293,669511163,2848572346,0.749847591,1.212071896,30720,-122.1671906
226181,540555765,663218682,2831795132,0.609150827,1.114450336,30720,-122.1272202
226191,541600247,670563828,2730937277,0.523945212,1.050876141,30720,-122.0976944
226201,541599223,663223802,2781595067,0.411965251,0.986652315,30720,-122.0529633
226211,540550649,661120510,2781333436,0.347328991,0.94220221,30720,-122.0239105
226221,540549625,671616502,2764621502,0.254383773,0.87820822,30720,-121.9867554
226231,540548601,665317878,2848703417,0.195610732,0.851554394,30720,-121.9608765
226241,539501049,663219710,2815018173,0.107478857,0.793971896,30720,-121.9245148
226251,539501050,666367483,2831664316,0.058081798,0.760173082,30720,-121.9026184
226261,538453497,670563825,2865086911,-0.035880625,0.706020713,30720,-121.8724899
226271,539504123,662172159,2848441277,-0.108447321,0.678856969,30720,-121.8521805
226281,539504123,664269305,2781069502,-0.2125507,0.636209011,55552,-121.8216934
226291,538455546,662176247,2663299505,-0.294585943,0.612633586,0,-121.8066635
226301,538454524,662171127,2595862449,-0.405622154,0.585043371,24832,-121.7825165
226311,539504124,656933375,2562241709,-0.479289621,0.574828565,49920,-121.7665024
226321,538455547,664268279,2562110383,-0.590393424,0.536607862,49920,-121.7432327
226331,537407993,662171129,2578689964,-0.672469676,0.499342114,9216,-121.7312927
226341,538455545,656927232,2578886058,-0.782335937,0.447617471,9216,-121.7142563
226351,537405943,651686394,2561913004,-0.846006989,0.39686355,9216,-121.7009354
226361,536357368,654836219,2561847468,-0.951953948,0.332532674,9216,-121.6907883
226371,537404921,654835187,2528226473,-1.015708447,0.298871905,34816,-121.6826324
226381,538450426,661127673,2461183913,-1.103529215,0.243704408,34816,-121.6720276
226391,536357368,649587200,2511185057,-1.156609654,0.214322299,19200,-121.6647339
226401,538449401,650636793,2326504091,-1.224950552,0.155526236,3584,-121.653862
226411,536354299,648542713,2343019421,-1.275480866,0.128045619,3584,-121.6476364
226421,536352252,645400054,2342559136,-1.343731642,0.099818893,28928,-121.6427078
226431,536351229,647492087,2325782175,-1.389742494,0.088214919,28928,-121.6392441
226441,535300603,650641912,2392890270,-1.435009241,0.060477376,28928,-121.6392975
226451,536343036,645402107,2910878655,-1.447667718,0.043682072,28928,-121.6434326
226461,536337915,638057981,2510132386,-1.410650373,0.02354099,28928,-121.6424637
226471,536326653,643297788,2558105036,-1.33873558,0.001186554,3584,-121.6392975
226481,537359869,647492090,1854062277,-1.132123828,-0.02358198,3584,-121.6357727
226491,536300028,644347387,2225253027,-0.918896616,-0.036336929,3584,-121.6328049
226501,536284661,635959807,2125048470,-0.486106247,-0.087209672,28928,-121.6330948
226511,535230958,638056956,2158012831,-0.137029171,-0.159673125,28928,-121.6326675
226521,535222752,644345338,2124524446,0.430130988,-0.364060223,28928,-121.6360168
226531,535218643,643297787,2207557291,0.837843359,-0.570443869,28928,-121.6367493
226541,533115329,635960830,2275386526,1.487554908,-1.012526989,28928,-121.6442413
226551,535206316,638054910,0,1.957514405,-1.416088104,0,-121.6452484
226561,535198105,641201658,2678101140,2.724334717,-2.194422483,28928,-121.6305847
226571,535186826,632815097,2543754645,3.268816948,-2.809105158,28928,-121.6132889
226581,536223106,628619770,0,4.191838264,-3.818323612,0,-121.5590057
226591,537257342,626523643,0,4.881796837,-4.530441284,0,-121.5034103
226601,538293628,621280764,0,6.011204243,-5.613741398,0,-121.3857346
226611,538282365,611843579,2361894511,6.833343029,-6.339389801,28928,-121.2820282
226621,538277250,610795003,0,8.11542511,-7.414866447,0,-121.1024704
226631,539325834,605552122,0,8.979661942,-8.094874382,0,-120.9627457
226641,540370320,604503545,0,10.27281666,-9.05612278,0,-120.7281418
226651,540368280,596113915,0,11.14703083,-9.668008804,0,-120.5491867
226661,541411742,584580604,0,12.47591877,-10.52829266,0,-120.2621689
226671,542456228,582483453,0,13.38078594,-11.06740284,0,-120.0516434
226681,542451113,589823484,0,14.77754784,-11.84944153,0,-119.7014923
226691,543492528,590871035,0,15.72612858,-12.34480572,0,-119.4472504
226701,544534966,585627132,0,17.19618416,-13.05161095,0,-119.0238037
226711,544527804,581432828,0,18.20394897,-13.49956036,0,-118.7210007
226721,545569218,579338748,0,19.75503349,-14.14307976,0,-118.2304382
226731,546610631,574096894,0,20.8299675,-14.55163574,0,-117.8750458
226741,546601421,571996670,0,22.49386978,-15.1400919,0,-117.3018417
226751,547643859,569899517,0,23.62982178,-15.52239227,0,-116.8916855
226761,547633626,567803389,0,25.38524246,-16.07548714,0,-116.2307739
226771,547626465,565705213,0,26.58755684,-16.43206024,0,-115.7541656
226781,549715431,565705213,0,28.4480629,-16.94902039,0,-114.9929047
226791,549707247,562560509,0,29.72311401,-17.28256798,0,-114.4462433
226801,551796215,560462334,0,31.69410515,-17.76343536,0,-113.5682068
226811,551785983,562560508,0,33.03740311,-18.0752964,0,-112.9440536
226821,552824327,559414782,0,35.12290192,-18.53587532,0,-111.9284515
226831,552813071,556269055,0,36.56622314,-18.85489845,0,-111.2006226
226841,553847317,559413758,0,38.81405258,-19.36307907,0,-110.0127411
226851,554883616,559414782,0,40.36299515,-19.72390938,0,-109.1447372
226861,554873392,558366206,0,42.76918411,-20.23347855,0,-107.7408981
226871,554867268,558366206,0,44.40874863,-20.55012894,0,-106.7376404
226881,554862173,560464383,1056936059,46.9011116,-20.93667221,3584,-105.139183
226891,549622393,564658687,1593101152,48.57049179,-21.12018776,44032,-104.0279388
226901,543345303,568852990,771730076,51.00814438,-21.13319969,59648,-102.4099884
226911,534986419,577240575,1492379265,52.53990173,-20.95251083,49920,-101.4125366
226921,522442437,587726332,1140842165,54.60179901,-20.28955078,30720,-100.1786041
226931,517255886,590871037,1643969686,55.75928879,-19.59484673,30720,-99.58654785
226941,510000850,596114940,1408630693,56.9484024,-18.11151314,30720,-99.18099976
226951,501719760,608695807,1643446167,57.29301071,-16.80438805,30720,-99.28377533
226961,495568598,617085439,1706360723,56.79275513,-14.28671455,30720,-100.1065292
226971,486278866,623376896,1574764443,55.73541641,-12.29878998,30720,-101.0151367
226981,484333252,633862656,3410755525,52.90206528,-9.204655647,30720,-102.6549835
226991,491780781,646443524,3530732791,50.22151566,-7.284052372,30720,-103.7229691
227001,501217939,651687425,4281778933,45.08055878,-4.940086365,30720,-105.0210419
227011,513800812,647495173,4117401343,41.12016296,-3.771840334,30720,-105.6464615
227021,524286538,650640902,4284390133,34.54456711,-2.58139801,30720,-106.2844238
227031,532675111,660078082,4286544373,29.90449715,-2.101387739,30720,-106.558815
227041,535820812,667423239,4286348523,22.87591934,-1.732318997,30720,-106.8456116
227051,537917941,665317901,4287327722,18.27986526,-1.665954709,30720,-106.990448
227061,536869343,670561799,4287523547,11.69293976,-1.784111261,30720,-107.1781845
227071,535820755,670564877,4287784672,7.514312744,-1.972601652,30720,-107.3204956
227081,534772189,670562829,4286740193,1.672828197,-2.28258872,30720,-107.5534668
227091,536869371,670559751,4286022137,-1.915553212,-2.391319752,30720,-107.70858
227101,541063710,669512200,4100297727,-6.782438755,-2.288372993,30720,-107.8954391
227111,546264643,668464650,3747323391,-9.619987488,-2.040133238,30720,-107.9734955
227121,551422557,666366475,3511854847,-13.16119862,-1.363168955,30720,-107.9804459
227131,557623923,664268298,3562580991,-15.03656673,-0.757929325,46336,-107.9167557
227141,561718921,664268297,3226779647,-17.05173302,0.353642136,36352,-107.7353058
227151,564771478,663215631,3243952895,-17.88580704,1.208725333,8192,-107.5758286
227161,565729943,655871500,2725501439,-18.34259033,2.541802406,8192,-107.3234177
227171,565633677,654825985,2258305023,-18.15049362,3.390350103,8192,-107.1724243
227181,560311927,660075010,1823997937,-17.13335991,4.521538734,8192,-107.0152893
227191,553947734,656927241,1960181704,-16.02200317,5.093325138,8192,-106.9940948
227201,547616307,663218686,1877802918,-13.93037128,5.642469883,8192,-107.0724182
227211,540258831,661125630,2230452131,-12.37068272,5.786891937,8192,-107.1927185
227221,538162669,660076032,2399010695,-10.0255146,5.714184761,8192,-107.4100571
227231,536094154,664267262,2801792656,-8.526564598,5.473392963,8192,-107.5524292
227241,541367726,666369533,2952786554,-6.543435574,4.866114616,8192,-107.7159119
227251,548756892,668466685,3237795481,-5.458775043,4.337339878,8192,-107.755394
227261,557191569,674756090,3556751517,-4.185366154,3.446689844,8192,-107.7057114
227271,562480527,674757116,3622810800,-3.621811628,2.812853098,8192,-107.604187
227281,569855382,666370560,3623068094,-3.076440334,1.894289732,8192,-107.3892441
227291,573022635,673713653,3537744587,-2.875487804,1.360738635,8192,-107.2026825
227301,577239503,678951426,3251875306,-2.773048639,0.807586193,8192,-106.8960724
227311,580391418,682096131,3049309935,-2.761399508,0.67591846,8192,-106.6647263
227321,584588830,678949383,2596391167,-2.800435781,0.798820019,8192,-106.2925568
227331,588783161,678951426,2662520063,-2.811859369,1.067658186,8192,-106.0163803
227341,595072585,680004102,2193478143,-2.851570845,1.642005682,8192,-105.5679626
227351,599267916,682097155,2528563967,-2.855711937,2.088927984,8192,-105.2377625
227361,603451973,677901827,2077280511,-2.832905531,2.729843855,8192,-104.7078552
227371,604502580,672660996,2563295231,-2.790865898,3.087281227,8192,-104.3412933
227381,607645213,677903866,2330112255,-2.711880922,3.454833031,8192,-103.7837982
227391,606599687,676855291,2698622970,-2.681919336,3.568616152,8192,-103.4029083
227401,605553134,675804669,2633276415,-2.635906935,3.544979572,8192,-102.8411865
227411,605544922,677900798,2784145125,-2.602673054,3.388434172,8192,-102.4712601
227421,603440585,676852222,2667550186,-2.478044987,3.012764454,8192,-101.9223862
227431,601332155,676853246,2868881112,-2.34304738,2.662157774,8192,-101.5740356
227441,601318840,675805694,2516556504,-2.05538702,2.086682558,8192,-101.050621
227451,601306547,677901822,2684333256,-1.797395706,1.674243808,8192,-100.7114944
227461,598151608,677901822,2382340559,-1.32328248,1.061303139,8192,-100.2062759
227471,600241603,677900798,2382346955,-0.966273129,0.683510661,8192,-99.87521362
227481,598140365,678955515,2063577041,-0.390925109,0.223687232,8192,-99.37064362
227491,597095897,678950402,2298461135,-0.014535224,-0.020374352,8192,-99.04062653
227501,598153697,676852227,2063575778,0.520419538,-0.312229425,8192,-98.54064941
227511,596070888,674760188,2332014042,0.79761982,-0.466943413,8192,-98.21323395
227521,595040752,675803649,2164237044,1.074618101,-0.627126455,8192,-97.72712708
227531,594006518,674758145,2365566955,1.163197756,-0.7109676,8192,-97.41029358
227541,591924732,676856316,2281675518,1.1808424,-0.760423124,8192,-96.95115662
227551,590887425,673708541,2449254646,1.111062407,-0.762958229,8192,-96.6574707
227561,588801537,675806719,2382337279,0.919144928,-0.746949792,8192,-96.23152161
227571,586709508,675805696,2533007866,0.755848885,-0.725076914,8192,-95.95056152
227581,582518277,672658943,2382337791,0.465370715,-0.682991624,8192,-95.56323242
227591,579372554,675803650,2448730111,0.271358669,-0.64385128,8192,-95.32317352
227601,576222734,675803649,2281545727,7.89E-05,-0.537189484,8192,-94.99341583
227611,572027409,673706495,2448795645,-0.165517405,-0.444115013,8192,-94.79161072
227621,568882706,672665087,2348327167,-0.416747898,-0.280186862,8192,-94.51862335
227631,567834133,675810816,2415110911,-0.591474533,-0.145991072,8192,-94.34494019
227641,566784537,673710592,2297668351,-0.833568394,0.069783889,8192,-94.09246063
227651,566782495,672658944,2330832127,-0.985256076,0.240058169,8192,-93.92219543
227661,563640866,673708545,2229970431,-1.222056866,0.520999551,8192,-93.68376923
227671,561550885,676852227,2346757119,-1.415877581,0.721643031,8192,-93.53938293
227681,559458853,678950401,2346754559,-1.742575526,1.039872766,8192,-93.33795166
227691,555264546,675806718,1723126527,-1.973004103,1.245418191,8192,-93.21810913
227701,554214939,671613438,1841152767,-2.318744421,1.523044467,8192,-93.05949402
227711,554215950,670564863,2362878975,-2.543656111,1.662394404,8192,-92.95523834
227721,552120830,669516282,2531301887,-2.900485277,1.727824569,8192,-92.80415344
227731,552116720,665320954,2565250815,-3.138619423,1.702592731,8192,-92.7109375
227741,547918306,665317886,2582288383,-3.465380669,1.517897487,36352,-92.58995056
227751,546860504,667416060,2532023039,-3.637253284,1.3218472,61440,-92.52883911
227761,541608400,666369531,2549127419,-3.8242805,0.962181389,61440,-92.4536972
227771,539505100,666368509,2565839864,-3.901603699,0.685932875,61440,-92.42347717
227781,535299531,673706494,2515968493,-3.95483613,0.245627791,61440,-92.4181366
227791,532144587,677901821,2482348008,-3.929334164,-0.03753984,21248,-92.42893982
227801,528992720,675805692,2280041452,-3.827906847,-0.464820623,46336,-92.47322845
227811,526890448,670562813,2027990506,-3.735326529,-0.724466741,30720,-92.51861572
227821,524797390,666366466,2127998702,-3.581303358,-1.125156999,30720,-92.60432434
227831,523751874,664268290,2127932402,-3.490880251,-1.438998818,30720,-92.6681366
227841,522711472,662173182,2127147511,-3.405457258,-2.027155399,30720,-92.76948547
227851,520618394,659026430,2396952801,-3.389308214,-2.535313129,55552,-92.84973907
227861,519572872,659028479,2665910481,-3.394812822,-3.468126535,55552,-92.97832489
227871,519574906,661129724,2649262806,-3.405769825,-4.181828976,55552,-93.07028961
227881,518525306,663224829,2783873736,-3.437914371,-5.286504745,55552,-93.20665741
227891,516431234,662172162,2598604761,-3.453587532,-6.000812054,55552,-93.30619812
227901,516426133,662169090,2598608596,-3.459263086,-6.965682507,30720,-93.46903229
227911,514329000,663219710,2463997921,-3.449384451,-7.496898174,30720,-93.5799942
227921,513278397,667416059,2463409626,-3.426347017,-8.119678497,55552,-93.75645447
227931,513277392,667416061,2245110502,-3.414753199,-8.414317131,55552,-93.87763214
227941,512230880,663223808,2462691047,-3.375198841,-8.718425751,30720,-94.06270599
227951,510137836,662173185,2395974122,-3.361548424,-8.845570564,30720,-94.19566345
227961,509093366,667417086,2731975636,-3.37834692,-8.940677643,30720,-94.41468811
227971,509094406,669511166,2497421526,-3.408614874,-8.929917336,55552,-94.56884003
227981,510146073,663218689,2917437371,-3.4689188,-8.781742096,15616,-94.7953949
227991,510147115,660075011,2918745011,-3.509505033,-8.574791908,15616,-94.94442749
228001,509100608,660076034,2495392481,-3.591941357,-8.091920853,15616,-95.16607666
228011,508057169,661121539,2310974186,-3.658941269,-7.671838284,15616,-95.32079315
228021,505964125,660070912,2376972521,-3.811486244,-6.920278072,15616,-95.58532715
228031,504921699,656930299,2377493231,-3.944105148,-6.361045837,15616,-95.76591492
228041,504921699,659030522,2460531696,-4.179000378,-5.50185442,55552,-96.04078674
228051,504921691,661121534,2444799471,-4.341416359,-4.947451591,55552,-96.2208786
228061,504918608,659023359,2527638761,-4.556376934,-4.228725433,15616,-96.49265289
228071,502815297,656929279,2562632421,-4.680656433,-3.822690964,55552,-96.67428589
228081,502802996,659025407,2629416666,-4.784528255,-3.335000277,55552,-96.94756317
228091,499643942,659024383,2647568343,-4.779564857,-3.08302927,30720,-97.13451385
228101,499630617,656928255,2748299972,-4.674780369,-2.824211597,30720,-97.41940308
228111,498576912,659025407,2664805068,-4.549413204,-2.717883348,30720,-97.61724091
228121,497522190,655876607,2647442882,-4.322743416,-2.608480453,30720,-97.91555023
228131,496472586,653779457,2631186376,-4.150091171,-2.565758944,30720,-98.12184906
228141,495425036,662173181,2764882877,-3.891723394,-2.486568689,30720,-98.43769073
228151,494379539,662171130,2529803210,-3.741470575,-2.401091814,55552,-98.64998627
228161,492291604,661125631,2814034116,-3.564860821,-2.247893572,55552,-98.98739624
228171,493343255,662172159,2630467532,-3.477478743,-2.12644124,30720,-99.21613312
228181,491257369,659020292,2914174156,-3.406921387,-1.938370705,30720,-99.5719223
228191,489161238,660073983,2848241867,-3.381480217,-1.816001177,30720,-99.82335663
228201,490212886,668464634,3099442877,-3.394183874,-1.632184625,30720,-100.1936569
228211,490214939,661121535,3083644096,-3.404855251,-1.508514285,30720,-100.4387894
228221,491260452,661122564,3436489892,-3.418621302,-1.259559989,30720,-100.8051758
228231,490210872,664269308,3454311077,-3.409898996,-1.009277463,30720,-101.050293
228241,490206807,660073983,4177495156,-3.399720192,-0.425732046,30720,-101.4173737
228251,492299902,663220736,3202001837,-3.362016916,0.157169893,30720,-101.6629486
228261,493345452,666367486,2965098167,-3.293172359,1.406301856,30720,-102.0127487
228271,493345499,663220734,2545145041,-3.242120504,2.495544672,30720,-102.2401199
228281,495448829,662169091,2408378342,-3.190232754,4.469908714,30720,-102.5804214
228291,494401292,666369530,2376392927,-3.17967701,5.924777508,30720,-102.800415
228301,496508687,656927231,2256075512,-3.25129056,8.1720438,30720,-103.12603
228311,496514806,659025410,2593117938,-3.322462559,9.604730606,30720,-103.3281479
228321,497564376,665315834,2591549432,-3.500188351,11.50346756,30720,-103.6206665
228331,498609836,656922108,2844903662,-3.624498606,12.54378796,30720,-103.8039627
228341,499646074,652729861,3046557908,-3.719624043,13.68483448,55552,-104.083374
228351,502770248,656929283,3015029951,-3.687737942,14.16997051,15616,-104.2802582
228361,503793182,660073983,3031544218,-3.452081442,14.50780964,49920,-104.6156311
228371,502725120,656925187,2729093287,-3.193054199,14.52112961,34816,-104.8651886
228381,502703589,650634757,3010045892,-2.603593588,14.30242825,19200,-105.2907639
228391,503730642,657976828,2663097738,-2.112275362,14.0414362,19200,-105.5937653
228401,505815501,655879677,2577906295,-1.246834993,13.54563427,3584,-106.0655594
228411,508952008,648537603,2460657806,-0.59251076,13.18817902,3584,-106.3803635
228421,511045061,650637820,2595207791,0.429727554,12.64189625,3584,-106.8283691
228431,514195914,644349439,2376312975,1.106138587,12.29304218,28928,-107.1103668
228441,515253710,638053888,2459744896,2.074325323,11.80672646,28928,-107.4901962
228451,518411728,643293694,2476647571,2.668843508,11.49809933,28928,-107.7200012
228461,518425045,645396988,0,3.441952705,11.07464409,0,-108.019928
228471,519486939,640153085,0,3.883382559,10.84149075,0,-108.195694
228481,521593312,628617726,0,4.46152544,10.52236366,0,-108.4330521
228491,521599461,617083388,0,4.797751427,10.33341694,0,-108.5766602
228501,522656232,606599677,0,5.23748064,10.09728527,0,-108.7721329
228511,522663405,598211071,0,5.499860764,9.965564728,0,-108.8960342
228521,523716079,591919615,0,5.850004196,9.795398712,0,-109.0644379
228531,523720181,587726334,0,6.061462879,9.70736599,0,-109.1695938
228541,524772855,586677759,0,6.337131977,9.604439735,0,-109.3158875
228551,525823480,585628158,0,6.511907101,9.542009354,0,-109.4038773
228561,524777980,581433852,0,6.731517315,9.466445923,0,-109.5327454
228571,524781054,574093822,0,6.862896919,9.436514854,0,-109.6148376
228581,525831680,574094846,0,7.047802925,9.407510757,0,-109.7320175
228591,525832706,571997693,0,7.151359558,9.400743484,0,-109.8058548
228601,525835780,567803390,0,7.30195713,9.406355858,0,-109.9152451
228611,526885382,566753791,0,7.398416519,9.41974926,0,-109.9858704
228621,527936008,565705215,0,7.536239147,9.450659752,0,-110.0792389
228631,526888458,563608062,0,7.611567497,9.477265358,0,-110.1389694
228641,526890507,562561535,0,7.714255333,9.548929214,0,-110.2319336
228651,527940108,561511935,0,7.777681828,9.601547241,0,-110.2882309
228661,526893582,560463359,0,7.858314991,9.684100151,0,-110.3716736
228671,527943184,558366207,0,7.906002522,9.75925827,0,-110.4271545
228681,527944209,558366207,0,7.96269989,9.87507534,0,-110.5061417
228691,527946258,557317631,0,7.991430759,9.956902504,0,-110.5577393
228701,527947283,555220479,0,8.028240204,10.0959549,0,-110.6291122
228711,527949331,555220479,0,8.0467062,10.18768978,0,-110.6721725
228721,528999956,555220479,0,8.055499077,10.32274532,0,-110.7355347
228731,529000980,553123327,0,8.04801178,10.41627407,0,-110.7769241
228741,529003028,553124351,0,8.025238037,10.56402588,0,-110.8304062
228751,529005077,552074751,0,7.995152473,10.6585741,0,-110.8621597
228761,530056724,551026175,0,7.934435844,10.79857635,0,-110.905159
228771,530059795,549978623,0,7.878627777,10.88989925,0,-110.9306946
228781,530062866,551027199,0,7.775512218,11.02526569,0,-110.9609299
228791,530065937,549978623,513539995,7.689299107,11.11384678,3584,-110.975647
228801,530071055,549978623,1720440746,7.535480499,11.23590374,3584,-110.9936905
228811,530080263,555220478,2006111923,7.385407925,11.29534912,59648,-111.0008926
228821,529049081,562559486,2408959169,7.054023266,11.25799179,49920,-110.9904404
228831,529073636,571996671,2997013201,6.728208542,11.13425255,30720,-110.9628906
228841,531199433,582483456,3449989336,6.022202015,10.72713089,30720,-110.8752594
228851,530173351,592968192,4038500564,5.417408943,10.2911396,61440,-110.7886887
228861,530184586,602407424,4290874838,4.376537323,9.363728523,36352,-110.6548309
228871,528083311,613942784,4291794371,3.659554482,8.604125977,8192,-110.576622
228881,524924249,618137089,4292969906,2.655577183,7.25966692,8192,-110.5141144
228891,522810706,625476097,4292843441,2.068627834,6.27809906,8192,-110.512207
228901,521746774,635965955,4293168040,1.340260386,4.824305058,8192,-110.5514069
228911,523823464,641208837,4158891436,0.944129646,3.920354128,8192,-110.5957718
228921,522759554,652738053,4124814511,0.519176424,2.739501476,8192,-110.6790314
228931,525884840,661128705,3587753400,0.321490854,2.14193964,8192,-110.7346802
228941,527972823,673711623,3283999441,0.169009984,1.609715819,8192,-110.7991638
228951,532158980,676858374,3031884765,0.119468637,1.508266926,8192,-110.8327255
228961,535304738,681050628,2964514531,0.064431556,1.703044891,8192,-110.8498306
228971,536359474,677904897,3031294185,0.020508017,1.953695297,8192,-110.8431854
228981,538462770,677905919,3064978411,-0.120068215,2.384874582,8192,-110.8252335
228991,540567083,676855296,3131955435,-0.244270459,2.647953272,8192,-110.7976456
229001,542672412,678952446,3215969775,-0.497829646,2.946123362,8192,-110.7452393
229011,544771590,678952453,3350775781,-0.691509783,3.03170085,8192,-110.689621
229021,544772593,681049602,3502225890,-0.98189193,2.979041338,8192,-110.6050339
229031,547908064,682095108,3502882006,-1.149156094,2.839557171,8192,-110.539238
229041,549991891,681049603,3487085520,-1.294726014,2.512110472,8192,-110.4252701
229051,551026125,686292479,3453664200,-1.317077994,2.236704111,8192,-110.3426514
229061,551013841,685242886,3320102086,-1.246548176,1.821423531,8192,-110.2222366
229071,553104861,679998977,3202009291,-1.143120289,1.587377906,8192,-110.1372299
229081,553105898,682098178,3084502740,-0.978026271,1.350398779,8192,-110.0026016
229091,554159604,683146754,3151284691,-0.890043914,1.262633681,8192,-109.9084167
229101,556264960,677902847,3033581026,-0.816604316,1.220680714,8192,-109.7537384
229111,555225607,684194306,3116878051,-0.815442383,1.244490147,8192,-109.6495819
229121,555232776,677903877,3083583975,-0.871067882,1.322039962,8192,-109.4943542
229131,554187271,682096140,3183985892,-0.926486671,1.368838787,8192,-109.3879929
229141,553140742,683147772,3117007081,-1.056296349,1.432146311,8192,-109.2453003
229151,553138688,685243911,3200959201,-1.140504718,1.445143938,8192,-109.1495819
229161,554181114,681047551,3151150051,-1.22102046,1.417036533,8192,-108.9995651
229171,553129461,677899785,3184640475,-1.24911201,1.363191009,8192,-108.9069214
229181,552075758,683148801,3168451546,-1.263012528,1.245783687,8192,-108.7757111
229191,551025134,681051651,3201679575,-1.252171516,1.153320074,8192,-108.6922226
229201,551023086,683144704,3151805655,-1.227608085,1.004961491,8192,-108.5729294
229211,547880431,679997959,3235168216,-1.203991771,0.911028445,8192,-108.5028992
229221,547879413,683146755,3117924571,-1.187965274,0.801242888,8192,-108.4066544
229231,545787383,678952451,3218129371,-1.190084815,0.753681481,8192,-108.3478699
229241,545788410,681048577,3184705245,-1.216233611,0.706029356,8192,-108.2699051
229251,543693308,679997958,3217998045,-1.238894701,0.687037885,8192,-108.2232666
229261,543692284,682098179,3201482461,-1.280672312,0.66916275,8192,-108.1602554
229271,543690236,682097155,3184575451,-1.304164767,0.651564837,8192,-108.121254
229281,542642683,681049600,3201417181,-1.333220959,0.620832801,8192,-108.0668335
229291,541591034,681047557,3184575194,-1.338926315,0.592671335,8192,-108.0352859
229301,540541435,678951426,3151152091,-1.343928218,0.551658988,8192,-107.9947357
229311,540540409,676853255,3184706264,-1.334010005,0.522470474,8192,-107.9688873
229321,538446329,678954494,3201286104,-1.340022802,0.4753519,36352,-107.942421
229331,539493880,680000002,3201286360,-1.348803759,0.437898368,36352,-107.9270325
229341,537399800,678949376,3133719774,-1.371872425,0.378362715,36352,-107.9079132
229351,537400817,672659976,3032730339,-1.390050769,0.317247182,36352,-107.8989105
229361,537400809,676857343,2796933613,-1.429232955,0.177625105,61440,-107.8886337
229371,536353240,680002054,2880884458,-1.45397532,0.004354463,61440,-107.8797302
229381,537402816,674755070,2948385254,-1.514381886,-0.425180972,61440,-107.8755188
229391,536353189,676851211,3015624675,-1.543251872,-0.8674196,61440,-107.8714142
229401,536353161,674756093,3217799894,-1.587395668,-1.754232049,61440,-107.869873
229411,535299442,664273416,3184442834,-1.601964355,-2.497419834,61440,-107.8739929
229421,535297373,676857345,3487608000,-1.602265,-3.763874292,61440,-107.8784409
229431,536342870,672659967,3386880194,-1.589467287,-4.695542336,61440,-107.881279
229441,534240602,677901831,3488132279,-1.531852007,-6.086592674,61440,-107.8861237
229451,533193062,671612416,3285629384,-1.473505378,-6.959793091,61440,-107.891243
229461,534237562,674758147,3336680893,-1.38579309,-8.126382828,61440,-107.9036713
229471,533192077,672660996,3201613259,-1.319568276,-8.779557228,61440,-107.9093018
229481,532145568,677907965,3117073619,-1.248720765,-9.600190163,61440,-107.9318085
229491,532150707,675807751,2999175899,-1.221530914,-10.04001427,61440,-107.9488373
229501,532153790,670559741,3049179614,-1.206508517,-10.57794189,61440,-107.9763565
229511,531110340,670567943,2964900064,-1.226137161,-10.88991165,21248,-108.0046082
229521,531112387,674758142,3082601689,-1.275578737,-11.33389664,21248,-108.0535431
229531,531111357,673705479,3015753939,-1.316821933,-11.65554523,46336,-108.0871048
229541,531111350,667419135,3099572427,-1.364771128,-12.19248676,5632,-108.1436844
229551,530060721,671613444,3015555018,-1.390454769,-12.58463955,30720,-108.1786423
229561,532153775,668463616,3066344641,-1.406583428,-13.19353294,30720,-108.2260513
229571,530055595,668464642,3083121602,-1.400274754,-13.61523914,30720,-108.2561874
229581,530050477,667418114,3033184187,-1.367256284,-14.25380325,30720,-108.2978134
229591,531095985,666365447,2982721727,-1.321527243,-14.65045834,30720,-108.3173523
229601,530045368,666369538,2932259002,-1.230486751,-15.21133137,55552,-108.3411865
229611,530045373,665317892,2932194497,-1.167665482,-15.55269241,30720,-108.3561172
229621,530045380,666367487,2881536452,-1.073282719,-16.00728989,30720,-108.3789063
229631,531094988,662178309,2881470151,-1.010543466,-16.25526619,30720,-108.3906631
229641,530051532,664268286,2965421507,-0.948293209,-16.61234474,30720,-108.4243393
229651,530055631,665318913,2931539146,-0.932894826,-16.84134293,30720,-108.4557266
229661,530058706,669512185,3032267462,-0.941236496,-17.15703011,30720,-108.5097885
229671,530061781,652737031,3015424201,-0.950786233,-17.34379196,30720,-108.5481949
229681,529013206,669514241,2964897736,-0.980038643,-17.62197495,30720,-108.6187286
229691,530061784,657976831,2914695622,-1.002976775,-17.7933979,55552,-108.6608582
229701,530060759,662176262,3065754816,-1.02314055,-18.0463047,55552,-108.7230072
229711,530058711,661121531,2981869251,-1.039095521,-18.20861435,55552,-108.7630081
229721,529008088,662175242,2998778046,-1.029268861,-18.4532299,55552,-108.8189621
229731,529006043,668462585,2998844357,-1.022809982,-18.60073471,30720,-108.8518295
229741,529005024,651688457,2914696896,-0.988023639,-18.7926445,55552,-108.9019623
229751,529005026,668462591,2881142212,-0.966435969,-18.90837288,55552,-108.935379
229761,529005028,656928255,2931474112,-0.932857037,-19.06048965,55552,-108.9849548
229771,527958503,654835206,2931474631,-0.914742231,-19.14644051,30720,-109.0234222
229781,527960551,659024380,2981608642,-0.902877212,-19.25873756,55552,-109.084343
229791,527960555,661125639,2881011652,-0.900911689,-19.33005333,55552,-109.1310349
229801,527962604,664265213,2947792836,-0.905102789,-19.40230751,55552,-109.2022324
229811,526915050,654836226,2914434757,-0.914970517,-19.46201134,55552,-109.2586823
229821,527962603,654829062,3032071101,-0.927682102,-19.5437603,55552,-109.342186
229831,526915052,661124603,2846933962,-0.937961698,-19.59321213,55552,-109.3960648
229841,526913003,660069898,2931082177,-0.943043113,-19.67501831,55552,-109.4811478
229851,525865452,657977852,2947923651,-0.949619532,-19.7278595,55552,-109.5391235
229861,526913004,655878660,2964570817,-0.948122203,-19.81046677,55552,-109.6170502
229871,525866475,654830083,2947923907,-0.956312656,-19.86471558,55552,-109.6818161
229881,527961581,665315836,2964570562,-0.962260604,-19.94258499,55552,-109.7599869
229891,525865455,653779466,2880618432,-0.964156091,-19.98936272,15616,-109.8154602
229901,527960559,656931321,2813050041,-0.966994882,-20.03510475,0,-109.8956375
229911,527960557,654827016,2695476404,-0.955841064,-20.07352257,49920,-109.9364471
229921,526914031,655879680,2779035314,-0.954651058,-20.14016342,49920,-110.0235443
229931,527961582,656925184,2728965044,-0.95102495,-20.17427444,49920,-110.0699081
229941,527960561,649589257,3032065440,-0.943671525,-20.21456337,49920,-110.1446762
229951,526916078,654831098,2913839790,-0.94889158,-20.24132347,49920,-110.1949387
229961,529010164,642249223,3941494634,-0.960386813,-20.26936531,49920,-110.2740326
229971,526916090,644342276,2964563624,-0.965898454,-20.2625885,49920,-110.3287048
229981,526913032,654832124,3098977440,-0.978207827,-20.1736908,49920,-110.412178
229991,526912036,646439434,3133447574,-0.977772772,-20.00189972,49920,-110.4658661
230001,526911040,653781500,3149505179,-0.960504055,-19.50665474,49920,-110.5443649
230011,526910058,648538629,2762781868,-0.948761284,-18.98502731,49920,-110.5934601
230021,525863568,648541696,2543044544,-0.928883851,-17.8573494,49920,-110.6736221
230031,526912179,641196548,2459225545,-0.917989016,-16.88615799,24832,-110.7266464
230041,526917316,650632705,2239552215,-0.931928277,-15.23892498,49920,-110.8113174
230051,525873865,644343293,2475085270,-0.964471877,-14.06666279,24832,-110.868988
230061,526925504,640145932,2374098650,-1.047245979,-12.3437109,0,-110.9750443
230071,526929583,649584123,2744308446,-1.12584126,-11.27553844,55552,-111.0416031
230081,525880981,647485952,2794641111,-1.284823775,-9.863145828,55552,-111.1527634
230091,526928503,645388802,2997208267,-1.376163602,-9.080752373,55552,-111.2199631
230101,529018460,645385739,2980759745,-1.474221349,-8.152061462,55552,-111.3051453
230111,527965764,646440449,3082143167,-1.515607595,-7.69149828,30720,-111.3584366
230121,527959600,648535552,3216686001,-1.542591929,-7.168799877,55552,-111.4281693
230131,527953448,653778433,3200563626,-1.530065894,-6.907213688,55552,-111.4729004
230141,526901803,652723719,3267475881,-1.453381777,-6.538021564,55552,-111.530571
230151,528993845,652734975,3351687336,-1.392166138,-6.258935452,55552,-111.57444
230161,530041418,652724742,3266623161,-1.273037672,-5.709841251,55552,-111.6167831
230171,527938151,657976832,3282744771,-1.170911193,-5.221600056,55552,-111.6459427
230181,527927939,652727815,3081290947,-0.956696153,-4.225827694,55552,-111.6906204
230191,527916706,662166012,3873346191,-0.760215223,-3.406159163,55552,-111.7263794
230201,528950976,652730891,2510481097,-0.358540952,-1.913678288,55552,-111.7717819
230211,529993429,660062715,2678249931,-0.026112616,-0.774921536,55552,-111.800415
230221,528940774,653780490,2476927432,0.505210042,1.093262076,55552,-111.8545685
230231,528943859,657967613,2645150900,0.862989068,2.422625065,0,-111.9020844
230241,529997564,654828040,2341987265,1.352037311,4.49220705,0,-111.986412
230251,530011909,657970686,2476069314,1.61603725,5.930065155,24832,-112.0438919
230261,530027265,652726788,2306921929,1.893034577,8.082846642,9216,-112.1221313
230271,532139767,652724740,2408367548,1.984202027,9.46832943,34816,-112.158905
230281,534250215,657974781,2072172742,2.015882254,11.42377853,34816,-112.1868439
230291,535312082,650626565,2576333243,1.964731336,12.61787033,34816,-112.1806946
230301,537419452,645387780,2323366868,1.810621023,14.20844173,34816,-112.1363297
230311,538474149,648531462,2525412039,1.66852355,15.14313984,34816,-112.0823212
230321,538476175,648533502,2626792898,1.414685249,16.34421539,34816,-111.9853058
230331,538476154,646436354,2761599668,1.239588737,17.0184021,34816,-111.916687
230341,538468970,646440446,2475928757,1.011076689,17.87948418,19200,-111.8240356
230351,538464859,648533508,2543692967,0.890831828,18.3666687,19200,-111.7654572
230361,538458704,649582083,0,0.767720461,18.98147011,0,-111.6961899
230371,539505224,642244099,0,0.697127283,19.33530426,0,-111.6547241
230381,539504194,633856510,0,0.608942389,19.80792618,0,-111.5945969
230391,539502145,619176456,0,0.568866253,20.1064167,0,-111.556778
230401,539502144,608690694,0,0.52801913,20.54039001,0,-111.5004959
230411,540549696,600302082,0,0.499029666,20.82618713,0,-111.4593811
230421,542646851,605544963,0,0.458926022,21.2639904,0,-111.3870163
230431,542645830,595061247,0,0.432125419,21.5749855,0,-111.338089
230441,544741962,589816322,0,0.40394786,22.06118202,0,-111.2554016
230451,545790541,580381185,0,0.394151092,22.40402794,0,-111.193634
230461,546839123,581431810,0,0.376993299,22.96819305,0,-111.086525
230471,547890775,581430786,0,0.364286423,23.36643219,0,-111.0093155
230481,548939356,578285056,0,0.343812466,24.00144196,0,-110.8793259
230491,549989987,569896447,0,0.324375153,24.45649338,0,-110.7855759
230501,551039593,568847871,0,0.281413585,25.18058395,0,-110.6347046
230511,553138799,567799295,0,0.240074709,25.68481255,0,-110.5220871
230521,553143925,565701121,0,0.176928282,26.5017395,0,-110.3359451
230531,553145980,565704193,0,0.124632463,27.08383369,0,-110.1950912
230541,556296834,565705217,0,0.027839208,28.02689934,0,-109.9656982
230551,556300936,564656640,0,-0.053378563,28.68678665,0,-109.7971039
230561,557353615,563606016,0,-0.200277612,29.71929932,0,-109.5125885
230571,559456917,561509888,0,-0.320515692,30.44529915,0,-109.3044205
230581,558413466,561510912,0,-0.530046344,31.58220673,0,-108.9595642
230591,561567391,559413760,0,-0.695620537,32.37020111,0,-108.7004852
230601,561575586,556268031,0,-0.991895616,33.58681107,0,-108.2715912
230611,561586855,559414783,0,-1.220744848,34.42152786,0,-107.9465179
230621,563694248,560462334,0,-1.633123875,35.69186783,0,-107.4007721
230631,562655914,554170879,0,-1.945475221,36.54750061,0,-106.9967651
230641,563714735,554171904,0,-2.460262299,37.86925125,0,-106.3254929
230651,564772531,559414782,0,-2.840116978,38.77744293,0,-105.8423843
230661,563732150,555219454,0,-3.454146147,40.18091583,0,-105.0516815
230671,564788921,552073727,0,-3.880137205,41.13256454,0,-104.4889374
230681,564797116,555220480,0,-4.542122841,42.59699249,0,-103.5844116
230691,564807356,556269056,0,-4.993745804,43.59008408,0,-102.9373322
230701,565866173,552075776,0,-5.701877117,45.1116333,0,-101.8932495
230711,565876414,552075775,0,-6.205347538,46.14568329,0,-101.1436234
230721,565887678,555221502,0,-6.999034882,47.71652985,0,-99.94002533
230731,565895868,555221502,2485884159,-7.550290108,48.77286911,44032,-99.08680725
230741,562754228,557318654,1884844287,-8.393468857,50.33621597,59648,-97.74692535
230751,560651937,564657664,2520291071,-8.936497688,51.31786728,34816,-96.8470993
230761,557497987,568850944,2255652607,-9.695375443,52.5794754,30720,-95.54321289
230771,553289313,568850944,2992354047,-10.1613493,53.23849106,61440,-94.73292542
230781,552218168,576190977,2474284031,-10.78717041,53.90248108,61440,-93.62850952
230791,554282501,586677759,2976166399,-11.11204338,54.07582855,8192,-93.01387787
230801,555279816,594016767,2441392895,-11.39138031,53.81463623,8192,-92.36810303
230811,555209084,592967171,2123882239,-11.37404346,53.21585464,8192,-92.20278931
230821,551996692,601355778,2899889116,-11.00300217,51.47050858,8192,-92.43227386
230831,547740815,616036862,3305087386,-10.57070637,49.5953331,8192,-92.85253906
230841,548722715,625482241,3690975047,-9.526412964,45.66361618,8192,-93.86975861
230851,553903104,629672448,3070211679,-8.517583847,42.45453644,8192,-94.73847961
230861,561201152,641206781,3741310519,-6.5609622,37.05658722,8192,-96.1530304
230871,569567232,647499265,3086989150,-5.013646603,33.20210648,8192,-97.060112
230881,574797824,652740101,3607090751,-2.442989349,27.18182373,8192,-98.22537994
230891,585297920,655885830,3086989150,-0.626242816,23.08053017,8192,-98.81240845
230901,596854784,666368505,3204431447,2.006896019,16.96731567,8192,-99.30738831
230911,597939200,668465670,3053434209,3.645308971,12.99243641,8192,-99.40071106
230921,596945920,669519355,2935991911,5.731287003,7.292124271,8192,-99.27015686
230931,595974144,660080132,3305088113,6.750513554,3.658024311,8192,-99.03795624
230941,595004416,661129726,3405742484,7.595620632,-1.599473357,8192,-98.57215881
230951,590897152,662181383,4177489830,7.6746068,-4.903667927,8192,-98.26150513
230961,587823120,661135868,4294919378,7.101979733,-9.32287693,8192,-97.90396118
230971,582647902,661135870,4294001873,6.325093269,-11.89564323,8192,-97.77745819
230981,579549356,659034631,4292688349,4.714901447,-15.01600933,8192,-97.80302429
230991,579566847,662177280,4292818655,3.487287521,-16.66407585,8192,-97.9172821
231001,581675347,667421183,4292296407,1.50057137,-18.35998535,8192,-98.17520905
231011,587957667,671619586,4292949473,0.192043006,-19.07213974,8192,-98.34949493
231021,593191425,672673286,4291643628,-1.721981049,-19.37365723,8192,-98.56101227
231031,601571947,674764291,4289881087,-2.929267645,-18.99382019,8192,-98.64347076
231041,608885443,671618563,3549333503,-4.671769619,-17.61997604,8192,-98.64293671
231051,624570129,675801607,2878188031,-5.674180984,-16.25757599,8192,-98.51441956
231061,638154573,667415049,2190780159,-6.780382633,-13.58479214,8192,-98.02946472
231071,654888828,661125635,2057027839,-7.286354542,-11.44957256,8192,-97.53312683
231081,669544343,663221761,1555666943,-7.725481033,-7.933250427,8192,-96.57365417
231091,681069479,657976832,1889906687,-7.911568165,-5.463767529,8192,-95.83856964
231101,692613029,657974778,1371831295,-8.155694962,-1.689080358,8192,-94.628685
231111,697865096,656924163,1956746495,-8.318943024,0.738344491,8192,-93.76415253
231121,705209188,651681283,1187998463,-8.560281754,4.087196827,8192,-92.41117096
231131,709393215,653781503,1689358335,-8.642804146,6.10299015,8192,-91.46546173
231141,710426395,652733950,853765119,-8.61262989,8.843394279,8192,-90.03623199
231151,712530681,651685372,1622574335,-8.532173157,10.4625082,8192,-89.08615875
231161,717782738,650634750,1054365951,-8.435257912,12.58070755,8192,-87.61891937
231171,720928420,649592320,1421966591,-8.378275871,13.7613945,8192,-86.60916901
231181,726161015,641203710,853828863,-8.180391312,15.13073349,8192,-85.08291626
231191,727183947,646447614,937395967,-7.958127022,15.78581047,8192,-84.07791138
231201,725071390,647497213,704605439,-7.415512562,16.37158012,8192,-82.62438965
231211,722966009,649589244,1257924607,-6.983152866,16.52861214,8192,-81.68981171
231221,719820244,642249217,1090475519,-6.335132122,16.40759468,8192,-80.31976318
231231,716665257,651686402,1392465151,-5.889482021,16.09955025,8192,-79.42345428
231241,713500043,652733949,1342129919,-5.109900951,15.29426479,8192,-78.13552856
231251,708241790,650638847,1207916799,-4.518918037,14.61372662,8192,-77.32155609
231261,705082742,652735997,1107252735,-3.551143408,13.50262165,8192,-76.13711548
231271,696689017,649590270,1056922623,-2.879825115,12.73148823,8192,-75.38217163
231281,688294269,645396989,1006590975,-1.86865294,11.59808254,8192,-74.30317688
231291,676749698,647493118,872376319,-1.182767034,10.85582733,8192,-73.63764191
231301,665204108,646444543,654274559,-0.093377836,9.796941757,8192,-72.72712708
231311,651561363,652738046,603946751,0.668304265,9.134131432,8192,-72.18127441
231321,638962068,643298815,385843199,1.89403069,8.173365593,8192,-71.47661591
231331,624272786,644347388,603949055,2.768269777,7.51779604,8192,-71.07118988
231341,612722062,644346363,436174076,4.153286457,6.510333538,8192,-70.56503296
231351,598034831,641200640,620728817,5.115411282,5.831542015,8192,-70.28868866
231361,583351696,644346367,671057646,6.602830887,4.827530384,8192,-69.98023224
231371,571826585,647493119,754948073,7.55956459,4.186427593,8192,-69.8247757
231381,560319912,650636798,754947305,8.846265793,3.336005449,8192,-69.65821075
231391,553014710,651685373,973050860,9.51607132,2.858221054,8192,-69.58278656
231401,543625670,650637821,1224705789,10.17225933,2.277388334,8192,-69.5120697
231411,533181911,649587197,973053663,10.37106609,1.983457565,8192,-69.50263977
231421,524844517,649585149,1711242239,10.25668049,1.693856955,8192,-69.55626678
231431,517554672,649584126,2013227775,9.930264473,1.569679737,8192,-69.62354279
231441,511313407,648537600,2097115864,8.988940239,1.498226523,8192,-69.77231598
231451,502976021,650638845,2399100159,8.099054337,1.562698007,8192,-69.90597534
231461,493572650,657978879,2632476159,6.378387451,1.854194641,8192,-70.16505432
231471,487310915,661122560,2431149823,5.063538551,2.175137043,8192,-70.37039948
231481,475792989,652732932,2662692607,2.925836325,2.859775782,8192,-70.71904755
231491,466369140,650638853,2125170687,1.410065293,3.451076508,8192,-70.9855423
231501,461127304,653789701,2441384447,-0.898416281,4.508525848,8192,-71.40712738
231511,459026073,653787651,2224130815,-2.444773674,5.322073936,8192,-71.691185
231521,456927904,650639873,2474808319,-4.729515076,6.612397194,8192,-72.09141541
231531,455864992,653784579,2307688959,-6.2164464,7.491531372,8192,-72.33815002
231541,457952920,650638852,2474873855,-8.341300964,8.74697876,8192,-72.68123627
231551,456888966,646445570,2324400895,-9.675012589,9.499065399,8192,-72.8989563
231561,452676203,645398017,2525009663,-11.57876682,10.42388821,8192,-73.23336029
231571,452646472,646445570,2374602239,-12.70061588,10.85786819,8192,-73.48283386
231581,450504220,643300866,2776928767,-14.10094261,11.13409233,8192,-73.91146088
231591,452547042,643300864,3065145343,-14.7741642,11.03665161,8192,-74.2551651
231601,450374049,647496191,3453385471,-15.24320889,10.32575703,8192,-74.8795166
231611,446100844,650644990,2852093429,-15.14634991,9.481762886,8192,-75.39506531
231621,443920707,655887871,3170870433,-14.31272793,7.81009388,8192,-76.29042816
231631,444891428,656937474,2399117984,-13.30433369,6.487251759,8192,-76.92758179
231641,445886737,659026438,3019879522,-11.21407127,4.330440044,8192,-77.87470245
231651,450045187,661126660,2533334912,-9.553908348,2.814467192,8192,-78.46574402
231661,450033918,663227905,2986324325,-6.863377094,0.535716176,8192,-79.24167633
231671,450042116,663228932,2667552376,-5.043560028,-0.946974158,8192,-79.69829559
231681,449013004,662177282,2952769382,-2.427591085,-3.067210197,8192,-80.30419159
231691,447997204,660078085,2701107317,-0.827891052,-4.417682171,8192,-80.66860199
231701,448042276,657987071,2952769382,1.285567522,-6.308595657,8192,-81.17365265
231711,447051075,659037691,3120532617,2.414801598,-7.418412685,8192,-81.51679993
231721,442930515,659033599,3741290374,3.550434828,-8.847076416,8192,-82.10192871
231731,439851371,653790723,3909052592,3.964364529,-9.694761276,8192,-82.54852295
231741,437816718,656940536,4294538671,4.031377316,-10.67914677,8192,-83.33730316
231751,433668540,657991174,4008340966,3.811940908,-11.1160202,8192,-83.92491913
231761,431599086,659037689,4290090717,3.16588068,-11.35064888,8192,-84.90171051
231771,430572065,672671230,3736570111,2.609550238,-11.23796272,8192,-85.58953094
231781,434751053,680013317,3684025845,1.736263037,-10.65520573,8192,-86.61470032
231791,439973487,669521413,2964699903,1.244261265,-10.063941,8192,-87.24953461
231801,443081343,672660986,3080774385,0.746999681,-8.974782944,8192,-88.10506439
231811,447243903,670568961,2647773421,0.559002995,-8.203150749,8192,-88.62979126
231821,449318512,672667143,3015500761,0.549250662,-7.113054752,8192,-89.34728241
231831,448251471,672662015,2901198284,0.627227187,-6.513625145,8192,-89.80799866
231841,448247339,675808769,3470446261,0.841047108,-5.93799305,8192,-90.49523163
231851,449291786,669521411,3338121916,1.011961818,-5.746754646,8192,-90.95195007
231861,449300975,681053696,3857431966,1.212582469,-5.709370136,8192,-91.64157867
231871,450361821,678956549,3774127801,1.312769771,-5.81043148,8192,-92.10144043
231881,451417561,676860410,4024547235,1.353616595,-6.06551075,8192,-92.79706573
231891,452479455,680006142,3773342399,1.324209094,-6.226471424,8192,-93.2539444
231901,453533167,681055742,3989356215,1.214923382,-6.385174751,8192,-93.94268799
231911,455635458,681051649,3537351885,1.098612547,-6.389770508,8192,-94.39537048
231921,459826705,680005122,3804285375,0.946742237,-6.24219656,8192,-95.0496521
231931,461915678,681051659,3335898060,0.861384094,-6.073708057,8192,-95.46834564
231941,465058339,681052677,3619607491,0.796817839,-5.747766018,8192,-96.06251526
231951,469242408,679998980,3252144329,0.779928744,-5.495036602,8192,-96.43444061
231961,470289956,680006137,3603223485,0.790867329,-5.123075008,8192,-96.97126007
231971,473432608,682103298,3336030151,0.801119864,-4.895581245,8192,-97.31652069
231981,476576276,681052676,3587101620,0.843295455,-4.624024391,8192,-97.81266785
231991,477630988,680002049,3554327491,0.865583837,-4.502217293,8192,-98.13124084
232001,480775682,681051649,3738487215,0.856040418,-4.398011208,8192,-98.59352112
232011,483925501,684196360,3621697725,0.848038614,-4.370267868,8192,-98.88890839
232021,486021628,682101251,3771844275,0.832900465,-4.36234808,8192,-99.30351257
232031,488120827,676855292,3604921021,0.801906765,-4.359919071,8192,-99.5704422
232041,489165304,684205564,3721578931,0.763484359,-4.375493526,8192,-99.9537735
232051,490210811,682105345,3302215366,0.749795973,-4.370423794,8192,-100.2011185
232061,490213881,680004098,3367428301,0.755928636,-4.367152691,8192,-100.5678558
232071,492307950,677907970,3049316310,0.750974178,-4.405889988,8192,-100.8131104
232081,492316118,676858369,2541682687,0.733086586,-4.602691174,8192,-101.1682587
232091,493366712,676857356,2357854207,0.696618021,-4.893658161,8192,-101.4027176
232101,493371797,674761214,3029858791,0.616194606,-5.59533453,8192,-101.7606735
232111,494426473,677905921,3704405701,0.527060628,-6.283815861,8192,-101.9984589
232121,496526659,671612418,4124096685,0.361081779,-7.66293335,8192,-102.3442535
232131,498628899,677906941,4040797112,0.234116152,-8.789030075,8192,-102.568367
232141,498626832,677907968,4292847773,0.028018355,-10.68514252,8192,-102.9040222
232151,499676428,676856321,4158695085,-0.098469362,-12.00625229,8192,-103.1324234
