Timestamp,compactImu.a_xyz,compactImu.l_xyz,motorCompact.pwms,stabilizer.pitch,stabilizer.roll,stabilizer.thrust,stabilizer.yaw
91497,536346111,642252287,0,0.26966336369514465,-0.24769021570682526,0,42.0030403137207
91507,535297535,642252287,0,0.2688645124435425,-0.24795009195804596,0,42.002079010009766
91517,536345087,642252287,0,0.2691481411457062,-0.24817131459712982,0,42.0010986328125
91527,536346110,642252287,0,0.2691303789615631,-0.2483731508255005,0,42.000423431396484
91537,535297534,642252287,0,0.26828163862228394,-0.2500896453857422,0,41.99871063232422
91547,536346110,642252287,0,0.26761510968208313,-0.2505594491958618,0,41.99800109863281
91557,536346111,642252287,0,0.2675062417984009,-0.2518748939037323,0,41.9972038269043
91567,536346111,642252287,0,0.2672065794467926,-0.25261610746383667,0,41.99637985229492
91577,536346110,642252287,0,0.2661733329296112,-0.2530578374862671,0,41.99608612060547
91587,536346110,642252287,0,0.26613810658454895,-0.25408926606178284,0,41.99558639526367
91597,536346111,642252287,0,0.2660692036151886,-0.2542974650859833,0,41.994354248046875
91607,535297535,642252287,0,0.26561784744262695,-0.25452721118927,0,41.9931755065918
91617,536346111,642252287,0,0.2652120292186737,-0.25402531027793884,0,41.992149353027344
91627,535297535,642252287,0,0.26466575264930725,-0.2542926073074341,0,41.99122619628906
91637,536346111,642252287,0,0.26426783204078674,-0.25408899784088135,0,41.989376068115234
91647,536346111,642252287,0,0.2642645239830017,-0.254813015460968,0,41.989131927490234
91657,536346111,642252287,0,0.26404231786727905,-0.2550288140773773,0,41.98975372314453
91667,536346110,642252287,0,0.2639283239841461,-0.2553686499595642,0,41.98940658569336
91677,536346110,642252287,0,0.26383036375045776,-0.25602471828460693,0,41.98859405517578
91687,536346111,642252287,0,0.2636672258377075,-0.25609222054481506,0,41.98843765258789
91697,535297534,642252287,0,0.2629939913749695,-0.2567298114299774,0,41.98617935180664
91707,536346110,642252287,0,0.26284316182136536,-0.25749504566192627,0,41.98501205444336
91717,535297534,642252287,0,0.2617045044898987,-0.2583564519882202,0,41.98339080810547
91727,536346111,642252287,0,0.26049375534057617,-0.25859543681144714,0,41.9832649230957
91737,535297535,642252287,0,0.2592674195766449,-0.2588311433792114,0,41.98147964477539
91747,536346111,642252287,0,0.2589995861053467,-0.2585565149784088,0,41.98079299926758
91757,536346111,642252287,0,0.2582412362098694,-0.2586125135421753,0,41.97964096069336
91767,536346110,642252287,0,0.25813186168670654,-0.2584415376186371,0,41.97822570800781
91777,536346111,642252287,0,0.25730982422828674,-0.25911006331443787,0,41.977455139160156
91787,535297534,642252287,0,0.2573792040348053,-0.2597234845161438,0,41.97727584838867
91797,535296511,642252287,0,0.25734102725982666,-0.26050636172294617,0,41.97566223144531
91807,536346111,642252287,0,0.2572663724422455,-0.26069241762161255,0,41.97526931762695
91817,536346111,642252287,0,0.2567415237426758,-0.2593844532966614,0,41.975460052490234
91827,536345087,642252287,0,0.256730854511261,-0.2598204016685486,0,41.97498321533203
91837,535297534,642252287,0,0.25641727447509766,-0.2602491080760956,0,41.973384857177734
91847,536345086,642252287,0,0.2565387785434723,-0.2611672878265381,0,41.973026275634766
91857,535297534,642252287,0,0.2558252513408661,-0.26286429166793823,0,41.97123336791992
91867,536346111,642252287,0,0.25581344962120056,-0.26326003670692444,0,41.97057342529297
91877,536346110,642252287,0,0.25676992535591125,-0.26472827792167664,0,41.97045135498047
91887,536346111,642252287,0,0.2568342089653015,-0.26471877098083496,0,41.969722747802734
91897,536346111,642252287,0,0.25675952434539795,-0.26390522718429565,0,41.96965408325195
91907,536346111,642252287,0,0.2564953863620758,-0.26360374689102173,0,41.968997955322266
91917,535297535,642252287,0,0.25647491216659546,-0.2631695866584778,0,41.9674072265625
91927,535297534,642252287,0,0.2560865581035614,-0.2644619047641754,0,41.966346740722656
91937,535297535,642252287,0,0.2559140622615814,-0.26512596011161804,0,41.96387481689453
91947,536346111,642252287,0,0.2557171583175659,-0.2649049460887909,0,41.96336364746094
91957,536346111,642252287,0,0.2554786205291748,-0.2647591233253479,0,41.96280288696289
91967,536346110,642252287,0,0.25603923201560974,-0.2653064727783203,0,41.962501525878906
91977,536346111,642252287,0,0.25508201122283936,-0.265959233045578,0,41.96237564086914
91987,535297534,642252287,0,0.2541043162345886,-0.26627659797668457,0,41.961753845214844
91997,536346110,642252287,0,0.25287196040153503,-0.26736944913864136,0,41.960323333740234
92007,536346111,642252287,0,0.2531125247478485,-0.26762887835502625,0,41.959774017333984
92017,536346111,642252287,0,0.25256139039993286,-0.2670494318008423,0,41.95863342285156
92027,536346110,642252287,0,0.2523570656776428,-0.2669815123081207,0,41.95821762084961
92037,536345086,642252287,0,0.2528528869152069,-0.2676805555820465,0,41.958580017089844
92047,536345087,642252287,0,0.25367000699043274,-0.2672244608402252,0,41.95865249633789
92057,536346110,642252287,0,0.25304943323135376,-0.2674088478088379,0,41.958229064941406
92067,536346111,642252287,0,0.2520381808280945,-0.26815879344940186,0,41.958290100097656
92077,536346111,642252287,0,0.25201737880706787,-0.26881638169288635,0,41.95790100097656
92087,536346111,642252287,0,0.25178802013397217,-0.26911333203315735,0,41.95725631713867
92097,536346111,642252287,0,0.25005051493644714,-0.2687598466873169,0,41.95631408691406
92107,535297534,642252287,0,0.24940122663974762,-0.2690386474132538,0,41.95488357543945
92117,536345087,642252287,0,0.25000253319740295,-0.26792293787002563,0,41.95405960083008
92127,535297534,642252287,0,0.24932509660720825,-0.26850154995918274,0,41.95355224609375
92137,536346110,642252287,0,0.24823473393917084,-0.2691095471382141,0,41.95225524902344
92147,536346111,642252287,0,0.24810482561588287,-0.2695294916629791,0,41.95200729370117
92157,535296511,642252287,0,0.24849417805671692,-0.2691173255443573,0,41.951011657714844
92167,536346111,642252287,0,0.24851754307746887,-0.26928624510765076,0,41.950477600097656
92177,536346111,642252287,0,0.24808552861213684,-0.2683517634868622,0,41.950016021728516
92187,536346110,642252287,0,0.24834612011909485,-0.2684113383293152,0,41.9493293762207
92197,536346111,642252287,0,0.248010516166687,-0.2693004906177521,0,41.94843292236328
92207,536346111,642252287,0,0.24755649268627167,-0.2691371738910675,0,41.948265075683594
92217,536346111,642252287,0,0.24638520181179047,-0.26772594451904297,0,41.94801330566406
92227,536346110,642252287,0,0.2461022138595581,-0.2676631510257721,0,41.94789123535156
92237,536346111,642252287,0,0.2456141859292984,-0.26764699816703796,0,41.948158264160156
92247,535297534,642252287,0,0.24516308307647705,-0.26765376329421997,0,41.94739532470703
92257,536346111,642252287,0,0.24408312141895294,-0.26843342185020447,0,41.94572830200195
92267,536346111,642252287,0,0.24314802885055542,-0.2690944969654083,0,41.94483947753906
92277,536346111,642252287,0,0.24265263974666595,-0.2694733440876007,0,41.94435501098633
92287,536346111,642252287,0,0.24233432114124298,-0.26930299401283264,0,41.94361114501953
92297,536345087,642252287,0,0.24305853247642517,-0.2691080868244171,0,41.94277572631836
92307,536346110,642252287,0,0.2433452010154724,-0.26909002661705017,0,41.94188690185547
92317,536346110,642252287,0,0.24376429617404938,-0.27023249864578247,0,41.941795349121094
92327,536346111,642252287,0,0.24312527477741241,-0.27031654119491577,0,41.941917419433594
92337,536346110,642252287,0,0.24238917231559753,-0.2712218165397644,0,41.94154357910156
92347,536346111,642252287,0,0.24243488907814026,-0.2718052864074707,0,41.94221878051758
92357,536346111,642252287,0,0.24225762486457825,-0.27209508419036865,0,41.941890716552734
92367,536346111,642252287,0,0.24245142936706543,-0.2722475826740265,0,41.94091033935547
92377,536346111,642252287,0,0.24246914684772491,-0.2717970013618469,0,41.93996047973633
92387,536346111,642252287,0,0.24239657819271088,-0.27228012681007385,0,41.93973159790039
92397,536346111,642252287,0,0.24156086146831512,-0.27190783619880676,0,41.939002990722656
92407,536346111,642252287,0,0.24114742875099182,-0.2708025574684143,0,41.93886184692383
92417,536346111,642252287,0,0.2406678944826126,-0.2702603042125702,0,41.93849182128906
92427,536346111,642252287,0,0.24052518606185913,-0.2695825695991516,0,41.93825912475586
92437,536346111,642252287,0,0.2390628308057785,-0.2681572139263153,0,41.93699645996094
92447,536346111,642252287,0,0.23845654726028442,-0.2673436403274536,0,41.93683624267578
92457,536346111,642252287,0,0.23821698129177094,-0.26643288135528564,0,41.93672561645508
92467,536346111,642252287,0,0.23816651105880737,-0.2656119763851166,0,41.93656921386719
92477,536345087,642252287,0,0.23844322562217712,-0.26535624265670776,0,41.9358024597168
92487,535297535,642252287,0,0.23816673457622528,-0.26510342955589294,0,41.934791564941406
92497,536346110,642252287,0,0.23761261999607086,-0.2654268741607666,0,41.933937072753906
92507,536346110,642252287,0,0.23738203942775726,-0.2665098309516907,0,41.933990478515625
92517,536346111,642252287,0,0.2373616099357605,-0.2672210931777954,0,41.93289566040039
92527,535297535,642252287,0,0.23722593486309052,-0.2672366797924042,0,41.931800842285156
92537,535296511,642252287,0,0.2376159131526947,-0.26663899421691895,0,41.929054260253906
92547,535297535,642252287,0,0.23769615590572357,-0.26637762784957886,0,41.92837905883789
92557,536345086,642252287,0,0.23767665028572083,-0.267080694437027,0,41.9263916015625
92567,535297535,642252287,0,0.23797427117824554,-0.26714086532592773,0,41.9257698059082
92577,535297535,642252287,0,0.2380652278661728,-0.26789841055870056,0,41.923255920410156
92587,536346111,642252287,0,0.23811089992523193,-0.26783305406570435,0,41.9225959777832
92597,536346110,642252287,0,0.23830783367156982,-0.26823559403419495,0,41.921409606933594
92607,535297535,642252287,0,0.23801881074905396,-0.2686670124530792,0,41.92042541503906
92617,536346111,642252287,0,0.23740634322166443,-0.2678735554218292,0,41.91923522949219
92627,536346110,642252287,0,0.23760297894477844,-0.2684995234012604,0,41.91946792602539
92637,536346111,642252287,0,0.2367788553237915,-0.26936230063438416,0,41.918601989746094
92647,536346111,642252287,0,0.236636683344841,-0.26903635263442993,0,41.91857147216797
92657,535297535,642252287,0,0.23719383776187897,-0.2692970335483551,0,41.91788864135742
92667,535297535,642252287,0,0.23690980672836304,-0.2694759964942932,0,41.916481018066406
92677,535297535,642252287,0,0.23592892289161682,-0.26907530426979065,0,41.9146842956543
92687,536345087,642252287,0,0.23561152815818787,-0.26878368854522705,0,41.91360092163086
92697,536346111,642252287,0,0.2355424016714096,-0.2687937915325165,0,41.91292953491211
92707,536346111,642252287,0,0.23495891690254211,-0.2690056264400482,0,41.91251754760742
92717,536346111,642252287,0,0.23489327728748322,-0.2692243754863739,0,41.91175079345703
92727,535297534,642252287,0,0.2347719818353653,-0.26954561471939087,0,41.91040802001953
92737,535297535,642252287,0,0.23484349250793457,-0.27077561616897583,0,41.90822219848633
92747,536346111,642252287,0,0.23421934247016907,-0.2713474631309509,0,41.90715408325195
92757,536346111,642252287,0,0.23335033655166626,-0.2722322940826416,0,41.90683364868164
92767,536346111,642252287,0,0.23329855501651764,-0.27234163880348206,0,41.90676498413086
92777,536346110,642252287,0,0.2333371639251709,-0.27321550250053406,0,41.905609130859375
92787,536346111,642252287,0,0.23351290822029114,-0.2731536626815796,0,41.90498733520508
92797,535297535,642252287,0,0.23376592993736267,-0.2736780643463135,0,41.90425109863281
92807,535297535,642252287,0,0.23381076753139496,-0.2739284336566925,0,41.903202056884766
92817,536346111,642252287,0,0.23353998363018036,-0.2735254466533661,0,41.9022102355957
92827,536346111,642252287,0,0.23341330885887146,-0.27314087748527527,0,41.902225494384766
92837,536346111,642252287,0,0.23390308022499084,-0.2734798491001129,0,41.90087890625
92847,536346110,642252287,0,0.23396025598049164,-0.2735818922519684,0,41.90005874633789
92857,536346111,642252287,0,0.23359616100788116,-0.2740016281604767,0,41.89950942993164
92867,535297535,642252287,0,0.2329440712928772,-0.27374565601348877,0,41.89826583862305
92877,536346110,642252287,0,0.2324676513671875,-0.2743443250656128,0,41.897430419921875
92887,536346111,642252287,0,0.23240238428115845,-0.27474555373191833,0,41.89693069458008
92897,536346111,642252287,0,0.23154693841934204,-0.27447426319122314,0,41.89661407470703
92907,536346111,642252287,0,0.2315128743648529,-0.2750907838344574,0,41.89666748046875
92917,536346111,642252287,0,0.2312193512916565,-0.2753063142299652,0,41.895137786865234
92927,536346111,642252287,0,0.231143519282341,-0.27536317706108093,0,41.89414596557617
92937,536346110,642252287,0,0.23160840570926666,-0.2757345139980316,0,41.89276885986328
92947,536346111,642252287,0,0.23145145177841187,-0.2759052515029907,0,41.89205551147461
92957,535296511,642252287,0,0.2313004732131958,-0.2745567560195923,0,41.89157485961914
92967,536346111,642252287,0,0.23175698518753052,-0.2747950553894043,0,41.89060592651367
92977,536346110,642252287,0,0.2307932823896408,-0.2753660976886749,0,41.88875198364258
92987,536345086,642252287,0,0.23065133392810822,-0.27618682384490967,0,41.88835144042969
92997,536345086,642252287,0,0.2311956286430359,-0.27694177627563477,0,41.888221740722656
93007,535297535,642252287,0,0.23209798336029053,-0.27666914463043213,0,41.88814926147461
93017,536346110,642252287,0,0.23236113786697388,-0.27713537216186523,0,41.88722229003906
93027,536346111,642252287,0,0.2322816401720047,-0.27825820446014404,0,41.88701629638672
93037,536346111,642252287,0,0.23173032701015472,-0.27867600321769714,0,41.88541030883789
93047,536345087,642252287,0,0.23133574426174164,-0.27857524156570435,0,41.884979248046875
93057,536345087,642252287,0,0.23166032135486603,-0.27890288829803467,0,41.88488006591797
93067,536346111,642252287,0,0.23199445009231567,-0.2791425287723541,0,41.88454818725586
93077,536345087,642252287,0,0.23239418864250183,-0.27902093529701233,0,41.8835334777832
93087,536346111,642252287,0,0.23299169540405273,-0.2780580520629883,0,41.88270568847656
93097,536346110,642252287,0,0.23205049335956573,-0.2780259847640991,0,41.88252639770508
93107,535297534,642252287,0,0.23094542324543,-0.2786266803741455,0,41.88225555419922
93117,536346111,642252287,0,0.23031818866729736,-0.2791762948036194,0,41.88014602661133
93127,535297534,642252287,0,0.2300100028514862,-0.27930036187171936,0,41.87925720214844
93137,536346111,642252287,0,0.22891829907894135,-0.27967268228530884,0,41.877532958984375
93147,536346110,642252287,0,0.22910968959331512,-0.27913394570350647,0,41.8768424987793
93157,536346111,642252287,0,0.22948285937309265,-0.27976083755493164,0,41.8768310546875
93167,536346110,642252287,0,0.22902141511440277,-0.2802440822124481,0,41.87714767456055
93177,536346111,642252287,0,0.2290831208229065,-0.28130435943603516,0,41.875728607177734
93187,535297535,642252287,0,0.2294088453054428,-0.281416654586792,0,41.875213623046875
93197,535297535,642252287,0,0.22921089828014374,-0.28139036893844604,0,41.87287521362305
93207,536345087,642252287,0,0.2294234335422516,-0.2817593812942505,0,41.87181091308594
93217,535297534,642252287,0,0.22931145131587982,-0.28252846002578735,0,41.870426177978516
93227,536346111,642252287,0,0.22864852845668793,-0.2827709913253784,0,41.86941146850586
93237,536346111,642252287,0,0.227924183011055,-0.28185394406318665,0,41.86767578125
93247,536346111,642252287,0,0.22800619900226593,-0.28129512071609497,0,41.868316650390625
93257,536346111,642252287,0,0.22773143649101257,-0.2814096212387085,0,41.86770248413086
93267,536346111,642252287,0,0.22670239210128784,-0.28113752603530884,0,41.86746597290039
93277,536346111,642252287,0,0.22538422048091888,-0.2811479866504669,0,41.86674499511719
93287,536346111,642252287,0,0.22563251852989197,-0.2811470031738281,0,41.866641998291016
93297,536346110,642252287,0,0.22421114146709442,-0.28118249773979187,0,41.86557388305664
93307,536346110,642252287,0,0.22409023344516754,-0.28188130259513855,0,41.865699768066406
93317,535297535,642252287,0,0.2238018661737442,-0.28263893723487854,0,41.86463165283203
93327,536346111,642252287,0,0.22352837026119232,-0.2825116515159607,0,41.86355972290039
93337,536346110,642252287,0,0.22360502183437347,-0.2830444872379303,0,41.86286163330078
93347,536345086,642252287,0,0.2235480695962906,-0.28335484862327576,0,41.86202621459961
93357,535297535,642252287,0,0.22353988885879517,-0.28319743275642395,0,41.860313415527344
93367,536346110,642252287,0,0.22309596836566925,-0.282571941614151,0,41.859764099121094
93377,536346111,642252287,0,0.22409220039844513,-0.28316670656204224,0,41.8582649230957
93387,536346111,642252287,0,0.22469379007816315,-0.2828257977962494,0,41.85829162597656
93397,535297535,642252287,0,0.22434988617897034,-0.28288376331329346,0,41.85677719116211
93407,536345087,642252287,0,0.22422532737255096,-0.28253698348999023,0,41.85619354248047
93417,536346111,642252287,0,0.2244153767824173,-0.28203117847442627,0,41.85551834106445
93427,536346111,642252287,0,0.22395850718021393,-0.28161683678627014,0,41.85416793823242
93437,536346111,642252287,0,0.22410809993743896,-0.28176435828208923,0,41.85334014892578
93447,536346110,642252287,0,0.22381950914859772,-0.2826608121395111,0,41.85298538208008
93457,535297535,642252287,0,0.22403261065483093,-0.2828444540500641,0,41.85154724121094
93467,536346110,642252287,0,0.22351707518100739,-0.2832149863243103,0,41.85083770751953
93477,535297535,642252287,0,0.2218465805053711,-0.28331267833709717,0,41.8497200012207
93487,535297535,642252287,0,0.22076499462127686,-0.2824699580669403,0,41.84911346435547
93497,535297534,642252287,0,0.22072680294513702,-0.28285834193229675,0,41.84739685058594
93507,536346110,642252287,0,0.22056950628757477,-0.2836858034133911,0,41.84658432006836
93517,536346111,642252287,0,0.22031505405902863,-0.2836412787437439,0,41.845699310302734
93527,536346110,642252287,0,0.22042492032051086,-0.2839067876338959,0,41.84469223022461
93537,535297534,642252287,0,0.22105024755001068,-0.284757137298584,0,41.843875885009766
93547,535296511,642252287,0,0.22140464186668396,-0.2853547930717468,0,41.842491149902344
93557,535297535,642252287,0,0.22159545123577118,-0.2856285870075226,0,41.84125518798828
93567,536346111,642252287,0,0.22144432365894318,-0.2859545350074768,0,41.840370178222656
93577,536346111,642252287,0,0.2201738953590393,-0.2849210202693939,0,41.839332580566406
93587,536346110,642252287,0,0.21996678411960602,-0.28510063886642456,0,41.8392448425293
93597,536346110,642252287,0,0.21952766180038452,-0.28613370656967163,0,41.838951110839844
93607,536345087,642252287,0,0.21883144974708557,-0.286236971616745,0,41.83784484863281
93617,535297535,642252287,0,0.21955277025699615,-0.28580617904663086,0,41.83588409423828
93627,536346111,642252287,0,0.21946434676647186,-0.2866254150867462,0,41.834354400634766
93637,535297535,642252287,0,0.21822002530097961,-0.28629329800605774,0,41.8339729309082
93647,535297535,642252287,0,0.21806634962558746,-0.2855565547943115,0,41.83262252807617
93657,536346111,642252287,0,0.2185133397579193,-0.28526046872138977,0,41.83118438720703
93667,535297535,642252287,0,0.21765801310539246,-0.28531578183174133,0,41.83066177368164
93677,536346111,642252287,0,0.2176583707332611,-0.28547635674476624,0,41.82893753051758
93687,536346111,642252287,0,0.21807634830474854,-0.28534382581710815,0,41.82865905761719
93697,536346111,642252287,0,0.21859705448150635,-0.2854192852973938,0,41.82792282104492
93707,536346111,642252287,0,0.2184218317270279,-0.28531235456466675,0,41.827056884765625
93717,536346111,642252287,0,0.21892717480659485,-0.2850371301174164,0,41.826568603515625
93727,536346111,642252287,0,0.2185424268245697,-0.2852360010147095,0,41.826568603515625
93737,536345087,642252287,0,0.2187449187040329,-0.2850308120250702,0,41.82561492919922
93747,536346111,642252287,0,0.2189105898141861,-0.28484275937080383,0,41.825225830078125
93757,536346111,642252287,0,0.21891508996486664,-0.28383079171180725,0,41.824867248535156
93767,536346111,642252287,0,0.2181166410446167,-0.28334400057792664,0,41.82416915893555
93777,536346111,642252287,1094795585,0.21754270792007446,-0.2828406095504761,57856,41.823158264160156
93787,536346110,642252287,1094795585,0.2181539386510849,-0.28281664848327637,57856,41.82261657714844
93797,536345087,642252287,1263225675,0.2186480462551117,-0.2841951549053192,53760,41.822021484375
93807,536346111,642252287,1263225675,0.2188221663236618,-0.2844381630420685,53760,41.82147979736328
93817,536346111,642252287,1313754702,0.2169601321220398,-0.2840742766857147,4096,41.81993103027344
93827,536345086,643300863,1313754702,0.21689371764659882,-0.28429466485977173,4096,41.82123565673828
93837,536346111,642252287,1313754702,0.21662217378616333,-0.28317150473594666,4096,41.819087982177734
93847,534248960,642253311,1313754702,0.21990343928337097,-0.28703394532203674,4096,41.82062530517578
93857,534247934,642252287,1364283729,0.2193702757358551,-0.2848599851131439,19456,41.81964111328125
93867,538442237,642252288,1364283729,0.21546992659568787,-0.27779698371887207,19456,41.812374114990234
93877,538442238,643302911,1347440720,0.21503791213035583,-0.2757203280925751,47616,41.81183624267578
93887,535297535,643301886,1330597711,0.21229057013988495,-0.27336376905441284,8704,41.811927795410156
93897,536346111,639106556,1313754702,0.20261934399604797,-0.26696786284446716,28672,41.80767822265625
93907,536345086,638056957,1364283729,0.19693876802921295,-0.2679480016231537,19456,41.80634307861328
93917,538442238,647495169,1364283729,0.19746918976306915,-0.2733415365219116,19456,41.818580627441406
93927,536346111,643300861,1364283729,0.19543540477752686,-0.2710900604724884,19456,41.821014404296875
93937,538441214,640154111,1397969747,0.19854293763637543,-0.27232953906059265,35328,41.83244705200195
93947,538443263,643300863,1397969747,0.1936369240283966,-0.2759147882461548,35328,41.848941802978516
93957,540541438,644349441,1397969747,0.19618010520935059,-0.2818449139595032,35328,41.87443923950195
93967,540539391,642251263,1397969747,0.19044649600982666,-0.2799152731895447,35328,41.8997802734375
93977,543687167,646451714,1397969747,0.18325188755989075,-0.278612345457077,35328,41.95033645629883
93987,546832894,644349440,1397969747,0.18899263441562653,-0.2731052339076996,35328,41.99837112426758
93997,547879422,640154109,1448498774,0.19710424542427063,-0.2755928635597229,49664,42.085899353027344
94007,544732671,642252286,1499027801,0.18849128484725952,-0.2774728834629059,0,42.151145935058594
94017,541587967,641199617,1532713819,0.18515731394290924,-0.27752071619033813,15360,42.22107696533203
94027,540541439,641200640,1583242846,0.19136366248130798,-0.2810910940170288,31232,42.2442626953125
94037,544737790,647497224,1583242846,0.1888289749622345,-0.2839622497558594,31232,42.29016876220703
94047,545786367,644347397,1583242846,0.21081382036209106,-0.2822504937648773,31232,42.33103561401367
94057,549980670,642251268,1616928864,0.19921641051769257,-0.2894408106803894,46592,42.42352294921875
94067,549982719,655885831,1667457891,0.22625741362571716,-0.29226452112197876,61440,42.49667739868164
94077,549980671,645401095,1667457891,0.21173997223377228,-0.27976614236831665,61440,42.60599136352539
94087,552078847,646452751,1835887981,0.21630153059959412,-0.27424463629722595,57856,42.67868423461914
94097,548926975,639105542,1835887981,0.2509584128856659,-0.2535887658596039,57856,42.79490661621094
94107,546832894,643299842,1835887981,0.265639066696167,-0.268724262714386,57856,42.8598747253418
94117,542643705,641203711,1886417008,0.24887126684188843,-0.27430224418640137,8192,42.931026458740234
94127,547885566,653786616,1886417008,0.2647249400615692,-0.24557748436927795,8192,42.97536849975586
94137,544741885,654838271,1936946035,0.23339837789535522,-0.24082568287849426,22528,43.0550537109375
94147,540544513,610792972,1936946035,0.27634871006011963,-0.21671569347381592,22528,43.0880126953125
94157,538448388,643297796,2105376125,0.28811734914779663,-0.19509758055210114,19456,43.10945129394531
94167,540536307,635960833,2155905152,0.2805000841617584,-0.258661150932312,17152,43.129634857177734
94177,540539389,648544768,2240120197,0.2846499979496002,-0.2739512026309967,32768,43.16449737548828
94187,539521544,682103291,2324335242,0.29192623496055603,-0.28978002071380615,48384,43.181800842285156
94197,539474427,601361925,2374864269,0.34058406949043274,-0.22645814716815948,22784,43.19979476928711
94207,543689219,649589246,2408550287,0.3233633041381836,-0.24913515150547028,63488,43.23098373413086
94217,544739826,648542716,2408550287,0.25851646065711975,-0.31202712655067444,63488,43.29345703125
94227,543663624,641204737,2408550287,0.2716885507106781,-0.28932008147239685,63488,43.335052490234375
94237,544751094,657987066,2408550287,0.31067243218421936,-0.21827970445156097,63488,43.39181900024414
94247,543688183,645403137,2408550287,0.2966773211956024,-0.24515050649642944,63488,43.4412727355957
94257,542627331,632806919,2408550287,0.3106291890144348,-0.29412901401519775,63488,43.49644470214844
94267,541575705,623372799,2408550287,0.3404697775840759,-0.18155601620674133,63488,43.52879333496094
94277,542644732,634909181,2408550287,0.32284796237945557,-0.13888174295425415,63488,43.57717514038086
94287,541593069,624427518,2408550287,0.32768213748931885,-0.19788454473018646,63488,43.615074157714844
94297,541585902,663224833,2408550287,0.2706022262573242,-0.3016203045845032,63488,43.65532684326172
94307,541608431,638057983,2408550287,0.22759957611560822,-0.32305169105529785,63488,43.67728042602539
94317,541587959,642243078,2408550287,0.16938215494155884,-0.4365910589694977,63488,43.720863342285156
94327,542618113,650629641,2408550287,0.18675348162651062,-0.4825785756111145,63488,43.75126266479492
94337,541580815,640146953,2408550287,0.30527523159980774,-0.44696199893951416,63488,43.80371856689453
94347,538451481,653780485,2408550287,0.3481992483139038,-0.3860067129135132,63488,43.82487106323242
94357,542604793,627557894,2408550287,0.4423060119152069,-0.35608699917793274,63488,43.85989761352539
94367,541558260,612874759,2408550287,0.5835537314414978,-0.4531629681587219,63488,43.894351959228516
94377,539472364,607634950,2408550287,0.8406676054000854,-0.5989058017730713,63488,43.938289642333984
94387,542623217,616024581,2408550287,0.9577298760414124,-0.710407555103302,63488,43.96548843383789
94397,540549620,635960832,2408550287,0.9539790153503418,-0.8158082962036133,63488,44.00347137451172
94407,542657012,618123779,2408550287,0.8735358119010925,-0.8737801313400269,63488,44.035030364990234
94417,542661105,630713855,2408550287,0.7113682627677917,-1.0084165334701538,63488,44.08704376220703
94427,541613556,621268484,2408550287,0.5625608563423157,-1.0935306549072266,63488,44.117061614990234
94437,545807860,633861632,2408550287,0.3736833930015564,-1.2282967567443848,63488,44.17438888549805
94447,543705596,643305982,2459079314,0.22343628108501434,-1.286692500114441,38400,44.22052001953125
94457,544732685,633852421,2543294359,0.20831641554832458,-1.216892123222351,54016,44.290252685546875
94467,543662601,630698503,2543294359,0.25840461254119873,-1.1455073356628418,54016,44.330657958984375
94477,545762825,633844231,2543294359,0.45798495411872864,-1.0833287239074707,54016,44.40260696411133
94487,547845640,636995079,2543294359,0.6249050498008728,-1.0378910303115845,54016,44.463008880615234
94497,551030301,661120517,2543294359,0.7823058366775513,-0.9243938326835632,54016,44.57661437988281
94507,553128482,662174216,2543294359,0.8403335809707642,-0.7472720146179199,54016,44.66670608520508
94517,553125405,659035662,2543294359,0.7418875098228455,-0.5181600451469421,54016,44.80613327026367
94527,554196507,664282635,2593823386,0.7275623083114624,-0.40071824193000793,28928,44.89916229248047
94537,556279318,673719815,2593823386,0.5808271765708923,-0.1696343719959259,28928,45.05467224121094
94547,557325833,671625729,2593823386,0.5185805559158325,-0.04437706619501114,28928,45.16643524169922
94557,558354943,648551935,2644352413,0.526494562625885,0.03693905100226402,3584,45.33832550048828
94567,559414775,642248191,2644352413,0.5486946702003479,0.04949724301695824,3584,45.456459045410156
94577,560459246,647495169,2644352413,0.56899493932724,-0.033478397876024246,3584,45.64193344116211
94587,561510890,619172357,2644352413,0.5655638575553894,-0.14165174961090088,3584,45.77580642700195
94597,562556387,621260306,2644352413,0.6241648197174072,-0.40204286575317383,3584,45.983036041259766
94607,563608033,649601553,2644352413,0.6462993621826172,-0.5965347290039062,3584,46.125526428222656
94617,562559456,675832321,2678038431,0.6949973106384277,-0.8324134945869446,44032,46.342281341552734
94627,563599843,672698867,2678038431,0.7083010673522949,-0.9613309502601624,44032,46.482635498046875
94637,565688804,639103468,2678038431,0.7835121750831604,-1.1485813856124878,44032,46.71478271484375
94647,564625890,622289393,2644352413,0.8599250316619873,-1.3317621946334839,3584,46.87437057495117
94657,565667292,634868222,2678038431,1.117287278175354,-1.707546353340149,44032,47.119327545166016
94667,563568094,660071939,2678038431,1.3373396396636963,-1.9197463989257812,44032,47.285194396972656
94677,567763419,663247373,2678038431,1.6627343893051147,-2.201472759246826,44032,47.53244400024414
94687,568814043,670598667,2678038431,1.8971613645553589,-2.3588364124298096,44032,47.7080078125
94697,571955668,646450687,2678038431,2.220287322998047,-2.645738363265991,44032,47.99856185913086
94707,573001167,650647040,2678038431,2.435919761657715,-2.893873691558838,44032,48.2015266418457
94717,572996043,635937281,2678038431,2.778873920440674,-3.3229434490203857,44032,48.51981735229492
94727,574047688,661124623,2678038431,3.0382113456726074,-3.6598222255706787,44032,48.736289978027344
94737,575091144,668478993,2678038431,3.442728281021118,-4.116880416870117,44032,49.073463439941406
94747,576137675,663253503,2678038431,3.730116844177246,-4.391608715057373,44032,49.30594253540039
94757,575083980,633866736,2678038431,4.144381046295166,-4.801478862762451,44032,49.66214370727539
94767,575081930,613925364,2678038431,4.40423059463501,-5.1093645095825195,44032,49.90263748168945
94777,578227653,634887686,2678038431,4.837361812591553,-5.641122341156006,44032,50.275962829589844
94787,578226626,664272395,2678038431,5.14838981628418,-6.011088848114014,44032,50.53611755371094
94797,577174978,677925379,2678038431,5.636911869049072,-6.500675678253174,44032,50.92257308959961
94807,577166787,646469111,2678038431,5.962586402893066,-6.821079254150391,44032,51.18186950683594
94817,576113087,636995062,2678038431,6.5000224113464355,-7.328069686889648,44032,51.587215423583984
94827,579250623,610760189,2678038431,6.873785018920898,-7.760786056518555,44032,51.87448501586914
94837,579248578,648534538,2678038431,7.5065836906433105,-8.375407218933105,44032,52.327110290527344
94847,580291013,667433483,2678038431,7.971981525421143,-8.72376823425293,44032,52.638641357421875
94857,580282823,673736191,2678038431,8.694475173950195,-9.187236785888672,44032,53.1064453125
94867,580267462,638050803,2644352413,9.235594749450684,-9.51401138305664,3584,53.443843841552734
94877,581303751,616022519,2644352413,10.085738182067871,-10.070727348327637,3584,53.97601318359375
94887,581294536,617062919,2644352413,10.727691650390625,-10.455525398254395,3584,54.35724639892578
94897,584434124,641216018,2644352413,11.789258003234863,-10.996055603027344,3584,54.95893478393555
94907,582328788,642252293,2644352413,12.539017677307129,-11.281354904174805,3584,55.36776351928711
94917,585462228,645402112,2678038431,13.699666023254395,-11.733330726623535,44032,56.0145378112793
94927,585456094,629658099,2644352413,14.509211540222168,-12.025099754333496,3584,56.47351837158203
94937,584396258,631749106,2644352413,15.74986457824707,-12.454585075378418,3584,57.1921501159668
94947,586485219,625450502,2644352413,16.612897872924805,-12.748652458190918,3584,57.69065475463867
94957,585436653,634912264,2644352413,18.015037536621094,-13.153762817382812,3584,58.47134780883789
94967,587525616,641198591,2644352413,18.952896118164062,-13.379093170166016,3584,58.999698638916016
94977,586480117,646462970,2644352413,20.359460830688477,-13.694207191467285,3584,59.807491302490234
94987,587520503,630724077,2644352413,21.308866500854492,-13.883734703063965,3584,60.35708236694336
94997,587515382,619169261,2644352413,22.724897384643555,-14.222382545471191,3584,61.2209587097168
95007,587507190,598177273,2644352413,23.69129753112793,-14.53030014038086,3584,61.84424591064453
95017,591699446,642229772,2644352413,25.201175689697266,-15.030165672302246,3584,62.82539749145508
95027,591699448,659037711,2593823386,26.233186721801758,-15.337136268615723,28928,63.49136734008789
95037,593795580,668494346,2593823386,27.782672882080078,-15.730685234069824,28928,64.48847198486328
95047,593796609,646474240,2543294359,28.807165145874023,-15.982603073120117,54016,65.16719818115234
95057,592748038,613933559,2459079314,30.294273376464844,-16.37265968322754,38400,66.20592498779297
95067,595891720,605535733,2408550287,31.262643814086914,-16.681028366088867,63488,66.94426727294922
95077,595891720,610771446,2324335242,32.70095443725586,-17.233903884887695,48384,68.12635803222656
95087,597987848,619164156,2240120197,33.653472900390625,-17.598894119262695,32768,68.9305191040039
95097,597989901,629663237,2240120197,35.08618927001953,-18.13960075378418,32768,70.15250396728516
95107,591716895,629664283,2189591170,36.03342819213867,-18.477527618408203,57600,70.97311401367188
95117,551208700,706196025,2189591170,36.16096878051758,-17.511432647705078,57600,71.40838623046875
95127,522136493,677886505,2189591170,34.0908203125,-14.915261268615723,57600,70.63398742675781
95137,519983005,633853453,2189591170,30.473051071166992,-10.786310195922852,57600,69.4888687133789
95147,522123168,630710792,2189591170,27.975873947143555,-8.202956199645996,57600,68.91714477539062
95157,522095506,630709767,2189591170,24.376497268676758,-4.508006572723389,57600,68.34069061279297
95167,524194711,621272583,2189591170,21.843019485473633,-2.1203408241271973,57600,68.10333251953125
95177,523163538,618124807,2189591170,18.213834762573242,1.3370188474655151,57600,67.98033142089844
95187,586152611,686271010,2189591170,15.373726844787598,3.262946367263794,57600,68.10992431640625
95197,614464037,648531473,2189591170,9.545927047729492,3.8463692665100098,57600,69.08648681640625
95207,615512632,604497414,2189591170,5.06389045715332,4.236551761627197,57600,69.83262634277344
95217,616561223,646445561,2189591170,-1.052749752998352,4.749101638793945,57600,70.94775390625
95227,621585595,750248468,2189591170,-5.179136753082275,4.866044521331787,57600,71.72802734375
95237,623512576,729298460,2189591170,-6.839200019836426,0.5911045670509338,57600,72.5630874633789
95247,623107286,639112701,2189591170,-4.844379425048828,-1.2133249044418335,57600,73.07901763916016
95257,615658768,647494157,2189591170,-3.0137407779693604,-3.296079397201538,57600,73.83509063720703
95267,622310892,644341250,2189591170,-1.7696330547332764,-3.6146507263183594,57600,74.37052154541016
95277,625331743,652730873,2189591170,-0.8070215582847595,-3.352182388305664,57600,75.13621520996094
95287,625397283,634912251,2189591170,-0.6528181433677673,-3.127023458480835,57600,75.62652587890625
95297,628547131,657979894,2189591170,0.22875846922397614,-2.757024049758911,57600,76.41059112548828
95307,626441805,659025409,2189591170,0.5214793086051941,-2.5375986099243164,57600,76.91260528564453
95317,627573358,617077256,2189591170,0.7668961882591248,-1.801229476928711,57600,77.66527557373047
95327,630708835,607640071,2240120197,0.7581182718276978,-1.3232603073120117,32768,78.15923309326172
95337,633876068,612889088,2240120197,0.7827982306480408,-0.49506038427352905,32768,78.94062805175781
95347,636999266,656937467,2240120197,0.7493212223052979,0.05448153242468834,32768,79.46637725830078
95357,637017693,645405182,2290649224,0.7171672582626343,0.9386677145957947,7680,80.27409362792969
95367,634973832,664273413,2290649224,0.6673069596290588,1.5871423482894897,7680,80.81726837158203
95377,650829368,625464843,2290649224,-0.48928171396255493,2.3694005012512207,7680,81.73358917236328
95387,655062582,608686599,2290649224,-1.4965068101882935,2.521062135696411,7680,82.4128646850586
95397,656997825,647481867,2290649224,-2.8142168521881104,2.5888209342956543,7680,83.44288635253906
95407,655921508,668462593,2290649224,-2.95740008354187,1.8392945528030396,7680,84.10579681396484
95417,652664258,693636603,2290649224,-2.342650890350342,0.9155093431472778,7680,85.05264282226562
95427,649533961,660082178,2290649224,-2.371464252471924,0.9427576065063477,7680,85.66639709472656
95437,651694598,634908163,2324335242,-1.9285757541656494,1.0767974853515625,48384,86.59033966064453
95447,654769675,611833350,2408550287,-1.825523018836975,1.2050840854644775,63488,87.21920776367188
95457,654857754,616023552,2509608341,-1.649908185005188,1.3850631713867188,13568,88.1745376586914
95467,659011097,617079287,2543294359,-1.5126429796218872,1.5427086353302002,54016,88.82254791259766
95477,663299571,645393910,2543294359,-1.9529038667678833,1.5864901542663574,54016,89.84059143066406
95487,667445644,671607291,2543294359,-2.2363932132720947,1.2415229082107544,54016,90.55866241455078
95497,663220589,660086268,2543294359,-2.4304211139678955,0.07179167866706848,54016,91.60041809082031
95507,661128579,656947702,2543294359,-2.1679792404174805,-0.6372331976890564,54016,92.28751373291016
95517,660042143,661146108,2543294359,-2.210357427597046,-1.4563356637954712,54016,93.2900390625
95527,660099517,663243262,2543294359,-2.112332582473755,-1.846411943435669,54016,93.95819091796875
95537,659001821,661146114,2543294359,-2.074784994125366,-2.166365623474121,54016,94.95909881591797
95547,656952825,659046917,2543294359,-2.170086145401001,-2.2222750186920166,54016,95.60858917236328
95557,655879701,655899140,2543294359,-2.1233067512512207,-2.0726613998413086,54016,96.57955932617188
95567,653794862,657995269,2543294359,-2.2735729217529297,-1.8420573472976685,54016,97.2101058959961
95577,651708993,657991170,2543294359,-2.299747943878174,-1.2887115478515625,54016,98.14168548583984
95587,651706964,654837247,2593823386,-2.4841809272766113,-0.8225074410438538,28928,98.75503540039062
95597,649643622,639104508,2593823386,-2.717203140258789,0.02620496228337288,28928,99.67747497558594
95607,649624185,634908155,2593823386,-2.940020799636841,0.6936900615692139,28928,100.28939056396484
95617,648610442,630712830,2593823386,-3.360614538192749,1.8387309312820435,28928,101.21160125732422
95627,647551647,626519550,2644352413,-3.608395576477051,2.704637050628662,3584,101.82347106933594
95637,647572145,625467902,2644352413,-4.170621871948242,4.146354675292969,3584,102.75423431396484
95647,644439744,625463808,2593823386,-4.518664836883545,5.228060245513916,28928,103.37798309326172
95657,646537935,637000195,2644352413,-5.186103820800781,6.941517353057861,3584,104.33531951904297
95667,644465375,644351494,2644352413,-5.649530410766602,8.217644691467285,3584,104.98954772949219
95677,642362100,639100420,2644352413,-6.376560211181641,10.260273933410645,3584,105.99434661865234
95687,640286470,634907138,2593823386,-6.9301252365112305,11.73503589630127,28928,106.6855239868164
95697,640285461,641198590,2593823386,-7.724859237670898,14.085334777832031,28928,107.73640441894531
95707,637149992,620220927,2593823386,-8.315925598144531,15.743598937988281,28928,108.46904754638672
95717,636112697,638051838,2644352413,-9.164368629455566,18.394908905029297,3584,109.58897399902344
95727,635062087,611831294,2593823386,-9.771709442138672,20.262842178344727,28928,110.37667083740234
95737,634031957,610770440,2644352413,-10.64665412902832,23.16832160949707,3584,111.59527587890625
95747,634031970,627563020,2644352413,-11.213069915771484,25.194433212280273,3584,112.44529724121094
95757,634049391,648540677,2644352413,-12.114036560058594,28.405471801757812,3584,113.81735229492188
95767,634056571,667435521,2644352413,-12.698033332824707,30.65187644958496,3584,114.78031921386719
95777,633015174,655897082,2644352413,-13.61303997039795,34.15653610229492,3584,116.33694458007812
95787,629883790,640147959,2593823386,-14.208601951599121,36.54098129272461,28928,117.41259002685547
95797,627785620,626501111,2593823386,-15.112752914428711,40.16838073730469,28928,119.10184478759766
95807,625701787,620202494,2644352413,-15.692591667175293,42.64213943481445,3584,120.28140258789062
95817,624650148,629663242,2593823386,-16.44729232788086,46.45823287963867,28928,122.09809875488281
95827,624653228,637014543,2593823386,-16.870559692382812,49.10371017456055,28928,123.36627197265625
95837,623603631,653807115,2593823386,-17.39164924621582,53.146812438964844,28928,125.2827377319336
95847,622550964,646464000,2593823386,-17.677227020263672,55.8583984375,28928,126.57621002197266
95857,619406261,649587184,2593823386,-18.02881622314453,59.942020416259766,28928,128.50479125976562
95867,617297846,625466857,2593823386,-18.218517303466797,62.6482048034668,28928,129.76864624023438
95877,615193524,617068017,2593823386,-18.413652420043945,66.69239044189453,28928,131.6168975830078
95887,614131634,617070081,2593823386,-18.42818832397461,69.35096740722656,28928,132.7855682373047
95897,610981813,626516493,2593823386,-18.304519653320312,73.32440948486328,28928,134.47303771972656
95907,607830971,632809993,2593823386,-18.150972366333008,75.98428344726562,28928,135.54476928710938
95917,610965433,643311107,2593823386,-17.847400665283203,79.95691680908203,28928,137.08013916015625
95927,608868279,640174587,2593823386,-17.578502655029297,82.57128143310547,28928,138.05003356933594
95937,607810483,626534902,2593823386,-17.13772201538086,86.44145965576172,28928,139.4454345703125
95947,608853930,618134005,2644352413,-16.80378532409668,88.95294952392578,3584,140.3218536376953
95957,607798174,601338358,2644352413,-16.256614685058594,92.60360717773438,3584,141.53651428222656
95967,608839570,619170299,2593823386,-15.848531723022461,94.95361328125,28928,142.30047607421875
95977,610929541,623380990,2644352413,-15.157774925231934,98.32926177978516,3584,143.3233184814453
95987,610923386,633863678,2644352413,-14.644481658935547,100.48577117919922,3584,143.9498748779297
95997,610922352,631779834,2644352413,-13.859780311584473,103.59442901611328,3584,144.81163024902344
96007,611961696,628625912,2644352413,-13.317017555236816,105.57392120361328,3584,145.32882690429688
96017,611958613,617088504,2644352413,-12.486157417297363,108.40756225585938,3584,146.03268432617188
96027,614047558,587709946,2644352413,-11.933417320251465,110.22109985351562,3584,146.4464569091797
96037,612996919,605550085,2644352413,-11.059605598449707,112.80583190917969,3584,146.99594116210938
96047,616143660,621286919,2678038431,-10.436271667480469,114.43887329101562,44032,147.3387908935547
96057,617191201,631794175,2678038431,-9.485957145690918,116.74833679199219,44032,147.7917022705078
96067,618232595,617095675,2644352413,-8.858434677124023,118.20745086669922,3584,148.06031799316406
96077,618233607,606602745,2678038431,-7.917940139770508,120.29976654052734,44032,148.42071533203125
96087,619283193,599247354,2678038431,-7.2943620681762695,121.63993072509766,44032,148.6448211669922
96097,621381354,607647238,2678038431,-6.300380229949951,123.5177230834961,44032,148.94583129882812
96107,621384407,613959178,2678038431,-5.576301097869873,124.64081573486328,44032,149.13967895507812
96117,622439111,602407420,2678038431,-4.500006198883057,126.17609405517578,44032,149.4217987060547
96127,622441135,581436907,2678038431,-3.837137222290039,127.1127700805664,44032,149.6322784423828
96137,621398684,592963061,2678038431,-2.822506904602051,128.3473663330078,44032,149.95062255859375
96147,622447237,608706063,2678038431,-2.046288251876831,129.04165649414062,44032,150.1601104736328
96157,272004094,333220324,2678038431,-2.2239108085632324,139.5984344482422,44032,150.89695739746094
96167,793091070,426946243,2678038431,-2.2999839782714844,154.87179565429688,44032,151.02085876464844
96177,550675456,529531369,2678038431,-3.875541925430298,149.6172332763672,44032,148.76516723632812
96187,540169216,685095441,2644352413,-4.866985321044922,144.5791015625,3584,148.11097717285156
96197,540240896,789081649,2644352413,-7.4380950927734375,136.54747009277344,3584,145.8882293701172
96207,540040192,391692832,2644352413,-8.744653701782227,130.45431518554688,3584,144.318115234375
96217,540296192,566760955,2644352413,-10.43073844909668,121.49591827392578,3584,141.8846435546875
96227,540093440,479716835,2678038431,-11.538189888000488,115.04368591308594,44032,139.87794494628906
96237,540209152,687289872,2678038431,-12.519896507263184,105.36858367919922,44032,137.2327880859375
96247,540132352,518504976,2644352413,-12.924214363098145,98.75059509277344,3584,134.75177001953125
96257,541128704,620214800,2678038431,-13.009438514709473,88.55372619628906,44032,131.42813110351562
96267,540145664,587717131,2678038431,-12.652487754821777,81.75430297851562,44032,128.79412841796875
96277,540017664,613945863,2644352413,-11.68867301940918,71.2802734375,3584,125.00544738769531
96287,540116992,560452107,2644352413,-10.6411771774292,64.55680847167969,3584,122.66240692138672
96297,540046336,573049347,2543294359,-8.565048217773438,54.244911193847656,54016,119.25125885009766
96307,540075008,587720210,2543294359,-6.9083781242370605,47.47519302368164,54016,117.34919738769531
96317,540057600,558341642,2543294359,-3.840827226638794,37.302940368652344,54016,114.64390563964844
96327,540028928,637000199,1920103026,-1.5589581727981567,30.51504135131836,33792,113.17161560058594
96337,540024832,616044030,1903260017,2.283897876739502,20.75928497314453,55296,111.36006164550781
96347,540016640,718803462,1903260017,5.077367782592773,14.323570251464844,55296,110.50253295898438
96357,541065216,617072136,1886417008,9.468498229980469,4.7321248054504395,9728,109.80569458007812
96367,540016640,563613178,1869573999,12.536535263061523,-1.6672390699386597,31744,109.75508880615234
96377,540016640,634913280,1852730990,17.169906616210938,-11.468503952026367,57856,110.34600067138672
96387,540016640,660076047,1852730990,20.197233200073242,-18.182106018066406,19456,111.22208404541016
96397,540869954,945573455,1835887981,22.753828048706055,-25.835050582885742,39424,112.27388000488281
96407,541064190,936086101,1819044972,18.681163787841797,-20.99820899963379,2560,110.3190689086914
96417,541064190,749218339,1802201963,7.035140037536621,-14.197858810424805,27648,106.6290512084961
96427,541016742,945551861,1785358954,1.3307998180389404,-11.244221687316895,47104,105.3582763671875
96437,540692017,698061234,1785358954,-1.207977533340454,-9.573525428771973,7680,104.93557739257812
96447,540597878,624434664,1768515945,-0.6270651817321777,-8.463850975036621,25600,105.06195831298828
96457,540504676,586664461,1768515945,-1.8142032623291016,-7.310554504394531,25600,104.93060302734375
96467,540712612,602393092,1734829927,-1.661133885383606,-6.492620468139648,11264,104.97541809082031
96477,540472988,622325257,1734829927,-2.1450045108795166,-5.363000869750977,11264,104.95316314697266
96487,643501713,562558467,1717986918,-2.799722671508789,-4.615286350250244,31744,105.0813217163086
96497,717808249,630713856,1701143909,-3.294475555419922,-3.6599860191345215,55296,106.37166595458984
96507,715735649,604500482,1701143909,-4.190016269683838,-3.0024220943450928,15872,107.28060150146484
96517,720013909,677897715,1684300900,-4.844560623168945,-2.129014253616333,41472,108.71368408203125
96527,721995318,579332615,1667457891,-5.641372203826904,-1.590393304824829,62976,109.67948913574219
96537,720033328,612898296,1650614882,-6.691861629486084,-0.9063131213188171,18944,111.1377944946289
96547,722032162,597164538,1633771873,-7.286515235900879,-0.4739305377006531,43520,112.13814544677734
96557,724240944,626514430,1616928864,-8.614158630371094,0.07496340572834015,61440,113.65242767333984
96567,724187662,580393468,1616928864,-9.237838745117188,0.3951132893562317,18432,114.68389129638672
96577,727319046,598210047,1600085855,-10.608749389648438,0.7714214324951172,38912,116.25178527832031
96587,727394809,619179514,1600085855,-11.375417709350586,0.9407967329025269,38912,117.31462860107422
96597,728371692,599263744,1583242846,-12.793174743652344,1.1636126041412354,1536,118.93214416503906
96607,731600346,586678785,1566399837,-13.7297945022583,1.2436739206314087,24576,120.027099609375
96617,799556975,729501040,1549556828,-14.6643705368042,1.0685216188430786,45568,121.90901947021484
96627,911026811,691925146,1549556828,-15.587278366088867,1.6919058561325073,5632,124.02823638916016
96637,803975806,699949561,1532713819,-17.875959396362305,3.6424336433410645,23552,126.7369384765625
96647,923477554,543690300,1515870810,-19.172443389892578,4.768283367156982,47104,128.75933837890625
96657,863825471,651724224,1499027801,-20.705001831054688,6.393276691436768,1536,132.06329345703125
96667,906700263,598257121,1482184792,-22.02536392211914,7.409053325653076,25088,134.22659301757812
96677,963322362,637025757,1465341783,-23.152116775512695,8.819138526916504,45056,138.01918029785156
96687,964289958,616064478,1465341783,-23.64214324951172,9.478181838989258,512,140.6353759765625
96697,996812178,544761323,1448498774,-24.24526023864746,10.475751876831055,20480,144.78233337402344
96707,1033475479,680034796,1448498774,-24.188190460205078,11.022318840026855,20480,147.69151306152344
96717,1053422989,548929031,1431655765,-24.326440811157227,12.039786338806152,45056,152.3508758544922
96727,1051345274,634930678,1414812756,-24.3387508392334,12.609660148620605,63488,155.45626831054688
96737,1036476718,415594029,1397969747,-23.754392623901367,12.735617637634277,20480,159.85565185546875
96747,1072239879,391411338,1381126738,-23.135513305664062,12.937122344970703,40448,163.30145263671875
96757,1011425494,504763890,1364283729,-22.52862548828125,12.449785232543945,62976,168.51278686523438
96767,754474307,693445234,1364283729,-23.03135871887207,10.73231029510498,18432,168.82229614257812
96777,1071992154,558233263,1347440720,-21.057584762573242,10.67844295501709,38912,172.65121459960938
96787,992384175,578356834,1330597711,-19.871305465698242,9.869518280029297,60416,175.5314483642578
96797,770220467,632011405,1313754702,-19.078798294067383,9.352789878845215,17920,178.38375854492188
96807,808028592,682157571,1296911693,-19.02185821533203,9.630849838256836,37376,179.9335174560547
96817,757773683,641208804,1280068684,-20.01668930053711,9.362381935119629,59904,-177.78167724609375
96827,829048121,574080512,1280068684,-20.775880813598633,8.98196792602539,19968,-176.1423797607422
96837,749225165,642296300,1280068684,-20.972705841064453,7.463756561279297,19968,-173.83709716796875
96847,735562952,660134417,1263225675,-20.85306167602539,6.155851364135742,44544,-172.72364807128906
96857,732492961,641225219,1246382666,-20.842954635620117,4.0065226554870605,512,-170.9267578125
96867,710503548,592968209,1229539657,-21.15073585510254,2.300938367843628,23040,-169.84426879882812
96877,676950092,585621025,1212696648,-21.701345443725586,-0.7293541431427002,45568,-168.48092651367188
96887,629730304,610779663,1195853639,-22.086091995239258,-3.2065858840942383,65024,-167.83665466308594
96897,556280110,910648853,1195853639,-22.217716217041016,-6.984816551208496,19968,-167.37144470214844
96907,582504106,809939447,1179010630,-22.103012084960938,-6.710170745849609,43008,-167.2406005859375
96917,570960468,611822066,1162167621,-22.378931045532227,-5.8180437088012695,5120,-166.93641662597656
96927,562580983,600307184,1145324612,-22.422035217285156,-5.5490007400512695,30208,-166.77456665039062
96937,559374818,643290612,1128481603,-22.198944091796875,-5.588490962982178,51712,-166.5569305419922
96947,557336000,621279749,1128481603,-22.161272048950195,-5.760018348693848,51712,-166.42904663085938
96957,553094555,682129961,1111638594,-22.047584533691406,-6.373248100280762,39424,-166.20689392089844
96967,523736608,718789139,1094795585,-21.83317756652832,-6.4523024559021,0,-166.23892211914062
96977,547906048,620217856,1077952576,-21.689382553100586,-6.262664794921875,24576,-166.2080535888672
96987,535304704,646449663,1077952576,-21.795581817626953,-6.225367069244385,24576,-166.19134521484375
96997,524799475,643307012,1061109567,-21.65983009338379,-6.217361927032471,26624,-166.23928833007812
97007,532155890,651690503,0,-21.542997360229492,-6.270709037780762,0,-166.2770233154297
97017,538447352,660076037,0,-21.424213409423828,-6.271240234375,0,-166.25253295898438
97027,535299581,650639872,0,-21.343311309814453,-6.263247013092041,0,-166.24436950683594
97037,535299583,655883775,0,-21.25609016418457,-6.222010135650635,0,-166.2247314453125
97047,535296512,633863675,0,-21.179067611694336,-6.205220699310303,0,-166.22879028320312
97057,538437119,641203709,0,-21.080354690551758,-6.175326347351074,0,-166.21160888671875
97067,534248952,641201666,0,-21.012786865234375,-6.160273551940918,0,-166.2034454345703
97077,535298558,640157184,0,-20.89922523498535,-6.157984256744385,0,-166.19696044921875
97087,538436094,639109630,0,-20.84323501586914,-6.139177322387695,0,-166.19419860839844
97097,533203455,643301888,0,-20.73784828186035,-6.096038341522217,0,-166.17831420898438
97107,535295487,640153086,0,-20.677270889282227,-6.075504302978516,0,-166.1744384765625
97117,536348158,641205759,0,-20.583797454833984,-6.048497676849365,0,-166.16915893554688
97127,534245887,644350463,0,-20.510700225830078,-6.025913715362549,0,-166.16273498535156
97137,535300606,645400065,0,-20.413005828857422,-5.998905181884766,0,-166.16078186035156
97147,535294461,645398014,0,-20.338104248046875,-5.976658821105957,0,-166.15530395507812
97157,536349183,648542720,0,-20.233078002929688,-5.9529500007629395,0,-166.14491271972656
97167,536345088,641204735,0,-20.17814064025879,-5.931306838989258,0,-166.14158630371094
97177,535294460,642252285,0,-20.074979782104492,-5.901716232299805,0,-166.1331024169922
97187,537395710,646446590,0,-20.008283615112305,-5.890129089355469,0,-166.12620544433594
97197,536346112,643301888,0,-19.92145347595215,-5.864052772521973,0,-166.11328125
97207,535295488,640157183,0,-19.860685348510742,-5.839561939239502,0,-166.10693359375
97217,535295485,640156157,0,-19.765045166015625,-5.806097984313965,0,-166.10145568847656
97227,536346110,643300862,0,-19.702425003051758,-5.789705753326416,0,-166.096923828125
97237,536348158,644349440,0,-19.61200714111328,-5.765039920806885,0,-166.0852508544922
97247,536348159,644351489,0,-19.552791595458984,-5.746326446533203,0,-166.08026123046875
97257,536346111,643303937,0,-19.46698760986328,-5.71075439453125,0,-166.06951904296875
97267,535296511,642254336,0,-19.40609359741211,-5.68947696685791,0,-166.063720703125
97277,535297535,642253311,0,-19.315898895263672,-5.657374382019043,0,-166.05615234375
97287,535296511,640155134,0,-19.256025314331055,-5.638294696807861,0,-166.05148315429688
97297,535296512,640155133,0,-19.16656494140625,-5.609461784362793,0,-166.04673767089844
97307,534246911,641203711,0,-19.1096134185791,-5.590684413909912,0,-166.04147338867188
97317,534247936,640155134,0,-19.016847610473633,-5.563704490661621,0,-166.0378875732422
97327,535295487,641204734,0,-18.961891174316406,-5.544073104858398,0,-166.028564453125
97337,534248960,641204734,0,-18.87111473083496,-5.516655445098877,0,-166.02503967285156
97347,535298559,641204734,0,-18.814607620239258,-5.496801376342773,0,-166.02137756347656
97357,535298559,642253312,0,-18.72884178161621,-5.469058513641357,0,-166.0157012939453
97367,535298559,642254336,0,-18.66982078552246,-5.4502854347229,0,-166.009765625
97377,535298559,643301889,0,-18.586952209472656,-5.422657489776611,0,-166.0043487548828
97387,537395710,643300865,0,-18.52735137939453,-5.405879497528076,0,-166.00006103515625
97397,537394686,644348416,0,-18.441587448120117,-5.380563259124756,0,-165.99172973632812
97407,536344061,643299839,0,-18.381500244140625,-5.3633527755737305,0,-165.9903564453125
97417,534246910,642253310,0,-18.29294204711914,-5.339280128479004,0,-165.98558044433594
97427,535296512,641204734,0,-18.238508224487305,-5.321942329406738,0,-165.9801788330078
97437,536347136,642253313,0,-18.154043197631836,-5.293884754180908,0,-165.97459411621094
97447,536346111,642254337,0,-18.096220016479492,-5.276647090911865,0,-165.96987915039062
97457,537393662,643301888,0,-18.00804901123047,-5.2488932609558105,0,-165.9594268798828
97467,536345086,643300862,0,-17.951005935668945,-5.230870246887207,0,-165.9570770263672
97477,533200382,642253310,0,-17.86820411682129,-5.206491470336914,0,-165.953125
97487,535298559,642254336,0,-17.814823150634766,-5.188095569610596,0,-165.9422607421875
97497,539491839,642253313,0,-17.73140525817871,-5.15910530090332,0,-165.93411254882812
97507,535295486,642253310,0,-17.674760818481445,-5.1448540687561035,0,-165.93804931640625
97517,531103231,643301886,0,-17.59330940246582,-5.120120525360107,0,-165.93385314941406
97527,537395711,642252288,0,-17.536699295043945,-5.104969024658203,0,-165.92547607421875
97537,538442238,642253311,0,-17.45718002319336,-5.0801191329956055,0,-165.9239044189453
97547,533200383,643301886,0,-17.404041290283203,-5.062473773956299,0,-165.91949462890625
97557,534249983,643301888,0,-17.32243537902832,-5.038785934448242,0,-165.9125518798828
97567,538442238,642252287,0,-17.26976203918457,-5.023155212402344,0,-165.91290283203125
97577,535296511,642253310,0,-17.188034057617188,-4.999510288238525,0,-165.9093475341797
97587,533201407,642253312,0,-17.132951736450195,-4.982930660247803,0,-165.89869689941406
97597,538442238,642251263,0,-17.054683685302734,-4.956634521484375,0,-165.89691162109375
97607,534248959,642255358,0,-17.00338363647461,-4.9406328201293945,0,-165.89967346191406
97617,535297535,642253312,0,-16.923519134521484,-4.915627956390381,0,-165.88912963867188
97627,537393662,642252286,0,-16.871713638305664,-4.897948741912842,0,-165.89227294921875
97637,533200383,642254336,0,-16.791893005371094,-4.874207496643066,0,-165.88198852539062
97647,538442238,642251264,0,-16.737749099731445,-4.8607707023620605,0,-165.87939453125
97657,534248958,642253310,0,-16.660860061645508,-4.8356404304504395,0,-165.8785400390625
97667,536346111,642252289,0,-16.607648849487305,-4.819721221923828,0,-165.86538696289062
97677,537393662,642252285,0,-16.531476974487305,-4.797386169433594,0,-165.86781311035156
97687,533200383,642253313,0,-16.477720260620117,-4.780402660369873,0,-165.8582305908203
97697,537393662,642253311,0,-16.401172637939453,-4.757040023803711,0,-165.8577880859375
97707,534248959,642253312,0,-16.346229553222656,-4.742283821105957,0,-165.85546875
97717,536345086,642252287,0,-16.27271270751953,-4.716500282287598,0,-165.84803771972656
97727,535297535,642253311,0,-16.219886779785156,-4.703547477722168,0,-165.85154724121094
97737,536345086,642252288,0,-16.145292282104492,-4.678202152252197,0,-165.84185791015625
97747,535297535,642254335,0,-16.095478057861328,-4.664853096008301,0,-165.84352111816406
97757,535297535,642252288,0,-16.019760131835938,-4.640441417694092,0,-165.83517456054688
97767,535297534,642254335,0,-15.970466613769531,-4.6239728927612305,0,-165.8346405029297
97777,535297535,642252287,0,-15.895557403564453,-4.602768421173096,0,-165.8296356201172
97787,535297535,642253311,0,-15.846120834350586,-4.5866265296936035,0,-165.8262939453125
97797,535296510,642252287,0,-15.769854545593262,-4.565433025360107,0,-165.82347106933594
97807,535297535,642253311,0,-15.719447135925293,-4.549552917480469,0,-165.81826782226562
97817,535296510,642253311,0,-15.64480209350586,-4.528194427490234,0,-165.81582641601562
97827,536346111,642253311,0,-15.595184326171875,-4.511369228363037,0,-165.80978393554688
97837,535296510,642253311,0,-15.522366523742676,-4.490255832672119,0,-165.8085479736328
97847,536346111,642253311,0,-15.473212242126465,-4.47478723526001,0,-165.80401611328125
