Timestamp,compactImu.a_xyz,compactImu.l_xyz,motorCompact.pwms,stabilizer.pitch,stabilizer.roll,stabilizer.thrust,stabilizer.yaw
28747,537393681,632815099,2394920123,-1.220314860343933,-0.2851485013961792,34816,12.993439674377441
28750,537394710,634909176,2327550399,-1.221153974533081,-0.22723941504955292,34816,12.99660587310791
28758,537391643,633863683,2260376768,-1.2170480489730835,-0.07904399186372757,34816,13.003369331359863
28764,536344093,634909182,2327551684,-1.1979011297225952,0.08266719430685043,9216,13.006686210632324
28771,536348194,637007350,2327224009,-1.210723876953125,0.1761065125465393,9216,13.006318092346191
28774,536347171,632816125,2243272132,-1.2229238748550415,0.2726919651031494,34816,13.006897926330566
28778,535300644,626531847,2243141063,-1.2259385585784912,0.382003515958786,34816,13.007133483886719
28783,535303715,627576325,2243206853,-1.2231694459915161,0.49083617329597473,34816,13.0062255859375
28790,535301662,632814070,2310512583,-1.2630873918533325,0.6863309144973755,9216,13.001849174499512
28793,535299611,634912248,2310643398,-1.2798268795013428,0.7690290212631226,9216,13.00059986114502
28797,535300632,641205765,2360974533,-1.2841030359268188,0.8421127200126648,9216,12.99795150756836
28801,534255127,642258438,2377620680,-1.2918154001235962,0.9141662120819092,9216,12.993939399719238
28805,534256148,641206787,2343934148,-1.3054355382919312,0.9782222509384155,34816,12.98891830444336
28808,534255121,640156161,2360907969,-1.3186206817626953,1.0277398824691772,34816,12.983102798461914
28813,533204490,640156161,2377750463,-1.3296211957931519,1.065980315208435,34816,12.976731300354004
28816,533206532,647497220,2529137599,-1.341373085975647,1.082182765007019,9216,12.970328330993652
28820,533206530,649593348,2478675648,-1.3536415100097656,1.0903513431549072,9216,12.962869644165039
28825,532162043,650639871,2579271873,-1.379464030265808,1.0849885940551758,9216,12.95441722869873
28828,532158968,648543739,2512424887,-1.40158212184906,1.063534140586853,34816,12.944540977478027
28832,532157941,645399033,2529136568,-1.4221290349960327,1.035787582397461,34816,12.933337211608887
28837,531107311,640159225,2563018163,-1.437220811843872,0.9945127964019775,34816,12.921220779418945
28841,531108334,638062076,2562821558,-1.4512065649032593,0.950209379196167,34816,12.90767765045166
28845,531112428,638062080,2629732793,-1.4731254577636719,0.9035224318504333,34816,12.894834518432617
28848,530060774,640157185,2647099567,-1.4853236675262451,0.8353539705276489,34816,12.880192756652832
28852,530058723,641204737,2663942318,-1.4931285381317139,0.7555039525032043,34816,12.864599227905273
28857,529002974,638061042,2614004903,-1.4917476177215576,0.6658614873886108,34816,12.846155166625977
28860,529005024,635964913,2663876782,-1.5007274150848389,0.5805200934410095,34816,12.826949119567871
28864,529006048,634916340,2680653998,-1.5104622840881348,0.4978630244731903,34816,12.80684757232666
28869,527956449,637009400,2680719533,-1.5156954526901245,0.4133894145488739,34816,12.787003517150879
28872,527957473,639105531,2664008108,-1.5170226097106934,0.32768991589546204,34816,12.766033172607422
28879,526903776,639100395,2647559078,-1.5172770023345947,0.23138809204101562,34816,12.743010520935059
28882,526903777,638053868,2680785579,-1.5225276947021484,0.14207495748996735,34816,12.718035697937012
28886,526899684,635963907,2597228198,-1.5018635988235474,0.061555974185466766,34816,12.693714141845703
28893,525854185,634914313,2630389163,-1.4376652240753174,-0.07077120989561081,34816,12.643189430236816
28896,525853164,627572222,2580058283,-1.4162691831588745,-0.12573657929897308,34816,12.616179466247559
28901,525852142,627573240,2596835498,-1.3994433879852295,-0.17245066165924072,34816,12.587784767150879
28904,524802544,630718968,2580058794,-1.3799331188201904,-0.21262381970882416,34816,12.558837890625
28908,524802550,634914297,2529465517,-1.3594176769256592,-0.23717756569385529,34816,12.52891731262207
28913,524804601,635962873,2546177198,-1.3403089046478271,-0.25208327174186707,34816,12.498085975646973
28916,523756026,634912241,2546242733,-1.3318941593170166,-0.2655664086341858,34816,12.466379165649414
28920,523756030,635958768,2495715248,-1.323837399482727,-0.2683841288089752,34816,12.434385299682617
28925,524802562,631770622,2462357933,-1.2999963760375977,-0.2623803913593292,34816,12.404159545898438
28928,523757063,631773700,2461768118,-1.2771108150482178,-0.23285309970378876,34816,12.372624397277832
28933,523760136,632820228,2478676147,-1.2576500177383423,-0.2007036954164505,34816,12.34084415435791
28936,523758091,626526715,2428345524,-1.2462352514266968,-0.16285187005996704,34816,12.3093900680542
28940,523758096,627576311,2394529463,-1.2406985759735107,-0.11030970513820648,34816,12.277399063110352
28945,523762195,631769592,2428017848,-1.2401801347732544,-0.05349709838628769,34816,12.244543075561523
28948,523763220,634914297,2427886778,-1.244895339012146,0.008350210264325142,34816,12.21253490447998
28952,523764245,635963898,2427887034,-1.2508105039596558,0.07356241345405579,34816,12.180992126464844
28956,523763223,634911218,2377555898,-1.2607477903366089,0.13916601240634918,34816,12.148131370544434
28960,523765272,637004274,2427690429,-1.2786997556686401,0.20363494753837585,34816,12.116386413574219
28965,524814871,639104503,2427755708,-1.2967842817306519,0.26781871914863586,34816,12.085235595703125
28968,524814868,639106554,2444663994,-1.3104549646377563,0.3275725245475769,34816,12.054523468017578
28972,524815892,639107579,2427755964,-1.323228120803833,0.38810279965400696,34816,12.023984909057617
28977,524818962,631765496,2461113022,-1.3488956689834595,0.44503292441368103,34816,11.992887496948242
28980,524819984,631765496,2494863803,-1.3764452934265137,0.49261826276779175,34816,11.963090896606445
28984,524818960,633862649,2461244348,-1.401631474494934,0.5393216013908386,34816,11.932181358337402
28989,524817932,639104507,2478217657,-1.4200427532196045,0.5756155252456665,34816,11.901185035705566
28992,523769356,639105533,2478152378,-1.4368958473205566,0.6099825501441956,34816,11.869650840759277
28997,523772424,645394940,2578683323,-1.465114712715149,0.6334478855133057,34816,11.837912559509277
29000,523771398,645394940,2579077562,-1.4894217252731323,0.6492373943328857,9216,11.806234359741211
29004,523769346,643298811,2595985848,-1.509427547454834,0.6564574241638184,9216,11.774227142333984
29009,523771392,640159228,2612697273,-1.5296099185943604,0.6627449989318848,9216,11.741425514221191
29012,523770367,640159228,2595788214,-1.5503462553024292,0.6643115878105164,34816,11.707773208618164
29016,523775482,642260486,2696384183,-1.5758112668991089,0.6557453274726868,34816,11.676597595214844
29021,523768309,641210888,2596312238,-1.5790876150131226,0.6346230506896973,34816,11.64428997039795
29024,523766258,639112710,2646643118,-1.5785999298095703,0.6018364429473877,34816,11.61121654510498
29029,523765231,637011459,2680131758,-1.580655574798584,0.5580960512161255,34816,11.577441215515137
29034,523761130,640157188,2680131758,-1.5843851566314697,0.5099438428878784,34816,11.543702125549316
29038,523763178,643305993,2680524712,-1.5721435546875,0.4531060457229614,34816,11.511649131774902
29045,523769323,631770627,2747108528,-1.5694526433944702,0.3429865837097168,34816,11.446381568908691
29048,523765224,624432639,2781319339,-1.5740199089050293,0.2826637923717499,9216,11.4122953414917
29055,522704357,624431606,2764673449,-1.5722559690475464,0.2167588174343109,9216,11.377738952636719
29062,523754982,633865718,2747896488,-1.5375516414642334,0.07750009000301361,9216,11.309226989746094
29067,523757031,635962885,2730988458,-1.5188422203063965,0.014778037555515766,9216,11.276237487792969
29070,523756008,638059015,2714210213,-1.4933738708496094,-0.051041290163993835,34816,11.24312686920166
29075,523754989,640157195,2647102373,-1.4618852138519287,-0.10999745875597,34816,11.209368705749512
29078,523756013,644353550,2714080684,-1.4299677610397339,-0.15606214106082916,9216,11.176291465759277
29082,522706415,645403147,2714277289,-1.3986374139785767,-0.198824942111969,9216,11.141993522644043
29087,523757044,637019669,2646972844,-1.3617347478866577,-0.22531484067440033,9216,11.108231544494629
29091,523756021,633871889,2697303723,-1.323904275894165,-0.24617674946784973,9216,11.074183464050293
29094,522708471,629674502,2663880873,-1.2859662771224976,-0.26711541414260864,9216,11.040224075317383
29099,523757050,631765493,2646972844,-1.2686794996261597,-0.28606724739074707,9216,11.006010055541992
29102,523757052,633861618,2579536044,-1.262067198753357,-0.297412633895874,34816,10.973604202270508
29107,524805633,640157184,2562758827,-1.249534249305725,-0.3007027506828308,34816,10.942680358886719
29111,524805636,641207811,2545851054,-1.2309612035751343,-0.2896840572357178,34816,10.911836624145508
29114,524806663,640158211,2562694833,-1.2109917402267456,-0.26861563324928284,9216,10.880206108093262
29119,524808714,642253313,2562629299,-1.1941885948181152,-0.24015064537525177,9216,10.849801063537598
29121,524809739,641204736,2562498229,-1.185625672340393,-0.20521856844425201,9216,10.820245742797852
29124,524807692,644351493,2512298418,-1.1669150590896606,-0.16553619503974915,9216,10.79106330871582
29128,525859343,647500300,2545524664,-1.1519932746887207,-0.11509089171886444,9216,10.762855529785156
29133,525862417,646451719,2528812983,-1.1424667835235596,-0.06137377768754959,9216,10.735255241394043
29136,525864468,645399036,2528419772,-1.1557867527008057,-0.0017316637095063925,9216,10.707586288452148
29142,525864467,642251255,2545459129,-1.173979640007019,0.053636692464351654,9216,10.681492805480957
29144,526910996,645396986,2478351033,-1.1842159032821655,0.11245125532150269,9216,10.656519889831543
29148,526915093,649593344,2528419773,-1.1981837749481201,0.17602922022342682,9216,10.632121086120605
29153,526918165,648544768,2528485565,-1.21396005153656,0.24031473696231842,9216,10.607867240905762
29162,526919189,646445557,2511577279,-1.2850698232650757,0.35992181301116943,9216,10.559569358825684
29164,526914064,643300852,2545655735,-1.3088399171829224,0.40738290548324585,9216,10.535762786865234
29168,527966736,639107576,2578685119,-1.3405102491378784,0.45690229535102844,9216,10.513733863830566
29177,527972876,627578373,2645661633,-1.4160820245742798,0.5522475838661194,9216,10.47277545928955
29180,527969801,627578374,2612632249,-1.4419490098953247,0.5862075686454773,9216,10.452876091003418
29185,529018376,632819202,2612304318,-1.4736459255218506,0.6182366609573364,9216,10.43349552154541
29188,529017350,637012479,2629408954,-1.5030187368392944,0.6384909749031067,9216,10.41518783569336
29191,529017348,639107582,2629408954,-1.5030187368392944,0.6384909749031067,9216,10.41518783569336
29195,529015296,642253309,2646251448,-1.5299981832504272,0.6458886861801147,9216,10.39724349975586
29197,529014270,642253307,2663094200,-1.5561152696609497,0.6456308960914612,9216,10.378630638122559
29200,529013244,643301882,2646448054,-1.5774977207183838,0.6386484503746033,9216,10.36111831665039
29204,530061818,642254331,2680001974,-1.5983048677444458,0.6255694031715393,9216,10.343931198120117
29209,530058742,640157180,2680198578,-1.6122198104858398,0.602747917175293,9216,10.326521873474121
29212,529009142,639108605,2663356083,-1.6198111772537231,0.578642725944519,9216,10.30901050567627
29217,530053619,645399043,2680460719,-1.6132900714874268,0.5435185432434082,9216,10.29299545288086
29220,530053618,646445572,2680264113,-1.606103777885437,0.5062317252159119,9216,10.276250839233398
29224,530050544,646443522,2680591789,-1.5916200876235962,0.4605639576911926,9216,10.259973526000977
29229,530047471,644348414,2647037869,-1.5726256370544434,0.41459470987319946,9216,10.244269371032715
29232,530047471,644349437,2663814829,-1.553575038909912,0.36891454458236694,9216,10.228286743164062
29236,530044396,639108594,2664142504,-1.5353177785873413,0.31731560826301575,9216,10.211933135986328
29242,531092974,638061041,2647103404,-1.5194628238677979,0.2725081145763397,9216,10.197257995605469
29244,531096045,634920442,2663682218,-1.5040462017059326,0.23064623773097992,34816,10.185445785522461
29248,532142572,631779845,2613613479,-1.4720579385757446,0.19182048738002777,34816,10.174149513244629
29253,531091948,632824323,2613613478,-1.4342467784881592,0.14913184940814972,34816,10.162501335144043
29261,531089904,635956718,2680920749,-1.3845086097717285,0.05810771510004997,49920,10.134934425354004
29264,531089905,639104496,2664209324,-1.3612791299819946,0.018328992649912834,49920,10.121505737304688
29268,531090931,640156150,2647366573,-1.333276391029358,-0.013515276834368706,49920,10.108563423156738
29273,531091958,640156153,2647366574,-1.3048169612884521,-0.040437810122966766,49920,10.095870971679688
29276,531091962,635958773,2815798462,-1.2808878421783447,-0.05666019022464752,55552,10.082209587097168
29280,531092985,637005301,2866325691,-1.2593247890472412,-0.07737177610397339,55552,10.070239067077637
29285,532143611,640153081,2849417661,-1.2381994724273682,-0.09219445288181305,55552,10.05931568145752
29288,532143613,641203707,2882973123,-1.2198230028152466,-0.09587150812149048,30720,10.048439979553223
29293,532147711,642254331,2883038658,-1.2023966312408447,-0.09410454332828522,30720,10.037920951843262
29296,532151809,642252277,2932910792,-1.2091867923736572,-0.08670274913311005,30720,10.027021408081055
29300,532149764,642250229,2849222342,-1.2127315998077393,-0.07316116243600845,30720,10.017200469970703
29305,533199363,644349432,2882841797,-1.2149885892868042,-0.06015676259994507,30720,10.008166313171387
29308,533201414,644350458,2882579657,-1.221996545791626,-0.039053384214639664,30720,9.999720573425293
29312,533203464,644352507,2865737163,-1.2337981462478638,-0.009873529896140099,30720,9.991679191589355
29317,533209610,643301876,2915805902,-1.26455819606781,0.022269681096076965,30720,9.983904838562012
29320,533209610,644349428,2848696521,-1.296648383140564,0.05381809547543526,55552,9.9761381149292
29325,533210632,645399032,2882315977,-1.328726887702942,0.08002188056707382,55552,9.969259262084961
29328,533213702,645400058,2982979277,-1.3673838376998901,0.10225974768400192,30720,9.961902618408203
29332,533215750,645400059,2966136526,-1.41080904006958,0.1245998665690422,30720,9.953560829162598
29337,533215751,647492083,2949359822,-1.4599502086639404,0.1445770412683487,30720,9.94488525390625
29340,533216771,648540659,3033375693,-1.5149332284927368,0.1539776474237442,30720,9.937434196472168
29345,533218820,648542711,2982913487,-1.5683538913726807,0.16565807163715363,30720,9.930704116821289
29348,533219843,648541690,3033179087,-1.6231813430786133,0.17540407180786133,30720,9.923563003540039
29352,533218815,648541692,3066994892,-1.675626277923584,0.1733056604862213,30720,9.916726112365723
29357,533219838,653787633,3066929613,-1.735564112663269,0.16944590210914612,30720,9.90944766998291
29360,533218815,653788657,3033244623,-1.7960090637207031,0.17191363871097565,30720,9.902727127075195
29364,533217792,652741108,3033244623,-1.8513824939727783,0.17737063765525818,30720,9.895563125610352
29369,533215741,650642937,3050217932,-1.8992295265197754,0.175665482878685,30720,9.888446807861328
29372,533214718,649594362,3016598476,-1.9396127462387085,0.17470276355743408,30720,9.881052017211914
29376,533210622,644351483,2999952587,-1.9699089527130127,0.17337322235107422,30720,9.873818397521973
29381,533211645,644350460,3033440972,-2.0001275539398193,0.16992852091789246,30720,9.866996765136719
29384,533209598,645400061,2999887052,-2.025242328643799,0.17041991651058197,30720,9.860881805419922
29389,534254077,646450684,2983306441,-2.0417094230651855,0.16834700107574463,30720,9.855292320251465
29392,534253054,647498236,2966464202,-2.0533225536346436,0.16915744543075562,30720,9.849431991577148
29396,534247932,653788673,2933237701,-2.046830892562866,0.16414853930473328,30720,9.844693183898926
29401,534247935,656934401,2932844491,-2.041430950164795,0.16687630116939545,30720,9.840239524841309
29405,534245888,653789694,2899487177,-2.0315866470336914,0.1735934466123581,30720,9.8367919921875
29409,535290369,651691518,2882841287,-2.013896942138672,0.1810944676399231,30720,9.833992958068848
29412,535289345,651690493,2866064071,-1.990683674812317,0.18754394352436066,30720,9.832300186157227
29416,535282178,649593349,2782441411,-1.9421627521514893,0.19589515030384064,30720,9.830438613891602
29425,536331779,649592319,2799021767,-1.8559200763702393,0.22178207337856293,30720,9.82961654663086
29428,536329731,650639867,2799218373,-1.8128083944320679,0.23302297294139862,30720,9.830020904541016
29433,536329730,652737019,2782441157,-1.7678134441375732,0.2435394525527954,30720,9.831320762634277
29441,536326658,654835201,2732241346,-1.6664174795150757,0.25921210646629333,30720,9.83352279663086
29445,536325634,653787647,2765729987,-1.6087497472763062,0.26904788613319397,30720,9.833853721618652
29448,536326659,652740094,2765664452,-1.5536359548568726,0.2810988426208496,30720,9.834071159362793
29453,536326659,650641918,2765729732,-1.500883936882019,0.2923731207847595,30720,9.834610939025879
29456,536326659,650636798,2732175811,-1.4460331201553345,0.30140185356140137,30720,9.83542251586914
29459,536328706,650635774,2732175811,-1.4460331201553345,0.30140185356140137,30720,9.83542251586914
29462,536329730,651683325,2782441157,-1.4000872373580933,0.30660778284072876,30720,9.836782455444336
29466,537381375,654836230,2816191426,-1.353614091873169,0.3032100796699524,30720,9.839705467224121
29474,537384444,654839294,2799349187,-1.2689182758331299,0.30924180150032043,30720,9.846290588378906
29476,536333820,654840310,2832968386,-1.2426719665527344,0.30453094840049744,30720,9.848421096801758
29480,536336892,654841328,2832772037,-1.2280323505401611,0.30173632502555847,30720,9.849157333374023
29484,536337915,653791730,2849679812,-1.2154462337493896,0.29479512572288513,30720,9.85054874420166
29489,536340985,652739064,2883233987,-1.203410267829895,0.28058290481567383,30720,9.85183334350586
29494,537391608,656932347,2866391493,-1.1928352117538452,0.2661779224872589,30720,9.853266716003418
29497,537394681,661128700,2933368006,-1.1935014724731445,0.24848568439483643,30720,9.855963706970215
29500,537395705,661129725,2899814087,-1.197689175605774,0.23550750315189362,30720,9.858621597290039
29504,536350199,659030526,2966921926,-1.2082966566085815,0.21530590951442719,30720,9.860815048217773
29509,536351224,655883774,2933368007,-1.2204641103744507,0.19465291500091553,30720,9.862918853759766
29512,536352246,654836221,2966921927,-1.2380582094192505,0.17165464162826538,30720,9.865201950073242
29516,536355322,639108615,2933040332,-1.2533494234085083,0.16064868867397308,30720,9.867233276367188
29521,537405942,637010441,3034029768,-1.273102879524231,0.13729658722877502,30720,9.87109661102295
29524,537406968,641204742,2983502282,-1.2994191646575928,0.11749396473169327,30720,9.874078750610352
29529,537409014,647496193,3017121481,-1.332036018371582,0.09336209297180176,30720,9.87767219543457
29531,537407990,648544768,3017121481,-1.332036018371582,0.09336209297180176,30720,9.87767219543457
29539,537410040,652740086,3067190221,-1.4245132207870483,0.04695706069469452,30720,9.885048866271973
29541,537409017,652740086,2966725067,-1.4700710773468018,0.0316384956240654,30720,9.88914680480957
29544,537409018,650642937,2983436492,-1.5121726989746094,0.021220223978161812,30720,9.893587112426758
29548,537409018,646448638,3000278988,-1.5496827363967896,0.01012516301125288,30720,9.897971153259277
29552,537407994,647497215,3000213452,-1.5860211849212646,0.0003540311590768397,30720,9.902591705322266
29554,537401850,649594363,3000213452,-1.5860211849212646,0.0003540311590768397,30720,9.902591705322266
29557,537402876,652739066,2916590792,-1.6089400053024292,-0.0076255411840975285,30720,9.906533241271973
29561,537404924,653785594,3000147661,-1.640714168548584,-0.016495192423462868,30720,9.911108016967773
29564,537405948,659027448,3000278988,-1.6745045185089111,-0.027150286361575127,30720,9.915576934814453
29568,537401852,667420141,2933302217,-1.7039339542388916,-0.03235718607902527,30720,9.920206069946289
29573,537399807,667421166,2899485901,-1.7309380769729614,-0.02553878165781498,30720,9.92441177368164
29576,537396736,668470772,2883036617,-1.7410975694656372,-0.01970040053129196,30720,9.92906665802002
29580,537395715,664275450,2865997517,-1.746780514717102,-0.004116942640393972,30720,9.933877944946289
29585,538442245,656934398,2849351627,-1.7451931238174438,0.013882908038794994,30720,9.939207077026367
29589,538439174,653788670,2849154766,-1.7348713874816895,0.03650401905179024,30720,9.945108413696289
29593,538439176,650642942,2832508877,-1.7224370241165161,0.061184532940387726,30720,9.951231956481934
29596,537389577,646447616,2848958417,-1.7070401906967163,0.09136632829904556,30720,9.956233978271484
29599,538436105,645398016,2848958417,-1.7070401906967163,0.09136632829904556,30720,9.956233978271484
29604,538430985,648542721,2798625996,-1.646737813949585,0.14711304008960724,55552,9.967904090881348
29606,538430986,651689475,2798625996,-1.646737813949585,0.14711304008960724,55552,9.967904090881348
29609,538432012,652740099,2748164047,-1.6083463430404663,0.18564945459365845,55552,9.974459648132324
29613,538433036,652741120,2765006542,-1.5730392932891846,0.22744442522525787,55552,9.981425285339355
29616,538430985,657980920,2798756811,-1.544277548789978,0.2557388246059418,55552,9.988724708557129
29620,538427915,660074998,2698095052,-1.508224368095398,0.28731033205986023,55552,9.995899200439453
29625,538427916,655882743,2714872012,-1.4686919450759888,0.320457398891449,55552,10.003085136413574
29628,538427915,653786617,2765006287,-1.4294699430465698,0.3548310399055481,55552,10.009944915771484
29631,538426890,653786619,2765006287,-1.4294699430465698,0.3548310399055481,55552,10.009944915771484
29635,539472394,652739067,2731648972,-1.3849979639053345,0.38701581954956055,55552,10.017934799194336
29637,539472394,652739067,2731583437,-1.3321197032928467,0.41921067237854004,55552,10.025812149047852
29640,539470345,652738044,2714937547,-1.2757142782211304,0.44895726442337036,55552,10.033992767333984
29644,539471369,652738045,2714806221,-1.2203043699264526,0.4782625734806061,55552,10.041494369506836
29648,539470346,651689469,2681317836,-1.1624308824539185,0.5090740323066711,55552,10.049583435058594
29650,539469322,650641917,2681317836,-1.1624308824539185,0.5090740323066711,55552,10.049583435058594
29654,539468297,650641916,2664606412,-1.101133108139038,0.5412108302116394,55552,10.05870532989502
29659,539469321,650640892,2681514186,-1.037619709968567,0.5679362416267395,55552,10.068309783935547
29661,539470345,650640892,2681317582,-0.9791991710662842,0.5965148210525513,55552,10.077900886535645
29665,539470340,646448628,2731779531,-0.930114209651947,0.615859866142273,55552,10.086360931396484
29668,539469316,644353521,2731779787,-0.8803111910820007,0.6339094638824463,55552,10.095280647277832
29671,539469317,644353522,2731779787,-0.8803111910820007,0.6339094638824463,55552,10.095280647277832
29675,539471364,646448631,2698225611,-0.8285239338874817,0.6523465514183044,55552,10.104018211364746
29678,539471362,648544761,2748490956,-0.7789400815963745,0.664412260055542,55552,10.112039566040039
29680,539472386,648545786,2698356681,-0.7293572425842285,0.6739662885665894,55552,10.120818138122559
29685,539472384,648545788,2715133386,-0.6792989373207092,0.6805067658424377,55552,10.130098342895508
29689,540520960,649592317,2698421961,-0.6257839202880859,0.6833856105804443,55552,10.14030647277832
29692,540520959,650639870,2799085262,-0.5721006393432617,0.6830262541770935,30720,10.150811195373535
29696,540527102,650638842,2849284817,-0.5379675030708313,0.6786287426948547,30720,10.161858558654785
29700,539473405,649590266,2681907397,-0.49145352840423584,0.671258270740509,55552,10.171384811401367
29703,539471355,650639865,2681907397,-0.49145352840423584,0.671258270740509,55552,10.171384811401367
29705,540517882,649593340,2715592132,-0.4354415833950043,0.6565338373184204,55552,10.181581497192383
29708,540520954,649594366,2732106696,-0.3824859857559204,0.6446587443351746,55552,10.193098068237305
29712,540524026,648546814,2799018187,-0.3371562659740448,0.6327372193336487,55552,10.204383850097656
29714,540524026,648545787,2799018187,-0.3371562659740448,0.6327372193336487,55552,10.204383850097656
29718,540524024,650641912,2765660616,-0.29705387353897095,0.6159312725067139,55552,10.216676712036133
29722,540524025,651690489,2765660617,-0.2590290307998657,0.5982935428619385,55552,10.229528427124023
29725,540528122,652735999,2765464012,-0.22251765429973602,0.5837666988372803,55552,10.241287231445312
29728,540528121,652734978,2799148746,-0.187006875872612,0.5631330609321594,55552,10.25355339050293
29733,541575670,651687424,2782568391,-0.14798294007778168,0.5381549596786499,55552,10.266550064086914
29735,541576694,650642942,2782568391,-0.14798294007778168,0.5381549596786499,55552,10.266550064086914
29738,540529143,649596412,2815991497,-0.11727410554885864,0.515483558177948,55552,10.279695510864258
29743,540530167,648547834,2782371786,-0.08856892585754395,0.49696773290634155,55552,10.292328834533691
29745,540529143,648545780,2765791431,-0.06718716025352478,0.4764464199542999,55552,10.303964614868164
29748,540529144,648543729,2765660361,-0.04898161441087723,0.4565868377685547,55552,10.315766334533691
29751,540531193,649592306,2765660361,-0.04898161441087723,0.4565868377685547,55552,10.315766334533691
29755,539483643,646449654,2782372042,-0.03348403051495552,0.43998342752456665,55552,10.326827049255371
29757,539483643,646449655,2765463756,-0.01907053217291832,0.43070653080940247,55552,10.336729049682617
29760,539483644,647496187,2765529547,-0.0018976889550685883,0.4230426251888275,55552,10.345742225646973
29765,539484670,649593341,2748686796,0.015263649635016918,0.4200831949710846,55552,10.354740142822266
29767,539484671,648544765,2748686796,0.015263649635016918,0.4200831949710846,55552,10.354740142822266
29771,539484672,648544765,2514661311,0.031681764870882034,0.4214678406715393,55552,10.363066673278809
29774,538437122,650640893,2631575751,0.04801195487380028,0.4254886209964752,55552,10.371094703674316
29776,538437123,650641916,2597956552,0.061340540647506714,0.43752992153167725,55552,10.377542495727539
29779,538438148,650640892,2597956552,0.061340540647506714,0.43752992153167725,55552,10.377542495727539
29783,538439172,650640892,2614667977,0.0707692801952362,0.4525626599788666,55552,10.383244514465332
29786,538439173,649593342,2631510472,0.0783654972910881,0.4672088623046875,55552,10.389642715454102
29788,538441222,648544766,2614536907,0.08164436370134354,0.48796719312667847,55552,10.394685745239258
29791,537394695,649594366,2614536907,0.08164436370134354,0.48796719312667847,55552,10.394685745239258
29795,538445319,649595389,2631182796,0.0774955302476883,0.5129138231277466,55552,10.399117469787598
29798,538447368,649594365,2647959501,0.0660710483789444,0.5375876426696777,55552,10.404751777648926
29800,537399815,650641917,2664671182,0.048311762511730194,0.561339259147644,55552,10.409612655639648
29803,537400839,651688445,2664671182,0.048311762511730194,0.561339259147644,55552,10.409612655639648
29807,537403913,649592316,2647828686,0.02671157941222191,0.5858592987060547,55552,10.413899421691895
29810,537405960,649593339,2681317072,-0.0036363909021019936,0.6124234199523926,55552,10.418097496032715
29813,537406982,651690492,2698028497,-0.04128333181142807,0.6375913023948669,55552,10.422030448913574
29817,537408005,653789697,2731713487,-0.07809557765722275,0.6560430526733398,55552,10.426346778869629
29821,537410053,651692545,2714739666,-0.12004809081554413,0.6762533783912659,55552,10.430232048034668
29826,536364549,649594368,2748162771,-0.17137904465198517,0.6963036060333252,55552,10.432811737060547
29829,536366597,648546815,2748228306,-0.22610174119472504,0.7143619060516357,55552,10.43429946899414
29832,536367620,647498238,2781716691,-0.2874271869659424,0.729445219039917,55552,10.435614585876465
29837,535319043,641205767,2764874451,-0.3407045900821686,0.7455639839172363,55552,10.435565948486328
29840,535320065,642253319,2815336146,-0.39629611372947693,0.7517896294593811,55552,10.435358047485352
29842,535321089,642252294,2815336146,-0.39629611372947693,0.7517896294593811,55552,10.435358047485352
29846,535321086,654835203,2815401681,-0.45365023612976074,0.7524733543395996,55552,10.435693740844727
29849,535322110,657980929,2848824787,-0.5180127024650574,0.7501822113990784,55552,10.435256004333496
29851,535322110,657980928,2848824787,-0.5180127024650574,0.7501822113990784,55552,10.435256004333496
29854,535323133,656932348,2832047571,-0.5848022103309631,0.7473308444023132,55552,10.434370040893555
29862,535320058,649593335,2865732817,-0.7254742383956909,0.729819655418396,55552,10.430559158325195
29865,535321084,641205757,2848824531,-0.7925906777381897,0.7215845584869385,55552,10.4288969039917
29867,535320059,639107584,2848824531,-0.7925906777381897,0.7215845584869385,55552,10.4288969039917
29871,534269433,641203714,2865732817,-0.850354790687561,0.7094369530677795,55552,10.426026344299316
29874,533215732,644350459,2882640846,-0.9029971361160278,0.6885077953338623,55552,10.421520233154297
29877,533215734,647498229,2849349322,-0.9492956399917603,0.6637406349182129,55552,10.415218353271484
29879,533216759,648546805,2849349322,-0.9492956399917603,0.6637406349182129,55552,10.415218353271484
29883,533216759,648544760,2882575567,-1.0012632608413696,0.6405898928642273,55552,10.409114837646484
29886,533216761,649589248,2865536467,-1.0534604787826538,0.6242492198944092,55552,10.402726173400879
29889,533210613,649589251,2832572106,-1.0841223001480103,0.5973387360572815,55552,10.395830154418945
29893,533205491,650639873,2832703176,-1.1021614074707031,0.5659891366958618,55552,10.389359474182129
29895,533201392,654835200,2832703176,-1.1021614074707031,0.5659891366958618,55552,10.389359474182129
29899,533203444,657980927,2833031107,-1.1059168577194214,0.5252390503883362,55552,10.38272476196289
29902,534252021,657980926,2798952651,-1.112165927886963,0.49549439549446106,55552,10.376601219177246
29905,533207541,653787638,2865863886,-1.135905385017395,0.47097650170326233,55552,10.370512008666992
29907,533203445,649592308,2865863886,-1.135905385017395,0.47097650170326233,55552,10.370512008666992
29911,533198325,647494132,2799346117,-1.1479966640472412,0.4408262372016907,55552,10.362992286682129
29914,533196278,648541686,2782503621,-1.149449348449707,0.41073644161224365,55552,10.354514122009277
29917,532145655,648542713,2732107207,-1.139663815498352,0.38871970772743225,55552,10.344949722290039
29919,532144632,648543738,2732107207,-1.139663815498352,0.38871970772743225,55552,10.344949722290039
29923,532141560,647495162,2749015236,-1.1217628717422485,0.36727026104927063,55552,10.334736824035645
29926,533187066,650639863,2681972931,-1.093110203742981,0.34933456778526306,55552,10.32557487487793
29931,533189116,650640888,2614601411,-1.0615721940994263,0.3392718732357025,15616,10.317947387695312
29934,532138492,650640891,2664867012,-1.0331099033355713,0.3319455087184906,15616,10.30903148651123
29937,532137469,649592316,2648221121,-0.9987392425537109,0.32368502020835876,15616,10.299208641052246
29939,532137469,649592316,2648221121,-0.9987392425537109,0.32368502020835876,15616,10.299208641052246
29943,532138493,649594364,2580849855,-0.9611914753913879,0.3199756145477295,40448,10.288439750671387
29947,532139518,652744188,2631180736,-0.9311054944992065,0.3155454099178314,40448,10.278107643127441
29950,532138496,651694589,2530255550,-0.8999193906784058,0.32030728459358215,0,10.26783561706543
29953,532139519,651692539,2530255550,-0.8686351180076599,0.3260473310947418,0,10.256743431091309
29955,532139518,651691511,2530255550,-0.8686351180076599,0.3260473310947418,0,10.256743431091309
29959,531090945,649594352,2530452155,-0.8411222100257874,0.3265456557273865,0,10.24449634552002
29962,531091969,649595376,2530124480,-0.8236300349235535,0.3343907296657562,0,10.2321138381958
29965,531094025,635962878,2446043075,-0.800223708152771,0.3613053560256958,0,10.218548774719238
29969,531098118,632815110,2546639555,-0.776703417301178,0.38502606749534607,0,10.204504013061523
29971,531098117,632815111,2546639555,-0.776703417301178,0.38502606749534607,0,10.204504013061523
29975,531095041,647492099,2529926589,-0.7563362121582031,0.3988555371761322,24832,10.191057205200195
29978,531099140,654832128,2496503739,-0.7375263571739197,0.40504100918769836,24832,10.178606033325195
29981,531102213,655880702,2512821955,-0.7342685461044312,0.41977807879447937,24832,10.166053771972656
29983,531104262,655881725,2512821955,-0.7342685461044312,0.41977807879447937,24832,10.166053771972656
29987,530058757,652738043,2495847360,-0.7406678795814514,0.43724098801612854,49920,10.152185440063477
29992,531108355,649592316,2529466815,-0.774559497833252,0.46290990710258484,49920,10.123687744140625
29995,531110403,646448638,2529466815,-0.774559497833252,0.46290990710258484,49920,10.123687744140625
29998,530062852,645400063,2529335744,-0.7942093014717102,0.47827979922294617,49920,10.10930061340332
30001,530063876,645400063,2545981634,-0.8198155760765076,0.49540460109710693,49920,10.093170166015625
30003,530064900,644351487,2545981634,-0.8198155760765076,0.49540460109710693,49920,10.093170166015625
30007,530066948,644351485,2478543548,-0.8509695529937744,0.5109584331512451,34816,10.07702350616455
30010,530067971,643302908,2461701053,-0.8854120969772339,0.527573823928833,34816,10.060891151428223
30013,530068996,641205759,2495320508,-0.923487663269043,0.5395362973213196,34816,10.044363021850586
30018,530070020,638055946,2410909887,-0.9573135375976562,0.5591866374015808,59648,10.028071403503418
30021,530068993,639104521,2478542007,-0.9861699938774109,0.5613082051277161,59648,10.013113975524902
30024,530070015,640154116,2394130357,-1.0225615501403809,0.5602676272392273,44032,9.997100830078125
30027,530068990,641202689,2394130357,-1.0225615501403809,0.5602676272392273,44032,9.997100830078125
30030,530068990,642250238,2394196147,-1.0595111846923828,0.5550869703292847,44032,9.9806547164917
30035,529020414,642251261,2377288117,-1.097133755683899,0.5526577830314636,44032,9.963478088378906
30038,529019391,642253309,2309915310,-1.1356614828109741,0.5490984320640564,28928,9.94581413269043
30041,529018368,642254333,2276295856,-1.1715303659439087,0.5518075823783875,28928,9.927809715270996
30043,529018368,641205756,2276295856,-1.1715303659439087,0.5518075823783875,28928,9.927809715270996
30048,529018368,639108604,2242609580,-1.2410322427749634,0.5615924596786499,54016,9.892205238342285
30051,529016320,638059005,2242609580,-1.2410322427749634,0.5615924596786499,54016,9.892205238342285
30054,529015296,638059006,2225832619,-1.268929362297058,0.5649941563606262,54016,9.873470306396484
30057,529013245,639105534,2242871720,-1.289856195449829,0.5591997504234314,54016,9.855798721313477
30059,529012220,639105533,2242871720,-1.289856195449829,0.5591997504234314,54016,9.855798721313477
30063,529012222,639105533,2023847324,-1.3079684972763062,0.5504404902458191,48384,9.837645530700684
30066,529009148,635961846,2007004573,-1.326599359512329,0.5442896485328674,48384,9.81820011138916
30069,529008126,633866740,1973581978,-1.3425155878067017,0.5419363975524902,48384,9.798320770263672
30072,529007105,632817141,1805087382,-1.3550678491592407,0.5477062463760376,57600,9.779182434082031
30075,530058751,632820219,1805087382,-1.3550678491592407,0.5477062463760376,57600,9.779182434082031
30078,529007104,632821246,1888971926,-1.3681695461273193,0.5521352887153625,57600,9.762666702270508
30081,529004034,632820224,1552770949,-1.3627972602844238,0.561378002166748,38400,9.743863105773926
30083,529001986,631769600,1552770949,-1.3627972602844238,0.561378002166748,38400,9.743863105773926
30087,528999939,630721023,1535928454,-1.3492377996444702,0.574176013469696,38400,9.72355842590332
30092,528997892,631766525,1451845250,-1.3071520328521729,0.6022821664810181,33792,9.683744430541992
30095,528995842,629674499,1451845250,-1.3071520328521729,0.6022821664810181,33792,9.683744430541992
30098,528994821,628625925,1485661310,-1.2735183238983154,0.6137433052062988,33792,9.664410591125488
30102,528993798,627575299,1401448835,-1.2368478775024414,0.6371368765830994,33792,9.646354675292969
30107,528996870,628627971,1418290817,-1.201751470565796,0.6609445810317993,54784,9.628032684326172
30110,528991751,628624898,1401579392,-1.1633778810501099,0.6867492198944092,54784,9.60949993133545
30113,528989705,627575297,1300851838,-1.1158164739608765,0.7160646319389343,16896,9.589272499084473
30115,527943179,624427516,1300851838,-1.1158164739608765,0.7160646319389343,16896,9.589272499084473
30119,527941131,620228086,1350920834,-1.0840097665786743,0.7481486201286316,16896,9.56705379486084
30122,527940109,618130934,1300852094,-1.047405481338501,0.7777515649795532,16896,9.545101165771484
30125,527938062,613936630,1250324095,-1.006333589553833,0.8130179643630981,40960,9.52324104309082
30127,527937037,610789879,1250324095,-1.006333589553833,0.8130179643630981,40960,9.52324104309082
30131,527938062,612889079,1267297660,-0.9606773853302002,0.8425803184509277,40960,9.500965118408203
30134,527938062,613936633,1250324351,-0.915506899356842,0.8817025423049927,40960,9.478639602661133
30138,527938060,616037884,1250389372,-0.8666787147521973,0.9161245226860046,1536,9.456027030944824
30143,526890511,616036860,1233546877,-0.8167259693145752,0.9540959596633911,1536,9.432928085327148
30146,526891534,617088511,1199796093,-0.767853319644928,0.9974009394645691,28160,9.408761978149414
30149,526891535,617089535,1199796093,-0.7178512811660767,1.046367883682251,28160,9.384425163269043
30153,526891535,617088511,1199796093,-0.6691613793373108,1.0937416553497314,28160,9.359084129333496
30156,526894607,617089536,1216376190,-0.6291136145591736,1.1410835981369019,49664,9.33336353302002
30159,525846033,618138110,1216376190,-0.6291136145591736,1.1410835981369019,49664,9.33336353302002
30162,525846033,617088509,1182756991,-0.5947303771972656,1.1939669847488403,49664,9.30618953704834
30166,525848080,610798079,1182822525,-0.5593568682670593,1.2442182302474976,49664,9.278838157653809
30170,525851150,609749502,1249996158,-0.5300477743148804,1.2899150848388672,57856,9.250626564025879
30173,524803597,609747454,1266642303,-0.5092779397964478,1.3282155990600586,57856,9.221160888671875
30176,524807689,607653376,1316973183,-0.4958668649196625,1.361350655555725,57856,9.191884994506836
30179,524807690,607655425,1316973183,-0.4958668649196625,1.361350655555725,57856,9.191884994506836
30182,524808715,607654400,1266576768,-0.48436638712882996,1.3999135494232178,57856,9.16189956665039
30186,523763208,610800126,1300130943,-0.47827935218811035,1.434246301651001,57856,9.130699157714844
30190,523765254,611847676,1350330752,-0.4857211410999298,1.4632649421691895,57856,9.098270416259766
30194,523766276,611847676,1367173247,-0.4990300238132477,1.4829683303833008,57856,9.06601619720459
30198,522720772,617093632,1367173503,-0.5097946524620056,1.5009045600891113,57856,9.032052040100098
30202,522724866,617091583,1417242498,-0.5334938168525696,1.5186070203781128,57856,8.996583938598633
30205,522725887,614993407,1450927232,-0.5636508464813232,1.525007724761963,57856,8.961997032165527
30208,522726909,611845630,1518232962,-0.6001945734024048,1.5202642679214478,8192,8.928364753723145
30212,522728955,608698878,1551721603,-0.6428455710411072,1.5073800086975098,8192,8.893562316894531
30216,522730999,618137088,1602118274,-0.6883900165557861,1.4864416122436523,8192,8.858691215515137
30220,522734071,621282817,1601987204,-0.7393501996994019,1.4631301164627075,8192,8.82390022277832
30224,522735094,617086463,1618698628,-0.7959076762199402,1.4366329908370972,8192,8.788640022277832
30228,521688563,605547004,1736401029,-0.8636172413825989,1.3931940793991089,22528,8.752278327941895
30232,521691632,601352700,1786666629,-0.9396023750305176,1.34123694896698,22528,8.715156555175781
30236,521693676,600304125,1820285828,-1.0193636417388916,1.2788572311401367,22528,8.677504539489746
30240,521693675,602403326,1803509124,-1.0957454442977905,1.2173879146575928,22528,8.640212059020996
30244,521693675,604502526,1803508868,-1.1720770597457886,1.1578707695007324,22528,8.603401184082031
30248,521694698,606600701,1853840004,-1.2527108192443848,1.0964347124099731,22528,8.566476821899414
30252,521694696,607650301,1870682499,-1.3334022760391235,1.0310031175613403,22528,8.528749465942383
30256,521694694,610796031,1887524993,-1.4100421667099,0.9590578675270081,22528,8.491055488586426
30260,521692645,611845631,1887525250,-1.4831104278564453,0.887562096118927,22528,8.45297622680664
30264,521692646,610796030,1887394179,-1.5564897060394287,0.818501889705658,22528,8.41441535949707
30268,520643045,613940730,1921079425,-1.6323808431625366,0.7447874546051025,22528,8.375052452087402
30272,520640995,612894202,1954962048,-1.7014845609664917,0.6669514179229736,38400,8.335810661315918
30276,521689572,610798078,1954765443,-1.765364646911621,0.593883216381073,38400,8.2975492477417
30280,521687524,607652351,1971673729,-1.823147177696228,0.520861029624939,38400,8.258549690246582
30284,520635877,606602751,1988714370,-1.8723680973052979,0.4482939541339874,53760,8.218704223632812
30288,520633829,607651325,1988714370,-1.9175478219985962,0.3767084777355194,53760,8.178389549255371
30292,520630758,608700924,1955225985,-1.955466389656067,0.309250146150589,53760,8.138588905334473
30296,521674213,607650304,2039703170,-1.9750678539276123,0.2377704381942749,19456,8.099714279174805
30300,521673192,608698881,2022729605,-1.9888986349105835,0.17170441150665283,19456,8.060502052307129
30304,520622570,608698881,2090167946,-1.9978153705596924,0.11338626593351364,57600,8.020352363586426
30308,520619501,608697856,2056679561,-2.000084161758423,0.06075874716043472,57600,7.980337619781494
30312,520617454,609747454,2073456777,-2.0002782344818115,0.01292448677122593,57600,7.940013408660889
30316,520616434,605552128,2157738899,-1.9943405389785767,-0.02411474660038948,48384,7.8995842933654785
30320,520612341,603453953,2107539088,-1.975130319595337,-0.053965725004673004,48384,7.858190536499023
30324,520611319,604503551,2124185233,-1.9543544054031372,-0.07687727361917496,48384,7.815961837768555
30328,519560698,606600701,2174846358,-1.9320964813232422,-0.09202240407466888,63488,7.773082256317139
30332,520606204,609745404,2141358229,-1.9033823013305664,-0.1017824113368988,63488,7.731604099273682
30336,520605183,611843580,2259259806,-1.8697391748428345,-0.10297801345586777,54016,7.690389156341553
30340,520603137,612893180,2242482846,-1.8322328329086304,-0.0980255976319313,54016,7.649438381195068
30344,520602115,616037884,2208928926,-1.7913566827774048,-0.08654278516769409,54016,7.609190464019775
30348,520601095,625474042,2259458981,-1.750825047492981,-0.06617839634418488,3584,7.568978786468506
30352,520601097,626521595,2259458981,-1.7100104093551636,-0.041856952011585236,3584,7.52889347076416
30356,520603147,623377915,2259328167,-1.6719003915786743,-0.008528008125722408,3584,7.488827228546143
30360,521651723,620232188,2309922473,-1.6337645053863525,0.02516845427453518,44032,7.450317859649658
30364,521651726,618136061,2276237483,-1.5959844589233398,0.06704267114400864,44032,7.412938117980957
30368,521652750,618135037,2292948907,-1.5619800090789795,0.1089964285492897,44032,7.375378131866455
30372,522703374,620232189,2393941168,-1.5313692092895508,0.15128350257873535,59648,7.338356971740723
30379,522707469,622326267,2410521523,-1.5123988389968872,0.19459404051303864,59648,7.301352500915527
30382,522708492,623375867,2545461944,-1.4946587085723877,0.22920486330986023,49920,7.265622138977051
30386,522710537,624424443,2579015864,-1.481322169303894,0.25751662254333496,49920,7.230509281158447
30390,523762183,625473020,2612504249,-1.4745808839797974,0.28042376041412354,49920,7.196173667907715
30394,523764229,626524669,2629215418,-1.4758875370025635,0.30042916536331177,49920,7.162695407867432
30398,524813827,626523644,2865017286,-1.48102867603302,0.3130834400653839,55552,7.1299967765808105
30402,524816897,627572220,2915413702,-1.4928572177886963,0.32052740454673767,55552,7.099505424499512
30406,524819968,623376893,2949034442,-1.5106611251831055,0.32407346367836,30720,7.069585800170898
30410,525870589,625473022,2999365066,-1.5350427627563477,0.32030755281448364,30720,7.041845798492432
30413,525872635,625471999,3016142027,-1.5653584003448486,0.3090599477291107,30720,7.0153937339782715
30416,526923256,628618751,3083315402,-1.602750301361084,0.28757333755493164,30720,6.9903998374938965
30420,526925301,632815101,3100157641,-1.6471389532089233,0.2581937313079834,30720,6.967339038848877
30424,527974898,633865724,3116934601,-1.695411205291748,0.2240908294916153,30720,6.945008277893066
30428,527976943,635961852,3167265737,-1.7482678890228271,0.18089523911476135,30720,6.923529624938965
30432,529026541,638057981,3184107977,-1.803939700126648,0.13072443008422852,30720,6.903615474700928
30436,529026537,640156157,3217792967,-1.860617995262146,0.07052252441644669,30720,6.884478569030762
30440,529026537,640156157,3184173256,-1.916821002960205,0.01138353906571865,30720,6.866610050201416
30444,530075112,641204732,3217858247,-1.9723104238510132,-0.052486807107925415,30720,6.8509440422058105
30448,531120613,642252284,3218054596,-2.0215115547180176,-0.12539902329444885,30720,6.836747646331787
30452,531120614,643299837,3217923782,-2.068199396133423,-0.19730138778686523,30720,6.823612689971924
30456,531120614,643300862,3217923526,-2.1133627891540527,-0.2671016454696655,30720,6.810969352722168
30460,531118567,643300862,3201212101,-2.1527156829833984,-0.3348066806793213,30720,6.798727512359619
30464,532164071,645396991,3184566212,-2.183497667312622,-0.4010045826435089,30720,6.788122177124023
30468,532161000,648541693,3167920323,-2.2064831256866455,-0.4668165147304535,30720,6.7787065505981445
30472,533203435,649592316,3084100802,-2.2151458263397217,-0.5224726796150208,30720,6.771063327789307
30476,534244846,649595403,3000412351,-2.1899819374084473,-0.5673055052757263,30720,6.765453815460205
30480,534245870,648547856,3100877762,-2.1641812324523926,-0.6111324429512024,30720,6.760473251342773
30484,534242799,648547851,3033900736,-2.133807897567749,-0.6512238383293152,30720,6.7566046714782715
30488,535288307,648545798,2966792897,-2.0990850925445557,-0.6820733547210693,30720,6.75377082824707
30492,535284215,648543745,2916396482,-2.0598976612091064,-0.7012383341789246,30720,6.752197742462158
30496,535283193,649593343,2916461761,-2.0175604820251465,-0.7144305109977722,30720,6.751106262207031
30500,536328701,649593340,2866130881,-1.969773530960083,-0.7183477282524109,30720,6.751406669616699
30504,536324609,649593339,2799088577,-1.9116079807281494,-0.7111491560935974,30720,6.7525506019592285
30508,536321537,651688444,2799219391,-1.8460451364517212,-0.703579843044281,30720,6.755426406860352
30512,536321541,652735996,2765469122,-1.7777055501937866,-0.6869521141052246,30720,6.758225917816162
30516,537369097,652737021,2731915203,-1.7065114974975586,-0.6587026119232178,30720,6.761922359466553
30520,537368075,652739068,2715137987,-1.6346319913864136,-0.6231017708778381,30720,6.767039775848389
30524,538415626,652739068,2715269057,-1.559306025505066,-0.5880388021469116,30720,6.773593902587891
30528,538415631,652738045,2647898822,-1.4846291542053223,-0.5405706167221069,30720,6.781002521514893
30532,539466255,653786621,2681518277,-1.4141252040863037,-0.4929908514022827,30720,6.789644241333008
30536,538419728,653787645,2681452742,-1.3494473695755005,-0.4424966275691986,30720,6.797835350036621
30540,539468305,652738044,2664675782,-1.2870862483978271,-0.39035114645957947,30720,6.806572914123535
30544,539471378,652738042,2664609992,-1.2321871519088745,-0.3368641138076782,30720,6.816473484039307
30548,540522001,652739055,2681386696,-1.192840814590454,-0.2847592234611511,30720,6.827709674835205
30552,540524050,652740079,2664478667,-1.160352349281311,-0.22839677333831787,30720,6.838802337646484
30556,539476500,647495161,2597107657,-1.1225308179855347,-0.16723725199699402,55552,6.849431991577148
30561,540532240,645396993,2714546121,-1.0948532819747925,-0.11857293546199799,55552,6.860238075256348
30564,540535310,647494146,2731323082,-1.076216220855713,-0.07759636640548706,55552,6.872066974639893
30568,540536333,650638849,2697768906,-1.0626440048217773,-0.038886796683073044,55552,6.884189128875732
30572,540541453,653785599,2747903437,-1.0633987188339233,0.0005720785120502114,55552,6.896872043609619
30576,540545546,653787644,2764547786,-1.0800273418426514,0.03317152336239815,15616,6.909380912780762
30580,540547591,652740091,2764613321,-1.10288667678833,0.0582670122385025,15616,6.922487735748291
30584,540545541,652737020,2731255750,-1.1193162202835083,0.07472048699855804,15616,6.935922622680664
30588,540546562,652733955,2781586886,-1.1304948329925537,0.08011177182197571,15616,6.94869327545166
30592,540553728,652734980,2881855436,-1.162209391593933,0.0828646868467331,15616,6.960845947265625
30596,540561918,654832125,2898303180,-1.2222801446914673,0.07910987734794617,40448,6.973813056945801
30600,540559869,654832120,2814746055,-1.2789992094039917,0.0730302706360817,40448,6.986193656921387
30604,540557819,654833144,2848365510,-1.3319618701934814,0.06099682301282883,40448,6.999233245849609
30608,540558841,651689469,2865142471,-1.381343960762024,0.04624481126666069,40448,7.012362480163574
30612,541609464,650641918,2848101830,-1.4359644651412964,0.029405171051621437,0,7.026540756225586
30616,541607418,647496186,2797770950,-1.4903219938278198,0.016391271725296974,0,7.040665149688721
30620,542653944,648544760,2814744515,-1.540000557899475,-0.0013543098466470838,0,7.057228088378906
30624,541605366,650641914,2831521220,-1.587066411972046,-0.0235108844935894,0,7.0735344886779785
30628,541605365,656930307,2848298180,-1.627282977104187,-0.05213922634720802,0,7.089682579040527
30632,541602293,656929285,2814875330,-1.6587703227996826,-0.0819815918803215,0,7.105075359344482
30636,541598196,655881726,2781518015,-1.6822266578674316,-0.11263351887464523,0,7.120689392089844
30640,541597177,652738042,2697107394,-1.7077831029891968,-0.1285797655582428,24832,7.135613918304443
30644,541598203,650640891,2713819075,-1.7342711687088013,-0.13691021502017975,24832,7.1505255699157715
30648,541595130,646447614,2714080958,-1.7509714365005493,-0.14804694056510925,24832,7.1657257080078125
30652,541590009,645401086,2664077754,-1.7518682479858398,-0.1619340032339096,24832,7.180799961090088
30655,541581815,645403127,2664077754,-1.7518682479858398,-0.1619340032339096,24832,7.180799961090088
30658,541580794,645404147,2580455349,-1.7318339347839355,-0.17427077889442444,24832,7.1942315101623535
30662,541580799,646449653,2596576704,-1.7193318605422974,-0.17255496978759766,24832,7.209023475646973
30666,542630406,642251264,2512559550,-1.70352041721344,-0.15980330109596252,49920,7.224803447723389
30670,542624257,642249221,2496044474,-1.669485330581665,-0.15038250386714935,49920,7.24264669418335
30674,542622210,645394947,2395117747,-1.6272521018981934,-0.14206166565418243,34816,7.259973526000977
30678,541571587,657975804,2361891758,-1.5738403797149658,-0.1395133137702942,34816,7.276273727416992
30682,541570567,660072955,2361301943,-1.5302304029464722,-0.12434930354356766,34816,7.292337894439697
30686,541576713,657976830,2243598257,-1.4868627786636353,-0.10169139504432678,19200,7.308188438415527
30690,540521992,652737023,2260441008,-1.4416770935058594,-0.07535477727651596,19200,7.322790145874023
30694,540520968,650642941,2210241197,-1.388487696647644,-0.04660947993397713,19200,7.3356194496154785
30698,541568521,652742136,2193397417,-1.3354830741882324,-0.021249720826745033,44032,7.349189281463623
30702,540519949,650644984,2109184942,-1.2827061414718628,0.019425824284553528,44032,7.36283016204834
30706,540521996,645402105,2142804142,-1.2327218055725098,0.062316976487636566,44032,7.376072883605957
30710,540519948,641206778,2142869676,-1.183569312095642,0.10199569910764694,44032,7.388958930969238
30714,540518924,640158202,2126092716,-1.132946252822876,0.14084142446517944,44032,7.4015212059021
30718,540518926,634915325,2025627562,-1.0674974918365479,0.18588806688785553,44032,7.413318157196045
30722,539474447,635961855,2125830576,-1.0149554014205933,0.2324097901582718,44032,7.423900127410889
30726,540529170,634911235,2108988081,-0.9708078503608704,0.28241053223609924,44032,7.434564113616943
30730,539480591,638056962,2159253683,-0.936163067817688,0.33007997274398804,44032,7.445332050323486
30734,539479565,641200638,2142673072,-0.9060270190238953,0.3716549873352051,44032,7.455310344696045
30738,539479561,649586165,2092801192,-0.8642281293869019,0.3979734182357788,44032,7.464323043823242
30742,539484681,648541686,2209584306,-0.8471280932426453,0.4237365424633026,44032,7.474430561065674
30746,539489803,650640900,2176095922,-0.8346660733222961,0.45399200916290283,44032,7.484297752380371
30750,539490822,648543754,2243203762,-0.8212653994560242,0.478649765253067,44032,7.494070053100586
30754,539491846,646445576,2192740526,-0.8093765377998352,0.4981178343296051,3584,7.5028276443481445
30758,538445315,647490040,2192740526,-0.8112950325012207,0.5105236172676086,3584,7.5103302001953125
30762,538449409,644346356,2259782831,-0.8300082683563232,0.5149276256561279,3584,7.518125057220459
30766,539499008,650641917,2259717552,-0.8538104891777039,0.519852340221405,3584,7.525451183319092
30770,538451454,650643969,2276559791,-0.8735820055007935,0.5211066007614136,3584,7.5327229499816895
30773,538453502,649596417,2310048432,-0.8995295763015747,0.5213607549667358,3584,7.538260459899902
30776,537405949,646448632,2310048431,-0.9352301359176636,0.5170323252677917,3584,7.5418596267700195
30780,537406970,640155124,2343667886,-0.9775287508964539,0.5043527483940125,3584,7.545357704162598
30784,537405945,638057973,2343733677,-1.016685962677002,0.48759669065475464,3584,7.5482282638549805
30788,537404919,633864700,2343798956,-1.0479000806808472,0.46718311309814453,3584,7.5512871742248535
30792,536361462,633865728,2427421616,-1.0892304182052612,0.4439573884010315,3584,7.553844928741455
30795,537414136,630723077,2427421616,-1.0892304182052612,0.4439573884010315,3584,7.553844928741455
30799,536363512,628624903,2410316981,-1.1368741989135742,0.4330567419528961,3584,7.5572943687438965
30802,536363510,629670406,2377287596,-1.1720407009124756,0.41298311948776245,3584,7.558055877685547
30806,535310837,629665271,2410710447,-1.2133331298828125,0.3869567811489105,3584,7.557891368865967
30810,536359410,630712817,2410907051,-1.2640478610992432,0.34998971223831177,3584,7.557400226593018
30814,536357361,632809971,2444460972,-1.314931035041809,0.30759984254837036,3584,7.557001113891602
30818,535306737,638055937,2360903590,-1.3349746465682983,0.262914776802063,3584,7.557300090789795
30822,535308785,640156166,2444264366,-1.358471155166626,0.2256874442100525,3584,7.556288242340088
30826,535310836,633866759,2444395436,-1.3838026523590088,0.19089967012405396,3584,7.555408000946045
30830,535306739,629671428,2410841516,-1.4069560766220093,0.16172519326210022,3584,7.553928375244141
30834,535303667,628621824,2394261161,-1.4248441457748413,0.12896782159805298,3584,7.551414489746094
30842,535298549,625474037,2360772776,-1.4468892812728882,0.06729606539011002,3584,7.544844627380371
30846,535295477,631768574,2360773032,-1.4532368183135986,0.039242055267095566,3584,7.5422821044921875
30850,534247928,637012482,2327218856,-1.4458024501800537,0.018566157668828964,3584,7.539299964904785
30854,534249976,638062083,2343799466,-1.4396957159042358,0.003803132800385356,3584,7.534488201141357
30858,534247931,640155135,2360576426,-1.4379569292068481,-0.010123989544808865,3584,7.529870986938477
30862,533196285,640155132,2260045736,-1.4273779392242432,-0.019106941297650337,3584,7.5239973068237305
30866,533190139,641201655,2293665447,-1.4140042066574097,-0.027749376371502876,3584,7.516603946685791
30870,533192191,639105527,2243400102,-1.3958394527435303,-0.03382978215813637,3584,7.508882522583008
30874,533192192,640155130,2243137706,-1.3797663450241089,-0.029736286029219627,3584,7.502054214477539
30878,534240770,644356612,2260111272,-1.3538624048233032,-0.023342177271842957,3584,7.497114181518555
30882,533192198,642261510,2192610476,-1.3251335620880127,0.0035730621311813593,3584,7.49062442779541
30885,533196295,642258436,2226229932,-1.3000924587249756,0.03355895355343819,3584,7.482964038848877
30889,533193223,640159228,2209518507,-1.2804279327392578,0.0607762411236763,3584,7.4763569831848145
30892,533191176,637011450,2176029865,-1.258842945098877,0.08781424164772034,3584,7.469457149505615
30895,533188103,638057974,2176029865,-1.258842945098877,0.08781424164772034,3584,7.469457149505615
30900,533190153,642250228,2175899052,-1.2109488248825073,0.136515811085701,3584,7.453880786895752
30902,533191177,641199605,2175899052,-1.2109488248825073,0.136515811085701,3584,7.453880786895752
30905,533193224,648542715,2209452971,-1.193642258644104,0.16049212217330933,3584,7.4463019371032715
30910,533192201,653788675,2192676011,-1.1699872016906738,0.18923844397068024,3584,7.439265251159668
30912,533192202,650641924,2142344875,-1.1424875259399414,0.22034598886966705,3584,7.432948589324951
30915,533195274,652738047,2142344875,-1.1424875259399414,0.22034598886966705,3584,7.432948589324951
30918,533195274,652735994,2226099118,-1.13112211227417,0.2490461766719818,3584,7.4248833656311035
30922,533196298,645395959,2175899051,-1.120272159576416,0.2762264907360077,3584,7.417480945587158
30924,533197322,642252280,2192413871,-1.1167163848876953,0.3087869882583618,3584,7.410181999206543
30927,533197321,639106553,2192413871,-1.1167163848876953,0.3087869882583618,3584,7.410181999206543
30931,533199369,635958779,2209387436,-1.1135895252227783,0.33555397391319275,3584,7.40308141708374
30933,533199369,635958779,2226033326,-1.1149539947509766,0.36102554202079773,3584,7.394966125488281
30936,533205510,639111682,2309721521,-1.126532793045044,0.38631510734558105,3584,7.387574672698975
30939,533204486,640162309,2309721521,-1.126532793045044,0.38631510734558105,3584,7.387574672698975
30942,533202437,639112708,2226098861,-1.1301099061965942,0.4128093719482422,3584,7.3800458908081055
30946,533209603,637013500,2310050481,-1.1391773223876953,0.43480125069618225,44032,7.3722920417785645
30950,533206527,634914295,2377289391,-1.1616618633270264,0.4420612156391144,44032,7.364619255065918
30954,532157950,633862645,2360512687,-1.1869646310806274,0.44145384430885315,44032,7.356113433837891
30958,533206525,633859570,2326957226,-1.2130943536758423,0.4293227195739746,3584,7.346911430358887
30962,533206526,634909172,2309918126,-1.2409803867340088,0.42059996724128723,3584,7.339201927185059
30966,533209592,644348412,2343603116,-1.2663488388061523,0.40752696990966797,3584,7.332131862640381
30970,532161017,645402113,2410711212,-1.2903437614440918,0.38945886492729187,3584,7.323599815368652
30974,532161017,644352514,2343537836,-1.3103277683258057,0.37765225768089294,3584,7.3144330978393555
30978,532162041,640156156,2427357357,-1.3415026664733887,0.3603578507900238,3584,7.304124355316162
30982,531112440,637010425,2377157547,-1.3706207275390625,0.3429258167743683,3584,7.292771339416504
30986,531109366,631765494,2393934506,-1.3984637260437012,0.32138296961784363,3584,7.279999732971191
30990,531111416,629669366,2427686317,-1.4263571500778198,0.29998230934143066,44032,7.2670207023620605
30994,531111415,632813048,2444332206,-1.4565625190734863,0.27955877780914307,44032,7.254269599914551
30998,531111414,638060031,2478017197,-1.4812573194503784,0.25470107793807983,44032,7.242740154266357
31002,531110389,639107586,2410777001,-1.4995907545089722,0.22905944287776947,3584,7.230698108673096
31006,532156915,638059009,2410908071,-1.5116738080978394,0.19813580811023712,3584,7.219171047210693
31010,532155891,635962878,2410907815,-1.5216920375823975,0.16628742218017578,3584,7.208386421203613
