Timestamp,compactImu.a_xyz,compactImu.l_xyz,motorCompact.pwms,stabilizer.pitch,stabilizer.roll,stabilizer.thrust,stabilizer.yaw
33630,536346111,641203712,0,0.023508787155151367,0.20655763149261475,0,37.823307037353516
33640,536346111,641203712,0,0.0237137284129858,0.2058265060186386,0,37.82324981689453
33650,536346111,641203711,0,0.023573849350214005,0.20664165914058685,0,37.82364273071289
33660,535297535,641203711,0,0.02397765778005123,0.206719309091568,0,37.82359313964844
33670,536346111,641203712,0,0.023959506303071976,0.2078322023153305,0,37.82172393798828
33680,536346111,641203712,0,0.023988088592886925,0.20791372656822205,0,37.822509765625
33690,536346111,641203711,0,0.0242629274725914,0.2081315666437149,0,37.82273864746094
33700,536346111,641203712,0,0.024227820336818695,0.2075461447238922,0,37.822608947753906
33710,536346111,641203712,0,0.02483672834932804,0.20784026384353638,0,37.82228088378906
33720,536346111,641203711,0,0.024515226483345032,0.20881907641887665,0,37.82204055786133
33730,536346111,641203711,0,0.024336062371730804,0.20867152512073517,0,37.82212448120117
33740,536346111,641203712,0,0.023768965154886246,0.20828983187675476,0,37.821510314941406
33750,536346111,641203711,0,0.022580524906516075,0.20852909982204437,0,37.82126998901367
33760,535297535,641203711,0,0.02153782732784748,0.20835819840431213,0,37.820796966552734
33770,535297535,641203712,0,0.021697575226426125,0.20678135752677917,0,37.81881332397461
33780,536346111,641203712,0,0.022104809060692787,0.2062990814447403,0,37.817745208740234
33790,536346111,641203712,0,0.022338300943374634,0.20589563250541687,0,37.817413330078125
33800,536346111,641203712,0,0.022473115473985672,0.20570501685142517,0,37.817684173583984
33810,536346111,641203712,0,0.02364734560251236,0.20551250874996185,0,37.81668472290039
33820,536346111,641203711,0,0.02404407411813736,0.20575274527072906,0,37.81684494018555
33830,536346111,641203711,0,0.02334461361169815,0.20632608234882355,0,37.81639862060547
33840,536346111,641203711,0,0.02235366776585579,0.20684607326984406,0,37.81541442871094
33850,536346111,641203711,0,0.021097946912050247,0.2068803310394287,0,37.81550979614258
33860,536346111,641203712,0,0.020866936072707176,0.20691408216953278,0,37.81532287597656
33870,536346111,641203712,0,0.02107631415128708,0.2068200260400772,0,37.815677642822266
33880,536346111,641203712,0,0.020511608570814133,0.2070324420928955,0,37.8150749206543
33890,536346111,641203712,0,0.021244894713163376,0.20866245031356812,0,37.81435775756836
33900,536346111,641203712,0,0.02164163812994957,0.2089841663837433,0,37.81520462036133
33910,536346111,641203712,0,0.021581605076789856,0.2095436304807663,0,37.81548309326172
33920,536346111,641203712,0,0.021472429856657982,0.21008723974227905,0,37.81565856933594
33930,536346111,641203711,0,0.02107124961912632,0.20939412713050842,0,37.81591033935547
33940,536346111,641203711,0,0.020896777510643005,0.20988352596759796,0,37.81521224975586
33950,536346111,641203711,0,0.02029363065958023,0.21040205657482147,0,37.815887451171875
33960,535297535,641203711,0,0.019951824098825455,0.21110279858112335,0,37.81536865234375
33970,536346111,641203711,0,0.019130423665046692,0.21131417155265808,0,37.81336212158203
33980,535297535,641203712,0,0.018606014549732208,0.21227815747261047,0,37.811676025390625
33990,536346111,642251264,0,0.018592966720461845,0.2131928652524948,0,37.81029510498047
34000,536346111,641202689,0,0.020814813673496246,0.21371853351593018,0,37.810874938964844
34010,536346111,641201665,0,0.024223702028393745,0.21159960329532623,0,37.81358337402344
34020,536346111,641202688,0,0.02474968507885933,0.21005459129810333,0,37.8156623840332
34030,536346111,641203711,0,0.022271769121289253,0.21173320710659027,0,37.819618225097656
34040,536346111,641204734,0,0.019577117636799812,0.2139168530702591,0,37.82230758666992
34050,536346111,641205757,0,0.0142521932721138,0.2194671630859375,0,37.82450485229492
34060,536346111,641205758,0,0.00911939051002264,0.22354130446910858,0,37.823577880859375
34070,535297535,641204735,0,0.005520033184438944,0.22938711941242218,0,37.821258544921875
34080,535297535,641203712,0,0.00591516075655818,0.23147112131118774,0,37.819732666015625
34090,535297535,641202689,0,0.007629216182976961,0.23061199486255646,0,37.81748962402344
34100,536346111,641201666,0,0.011432409286499023,0.22728753089904785,0,37.816593170166016
34110,536346111,641201666,0,0.017578106373548508,0.2216564416885376,0,37.818939208984375
34120,536346111,641201665,0,0.018914734944701195,0.21720412373542786,0,37.82212448120117
34130,536346111,641203711,0,0.016567019745707512,0.21459579467773438,0,37.82718276977539
34140,536346111,641205758,0,0.01177247241139412,0.2174493819475174,0,37.830352783203125
34150,536346111,641206781,0,0.004506110679358244,0.22445444762706757,0,37.83363342285156
34160,535297535,641206781,0,-0.0005055394140072167,0.2299996316432953,0,37.83350372314453
34170,535297535,641205758,0,-0.005412266589701176,0.23606491088867188,0,37.82904052734375
34180,535297535,641203712,0,-0.005653435364365578,0.2374620884656906,0,37.82587432861328
34190,536346111,641201665,0,-0.0021143308840692043,0.23423410952091217,0,37.8223762512207
34200,536346111,641201666,0,0.0013075652532279491,0.23030181229114532,0,37.82177734375
34210,536346111,641201666,0,0.007311215158551931,0.2231743335723877,0,37.82292175292969
34220,536346111,641202689,0,0.010331524536013603,0.2208223193883896,0,37.82487487792969
34230,536346111,641204735,0,0.010352414101362228,0.22006435692310333,0,37.82925796508789
34240,536346111,641205758,0,0.008117541670799255,0.22271455824375153,0,37.83207702636719
34250,536346111,641205758,0,0.0033234807197004557,0.2289968580007553,0,37.8338508605957
34260,535297535,641205758,0,0.0002626917266752571,0.23294660449028015,0,37.83325958251953
34270,535297535,641204735,0,-0.002735728397965431,0.23620270192623138,0,37.8300666809082
34280,535297535,641203712,0,-0.0023074771743267775,0.23525632917881012,0,37.82762908935547
34290,535297535,641202689,0,0.0013240373227745295,0.23112525045871735,0,37.824806213378906
34300,536346111,641201665,0,0.005604527425020933,0.22800098359584808,0,37.824405670166016
34310,536346111,641202689,0,0.011080228723585606,0.2233000546693802,0,37.82502746582031
34320,536346111,641203712,0,0.012967455200850964,0.22157539427280426,0,37.827091217041016
34330,536346111,641204735,0,0.010975472629070282,0.22180521488189697,0,37.82926940917969
34340,536346111,641204734,0,0.00823693722486496,0.22358651459217072,0,37.831199645996094
34350,535297535,641205758,0,0.0036765937693417072,0.22668951749801636,0,37.830318450927734
34360,535297535,641204735,0,0.0023958601523190737,0.22850890457630157,0,37.829010009765625
34370,535297535,641203711,0,0.0022032782435417175,0.2298130989074707,0,37.82575988769531
34380,535297535,641202688,0,0.0035485897678881884,0.22825032472610474,0,37.82424545288086
34390,536346111,641202689,0,0.007056890986859798,0.22487711906433105,0,37.822349548339844
34400,536346111,641202689,0,0.009715229272842407,0.2225908637046814,0,37.82310104370117
34410,536346111,641203712,0,0.012345531955361366,0.21967624127864838,0,37.824974060058594
34420,536346111,641203711,0,0.012108237482607365,0.21948711574077606,0,37.82597351074219
34430,536346111,641204735,0,0.00938942190259695,0.22159337997436523,0,37.82771301269531
34440,536346111,641204735,0,0.008243718184530735,0.2234465628862381,0,37.82804870605469
34450,535297535,641204735,0,0.006155265960842371,0.22548599541187286,0,37.826786041259766
34460,535297535,641203711,0,0.005177831742912531,0.22576108574867249,0,37.82521057128906
34470,535297535,641203712,0,0.005687799770385027,0.22461095452308655,0,37.82317352294922
34480,536346111,641202688,0,0.007477192673832178,0.2232324331998825,0,37.821617126464844
34490,536346111,641202688,0,0.011002855375409126,0.22035400569438934,0,37.821685791015625
34500,536346111,641203712,0,0.011846671812236309,0.21900272369384766,0,37.82247543334961
34510,536346111,641203711,0,0.01188782136887312,0.2180931270122528,0,37.82373046875
34520,536346111,641204735,0,0.010546548292040825,0.21841707825660706,0,37.825439453125
34530,536346111,641204735,0,0.007812066003680229,0.22027687728405,0,37.82612228393555
34540,536346111,641204735,0,0.006478414870798588,0.22160093486309052,0,37.82552719116211
34550,535297535,641203711,0,0.00486389733850956,0.22362899780273438,0,37.823577880859375
34560,536346111,641203712,0,0.005347902420908213,0.223582923412323,0,37.82275390625
34570,536346111,641203712,0,0.008323787711560726,0.22266051173210144,0,37.8206901550293
34580,536346111,641202688,0,0.010031760670244694,0.2219243198633194,0,37.82020568847656
34590,536346111,641202688,0,0.01105696801096201,0.2198205292224884,0,37.81976318359375
34600,536346111,641203711,0,0.011170122772455215,0.2190411388874054,0,37.82047653198242
34610,536346111,641203711,0,0.009447036311030388,0.2193824201822281,0,37.820274353027344
34620,536346111,641204735,0,0.008903296664357185,0.22032397985458374,0,37.81989669799805
34630,536346111,641204735,0,0.007173426914960146,0.2223784476518631,0,37.8194694519043
34640,535297535,641203711,0,0.006586073897778988,0.22399188578128815,0,37.818565368652344
34650,535297535,641203711,0,0.00697595439851284,0.22399906814098358,0,37.81636428833008
34660,536346111,641203712,0,0.007528781425207853,0.22348974645137787,0,37.8150520324707
34670,536346111,641202688,0,0.008318386040627956,0.2221345752477646,0,37.81536865234375
34680,536346111,641203712,0,0.009448031894862652,0.22086280584335327,0,37.815059661865234
34690,536346111,641203712,0,0.01041005551815033,0.22050108015537262,0,37.81535339355469
34700,536346111,641203711,0,0.009699170477688313,0.22111175954341888,0,37.815101623535156
34710,536346111,641203711,0,0.008796420879662037,0.22102004289627075,0,37.81624221801758
34720,536346111,641204735,0,0.0081406245008111,0.2212899625301361,0,37.81593322753906
34730,536346111,641203711,0,0.008220265619456768,0.2232869267463684,0,37.8152961730957
34740,536346111,641203712,0,0.008937987498939037,0.22314117848873138,0,37.81484603881836
34750,536346111,641203712,0,0.010459166951477528,0.22233662009239197,0,37.81336212158203
34760,536346111,641202688,0,0.011498065665364265,0.22128890454769135,0,37.81337356567383
34770,536346111,641203712,0,0.011825677007436752,0.22045743465423584,0,37.81221008300781
34780,536346111,641203712,0,0.01197265088558197,0.2203064113855362,0,37.812522888183594
34790,536346111,641203711,0,0.012022140435874462,0.2219298928976059,0,37.8134651184082
34800,536346111,641203711,0,0.011663414537906647,0.22339457273483276,0,37.81377029418945
34810,536346111,641203711,0,0.010123147629201412,0.2237795740365982,0,37.812782287597656
34820,536346111,641203711,0,0.00934626441448927,0.22404135763645172,0,37.81249237060547
34830,536346111,641203711,0,0.0087155532091856,0.2244962453842163,0,37.81252670288086
34840,536346111,641203712,0,0.008031276054680347,0.22399428486824036,0,37.81188201904297
34850,536346111,641203712,0,0.009069339372217655,0.22320687770843506,0,37.811439514160156
34860,536346111,641203712,0,0.009206466376781464,0.2232508510351181,0,37.81269836425781
34870,536346111,641203712,0,0.00993307400494814,0.2230713963508606,0,37.81292724609375
34880,536346111,641203711,0,0.010752330534160137,0.22284618020057678,0,37.813629150390625
34890,536346111,641203711,0,0.011336988769471645,0.22324499487876892,0,37.813087463378906
34900,536346111,641203711,0,0.011146187782287598,0.22422878444194794,0,37.81365203857422
34910,535297535,641203711,0,0.010879588313400745,0.2251242846250534,0,37.81202697753906
34920,536346111,641203712,0,0.01097016129642725,0.22597943246364594,0,37.81166458129883
34930,536346111,641203712,0,0.012094524689018726,0.2256259024143219,0,37.81068420410156
34940,536346111,641203712,0,0.012546480633318424,0.22523565590381622,0,37.81019592285156
34950,536346111,641203712,0,0.012401465326547623,0.2248755693435669,0,37.80946731567383
34960,536346111,641203711,0,0.012934191152453423,0.22492815554141998,0,37.810142517089844
34970,536346111,641203711,0,0.012916991487145424,0.22501474618911743,0,37.80931854248047
34980,536346111,641203711,0,0.012532727792859077,0.22526851296424866,0,37.80889129638672
34990,536346111,641203711,0,0.011823874898254871,0.22616103291511536,0,37.80866622924805
35000,536346111,641203711,0,0.011586029082536697,0.22583846747875214,0,37.80910873413086
35010,536346111,641203711,0,0.011728084646165371,0.2256978303194046,0,37.8094367980957
35020,536346111,641203712,0,0.012380463071167469,0.22558251023292542,0,37.80818557739258
35030,536346111,641203712,0,0.012724068015813828,0.2250276505947113,0,37.80752944946289
35040,536346111,641203712,0,0.012823428027331829,0.22468969225883484,0,37.8076171875
35050,536346111,641203712,0,0.013153898529708385,0.22438278794288635,0,37.8074951171875
35060,536346111,641203711,0,0.01292817946523428,0.2244490534067154,0,37.807029724121094
35070,536346111,641203711,0,0.012032723985612392,0.22484411299228668,0,37.80717849731445
35080,536346111,641203711,0,0.0119633749127388,0.22504922747612,0,37.806732177734375
35090,535297535,641203711,0,0.011647908017039299,0.22500298917293549,0,37.80546951293945
35100,536346111,641203712,0,0.012339700013399124,0.22448155283927917,0,37.80447006225586
35110,536346111,641203712,0,0.012437260709702969,0.22554130852222443,0,37.804931640625
35120,536346111,641203712,0,0.012570608407258987,0.2254980206489563,0,37.80452346801758
35130,536346111,641203712,0,0.013149162754416466,0.22486503422260284,0,37.8036003112793
35140,536346111,641203712,0,0.013948039151728153,0.2247430384159088,0,37.80348587036133
35150,536346111,641203711,0,0.013636422343552113,0.22446861863136292,0,37.80342102050781
35160,536346111,641203711,0,0.012988319620490074,0.22478565573692322,0,37.80293273925781
35170,536346111,641203711,0,0.012589069083333015,0.22476622462272644,0,37.80234146118164
35180,536346111,641203711,0,0.012399928644299507,0.22523941099643707,0,37.8026237487793
35190,536346111,641203712,0,0.012938540428876877,0.22536857426166534,0,37.80264663696289
35200,536346111,641203712,0,0.013880321756005287,0.22566333413124084,0,37.802467346191406
35210,536346111,641203712,0,0.014076391234993935,0.22480536997318268,0,37.80210494995117
35220,536346111,641203712,0,0.014080125838518143,0.22536806762218475,0,37.80146026611328
35230,536346111,641203712,0,0.015052332542836666,0.22585169970989227,0,37.80060958862305
35240,536346111,641203711,0,0.014816357754170895,0.2260967493057251,0,37.80088806152344
35250,536346111,641203711,0,0.013921513222157955,0.22695977985858917,0,37.80061721801758
35260,536346111,641203711,0,0.01389376912266016,0.22710031270980835,0,37.80113220214844
35270,536346111,641203711,0,0.01354594063013792,0.22719407081604004,0,37.80123519897461
35280,536346111,641203711,0,0.013744774274528027,0.2265159636735916,0,37.801795959472656
35290,536346111,641203712,0,0.014045704156160355,0.22775425016880035,0,37.79994583129883
35300,536346111,641203712,0,0.01407240517437458,0.2272609919309616,0,37.80000305175781
35310,536346111,641203711,0,0.014791743829846382,0.22660988569259644,0,37.79932403564453
35320,536346111,641203712,0,0.014489674009382725,0.22657065093517303,0,37.79935073852539
35330,536346111,641203711,0,0.01418792363256216,0.22656244039535522,0,37.80046081542969
35340,536346111,641203711,0,0.013858306221663952,0.22644920647144318,0,37.80046463012695
35350,536346111,641203711,0,0.01329745166003704,0.22609363496303558,0,37.80071258544922
35360,536346111,641203711,0,0.01313493587076664,0.22630073130130768,0,37.7998046875
35370,536346111,641203711,0,0.012858234345912933,0.2256641834974289,0,37.79930114746094
35380,536346111,641203711,0,0.012587153352797031,0.22563046216964722,0,37.79970932006836
35390,535297535,641203712,0,0.013621214777231216,0.22501499950885773,0,37.797977447509766
35400,535297535,641203712,0,0.013416103087365627,0.22505173087120056,0,37.79628372192383
35410,536346111,641203712,0,0.014554477296769619,0.22470678389072418,0,37.79527282714844
35420,536346111,641203712,0,0.015348401851952076,0.2249232977628708,0,37.79603958129883
35430,536346111,641203712,0,0.01652083545923233,0.2258705198764801,0,37.79514694213867
35440,536346111,641203711,0,0.016300907358527184,0.22570282220840454,0,37.7950553894043
35450,536346111,641203711,0,0.016469918191432953,0.22553008794784546,0,37.79459762573242
35460,535297535,641203711,0,0.01634007692337036,0.22522561252117157,0,37.793052673339844
35470,536346111,641203712,0,0.01604827679693699,0.22663655877113342,0,37.791934967041016
35480,536346111,641203712,0,0.016475897282361984,0.22594094276428223,0,37.79229736328125
35490,536346111,641203712,0,0.017556972801685333,0.2243647277355194,0,37.79230499267578
35500,535297535,641203711,0,0.0184878371655941,0.2243022918701172,0,37.792152404785156
35510,536346111,641203711,0,0.01819581165909767,0.22430402040481567,0,37.790340423583984
35520,536346111,641203712,0,0.01879146322607994,0.22482264041900635,0,37.78984451293945
35530,536346111,641203711,0,0.019018912687897682,0.22468088567256927,0,37.78973388671875
35540,536346111,641203711,0,0.019040659070014954,0.22463639080524445,0,37.789188385009766
35550,536346111,641203711,0,0.01944235898554325,0.22401642799377441,0,37.7883415222168
35560,536346111,641203711,0,0.020138200372457504,0.22430792450904846,0,37.78812789916992
35570,536346111,641203711,0,0.02096858248114586,0.22366400063037872,0,37.78726577758789
35580,536346111,641203711,0,0.02175472490489483,0.22347904741764069,0,37.78763961791992
35590,536346111,641203712,0,0.022024648264050484,0.2231009155511856,0,37.786869049072266
35600,535297535,641203712,0,0.022646237164735794,0.22326470911502838,0,37.7862434387207
35610,536346111,641203712,0,0.02298925258219242,0.2233443707227707,0,37.785770416259766
35620,535297535,641203711,0,0.02230753004550934,0.22344496846199036,0,37.784385681152344
35630,535297535,641203711,0,0.021873222663998604,0.22382745146751404,0,37.78299331665039
35640,536346111,641203711,0,0.021613100543618202,0.22354280948638916,0,37.78225326538086
35650,536346111,641203711,0,0.02203276939690113,0.22342607378959656,0,37.78171157836914
35660,536346111,641203711,0,0.022322652861475945,0.22312504053115845,0,37.78185272216797
35670,536346111,641203711,0,0.022807393223047256,0.2236909717321396,0,37.78120422363281
35680,536346111,641203711,0,0.022339243441820145,0.22311654686927795,0,37.780601501464844
35690,536346111,641203711,0,0.021977297961711884,0.22187307476997375,0,37.781002044677734
35700,536346111,641203711,0,0.02186935395002365,0.22233857214450836,0,37.78087615966797
35710,536346111,641203711,0,0.021903781220316887,0.22213418781757355,0,37.78014373779297
35720,536346111,641203711,0,0.022403813898563385,0.22150668501853943,0,37.77961349487305
35730,536346111,641203711,0,0.022783279418945312,0.22101089358329773,0,37.77909851074219
35740,536346111,641203711,0,0.023302726447582245,0.22165364027023315,0,37.77800750732422
35750,536346111,641203711,0,0.02298765815794468,0.22182953357696533,0,37.77681350708008
35760,536346111,641203712,0,0.022535165771842003,0.22159741818904877,0,37.77656555175781
35770,536346111,641203712,0,0.0227219108492136,0.22217115759849548,0,37.77675247192383
35780,536346111,641203711,0,0.023056913167238235,0.22262853384017944,0,37.776981353759766
35790,536346111,641203711,0,0.022720834240317345,0.2230406403541565,0,37.77753829956055
35800,535297535,641203711,0,0.02275441400706768,0.2230195254087448,0,37.77690124511719
35810,536346111,641203711,0,0.02294837310910225,0.22303764522075653,0,37.77596664428711
35820,536346111,641203711,0,0.022631296887993813,0.2227250188589096,0,37.77647399902344
35830,536346111,641203711,0,0.02186555601656437,0.22242359817028046,0,37.77678680419922
35840,535297535,641203712,0,0.021691346541047096,0.22183287143707275,0,37.77571105957031
35850,536346111,641203711,0,0.021487494930624962,0.2212391048669815,0,37.77492904663086
35860,535297535,641203711,0,0.02136451005935669,0.2207041233778,0,37.7736930847168
35870,536346111,641203711,0,0.020241739228367805,0.22148029506206512,0,37.7725830078125
35880,535297535,641203711,0,0.02031845971941948,0.22200410068035126,0,37.77275085449219
35890,536346111,641203711,0,0.01986360177397728,0.22212959825992584,0,37.77198028564453
35900,535297535,641203711,0,0.019924603402614594,0.22166387736797333,0,37.77145767211914
35910,536346111,641203712,0,0.019311416894197464,0.22187460958957672,0,37.76988983154297
35920,536346111,641203712,0,0.019725730642676353,0.22175940871238708,0,37.7697639465332
35930,536346111,641203712,0,0.020047497004270554,0.22126896679401398,0,37.76937484741211
35940,536346111,641203712,0,0.02010475844144821,0.22039535641670227,0,37.76852798461914
35950,536346111,641203712,0,0.01978982798755169,0.22066526114940643,0,37.76860046386719
35960,536346111,641203711,0,0.019620567560195923,0.22050665318965912,0,37.76911163330078
35970,536346111,641203711,0,0.01920301653444767,0.22072426974773407,0,37.76939392089844
35980,536346111,641203711,0,0.01846790313720703,0.2213091403245926,0,37.768638610839844
35990,536346111,641203711,0,0.017592662945389748,0.22168754041194916,0,37.768089294433594
36000,536346111,641203711,0,0.017438462004065514,0.22187203168869019,0,37.7674446105957
36010,536346111,641203712,0,0.01711815409362316,0.22119806706905365,0,37.7665901184082
36020,536346111,641203712,0,0.016877498477697372,0.22164498269557953,0,37.766109466552734
36030,536346111,641203712,0,0.016879042610526085,0.22259946167469025,0,37.76527786254883
36040,536346111,641203711,0,0.016096321865916252,0.22343261539936066,0,37.765785217285156
36050,536346111,641203711,0,0.0165353212505579,0.22381235659122467,0,37.7655143737793
36060,536346111,641203711,0,0.01752748340368271,0.2247696965932846,0,37.76503372192383
36070,536346111,641203711,0,0.017180608585476875,0.2258223295211792,0,37.76448059082031
36080,536346111,641203712,0,0.01709451712667942,0.2250937968492508,0,37.76400375366211
36090,536346111,641203712,0,0.01764107681810856,0.22642044723033905,0,37.76280212402344
36100,535297535,641203712,0,0.017244353890419006,0.22642429172992706,0,37.76186752319336
36110,536346111,641203711,0,0.017169564962387085,0.22587525844573975,0,37.76045227050781
36120,536346111,641203712,0,0.017387649044394493,0.22616618871688843,0,37.760406494140625
36130,536346111,641203711,0,0.017022820189595222,0.2264721840620041,0,37.76081848144531
36140,536346111,641203711,0,0.0168626606464386,0.22645419836044312,0,37.76058578491211
36150,536346111,641203711,0,0.01667267270386219,0.22684858739376068,0,37.7609748840332
36160,536346111,641203712,0,0.016913998872041702,0.2270551323890686,0,37.76062774658203
36170,536346111,641203711,0,0.017045188695192337,0.22755733132362366,0,37.75900650024414
36180,535297535,641203711,0,0.017000460997223854,0.2273707538843155,0,37.75864791870117
36190,536346111,641203711,0,0.01736929826438427,0.2268848419189453,0,37.75725173950195
36200,535297535,641203712,0,0.017630811780691147,0.22666093707084656,0,37.756492614746094
36210,536346111,641203712,0,0.01846892200410366,0.2260691374540329,0,37.75556945800781
36220,536346111,641203711,0,0.017882592976093292,0.22621898353099823,0,37.755001068115234
36230,536346111,641203711,0,0.016590503975749016,0.2254333794116974,0,37.75532531738281
36240,536346111,641203711,0,0.01628945767879486,0.2252393513917923,0,37.7554931640625
36250,536346111,641203711,0,0.015389998443424702,0.22629986703395844,0,37.755958557128906
36260,536346111,641203711,0,0.01558682695031166,0.2257058322429657,0,37.75546646118164
36270,536346111,641203712,0,0.015742888674139977,0.2256844937801361,0,37.75415802001953
36280,536346111,641203712,0,0.016378916800022125,0.22608093917369843,0,37.753448486328125
36290,536346111,641203711,0,0.016841383650898933,0.2267187088727951,0,37.753543853759766
36300,536346111,641203711,0,0.015869537368416786,0.2265274077653885,0,37.75341796875
36310,536346111,641203711,0,0.015496163628995419,0.22640296816825867,0,37.753578186035156
36320,536346111,641203711,0,0.014283029362559319,0.22718988358974457,0,37.75288772583008
36330,536346111,641203711,0,0.013990039937198162,0.22740405797958374,0,37.75300979614258
36340,536346111,641203711,0,0.01343983132392168,0.2284688502550125,0,37.75296401977539
36350,536346111,641203712,0,0.013629095628857613,0.22894929349422455,0,37.753173828125
36360,536346111,641203712,0,0.014037820510566235,0.2287851870059967,0,37.75297164916992
36370,535297535,641203712,0,0.013907519169151783,0.2287217378616333,0,37.7513427734375
36380,536346111,641203712,0,0.013962344266474247,0.229061558842659,0,37.75050354003906
36390,536346111,641203712,0,0.01426678616553545,0.22962962090969086,0,37.75017547607422
36400,536346111,641203711,0,0.01459694653749466,0.23035839200019836,0,37.74932098388672
36410,536346111,641203711,0,0.014591146260499954,0.23100779950618744,0,37.749351501464844
36420,536346111,641203711,0,0.014237163588404655,0.2314617782831192,0,37.74843215942383
36430,536346111,641203711,0,0.014275110326707363,0.23122474551200867,0,37.74783706665039
36440,536346111,641203711,1027949885,0.013778581283986568,0.23093801736831665,57856,37.74742889404297
36450,536346111,641203711,1078413376,0.013238665647804737,0.230836883187294,8192,37.74668502807617
36460,536346111,641203711,1112164931,0.01313567440956831,0.23040629923343658,22528,37.74628829956055
36470,536346111,641203712,1162693957,0.012702862732112408,0.22919955849647522,38400,37.74678039550781
36480,535297535,641203711,1162628421,0.013021323829889297,0.22866971790790558,38400,37.74657440185547
36490,537394687,641203711,1196445512,0.012774847447872162,0.23093105852603912,53760,37.7474479675293
36500,534248959,641204736,1196380231,0.013379952870309353,0.22975197434425354,53760,37.746131896972656
36510,537394687,641202688,1179733576,0.013446928933262825,0.2312101125717163,53760,37.75526809692383
36520,538443263,641203711,1196445512,0.012455662712454796,0.23141108453273773,53760,37.74567794799805
36530,531103231,641202686,1246581573,0.009455711580812931,0.23194722831249237,22528,37.73727035522461
36540,535297536,640156157,1196380233,0.007666141726076603,0.23258259892463684,22528,37.75382995605469
36550,536346111,639107581,1196445768,-0.002235545078292489,0.23513174057006836,22528,37.747650146484375
36560,535296511,635961853,1162957637,-0.00727758277207613,0.23915688693523407,22528,37.74549865722656
36570,536345086,637008382,1196642117,-0.007809487637132406,0.2414926141500473,22528,37.744659423828125
36580,535298559,645396989,1196314697,-0.010536416433751583,0.23929613828659058,22528,37.74439239501953
36590,534247936,649592318,1162826823,-0.0171674657613039,0.24222956597805023,22528,37.73794174194336
36600,535296510,642251263,1230196804,-0.01809101179242134,0.24391482770442963,22528,37.7296028137207
36610,535298559,638059008,1212960842,-0.014747297391295433,0.23804527521133423,22528,37.72019577026367
36620,539489790,641204735,1146442308,-0.014760106801986694,0.24099762737751007,22528,37.723388671875
36630,540541439,639104512,1146244682,-0.011576280929148197,0.23819823563098907,22528,37.756309509277344
36640,543687166,644348416,1179798603,-0.011738360859453678,0.23167459666728973,22528,37.79130172729492
36650,541588991,643300864,1096306758,-0.014368821866810322,0.22898542881011963,22528,37.846492767333984
36660,539491840,640155136,1112232783,-0.009292317554354668,0.22401483356952667,22528,37.87220764160156
36670,537393662,642253310,1213615428,-0.01440331432968378,0.23230785131454468,22528,37.88964080810547
36680,539490815,643300863,1129861699,-0.015652665868401527,0.23229524493217468,22528,37.900428771972656
36690,539490815,637007360,1062753092,-0.004189372528344393,0.2217296063899994,22528,37.92759704589844
36700,541590016,635961855,1078874958,-0.0007639669347554445,0.21930520236492157,22528,37.95843505859375
36710,538445311,641203709,1246448208,-0.007838322781026363,0.23150303959846497,22528,37.98298645019531
36720,536346110,644348414,1280461382,-0.014519752934575081,0.23448984324932098,22528,37.98768615722656
36730,547882495,642252287,1129662032,-0.021430758759379387,0.23181018233299255,22528,38.03676986694336
36740,551028223,644347393,1179862608,-0.02083723060786724,0.22805508971214294,22528,38.11248016357422
36750,545783294,642251267,1012747593,-0.02174786478281021,0.21929870545864105,22528,38.21814727783203
36760,546831872,643299841,928470858,-0.02858063019812107,0.21343092620372772,22528,38.268856048583984
36770,545785345,641202688,944918867,-0.031555403023958206,0.21727854013442993,22528,38.34721755981445
36780,545780222,640156161,1079659848,-0.015600353479385376,0.2181834578514099,22528,38.39761734008789
36790,546832898,642250243,894587477,-0.020846227183938026,0.21990573406219482,22528,38.4836540222168
36800,545781246,642253319,1045974603,-0.009107200428843498,0.22151979804039001,22528,38.544212341308594
36810,548931073,646449674,978471769,-0.0028599388897418976,0.23119179904460907,22528,38.63255310058594
36820,553122303,643304972,1079330642,0.014051166363060474,0.250272661447525,22528,38.715362548828125
36830,556273152,647497224,1062616158,0.02223122864961624,0.25621235370635986,22528,38.863197326660156
36840,557318653,640153091,962021973,0.014066722244024277,0.2498917281627655,22528,38.97367858886719
36850,557316607,637005307,879838278,0.03263825550675392,0.2309475541114807,22528,39.14306640625
36860,559413756,639105521,812470337,0.008611099794507027,0.20740976929664612,22528,39.26057434082031
36870,559412736,637007347,761743443,-0.006636827252805233,0.20319899916648865,22528,39.446346282958984
36880,557317630,644350461,995968082,-0.003988774958997965,0.20748372375965118,22528,39.562129974365234
36890,554173953,644348422,978992733,-0.027601145207881927,0.20561400055885315,22528,39.72032928466797
36900,546832892,639105543,1080051018,-0.029163502156734467,0.19972145557403564,22528,39.79407501220703
36910,544735742,641202687,1063273293,-0.011200148612260818,0.1886497437953949,22528,39.867576599121094
36920,547883522,644350461,928402518,-0.01258767582476139,0.18515662848949432,22528,39.92478561401367
36930,548928000,644347389,945636438,-0.017527181655168533,0.21224738657474518,22528,40.02571487426758
36940,551019005,626520567,794972493,-0.03686705604195595,0.1906277984380722,22528,40.100059509277344
36950,551022068,632814068,1031420989,-0.027987249195575714,0.16891886293888092,22528,40.21708679199219
36960,554176007,651692544,760565853,-0.029707802459597588,0.1608300656080246,22528,40.307132720947266
36970,555222526,647495179,996358233,-0.01747358776628971,0.19383084774017334,22528,40.45563888549805
36980,554169850,638056959,997081158,-0.018144885078072548,0.1900673359632492,22528,40.55472183227539
36990,551029243,634913279,912866897,-0.032067637890577316,0.16437481343746185,22528,40.68815994262695
37000,549979647,638057991,928859733,-0.022882288321852684,0.19536492228507996,22528,40.76493453979492
37010,548923908,638054908,711478353,0.00995138380676508,0.18903718888759613,22528,40.874576568603516
37020,552077820,641202681,979779918,0.0009389782790094614,0.1918092966079712,22528,40.94696807861328
37030,551025154,635961864,711084378,-0.022809766232967377,0.19790151715278625,22528,41.07617950439453
37040,547884538,642251263,1063533648,-0.010999043472111225,0.18035294115543365,22528,41.148616790771484
37050,546835969,652739065,895238748,-0.04598080739378929,0.17907102406024933,22528,41.233455657958984
37060,541588994,639106565,1012810322,-0.04387344419956207,0.2015129029750824,22528,41.275569915771484
37070,541585919,639105529,744771407,-0.021645404398441315,0.16556304693222046,22528,41.31820297241211
37080,538443265,639108603,811618127,-0.04003995284438133,0.1832350343465805,22528,41.33433532714844
37090,540540414,637011458,996622923,-0.02379724197089672,0.21046338975429535,22528,41.362491607666016
37100,539493888,651691516,878660177,-0.00794444140046835,0.19206538796424866,22528,41.38993453979492
37110,542640637,642252295,929055573,-0.04959080368280411,0.2101535052061081,22528,41.426082611083984
37120,539490814,642252294,962872652,-0.028132561594247818,0.2055814564228058,22528,41.452171325683594
37130,537391620,641206777,761221203,-0.04140688106417656,0.21458207070827484,22528,41.47273254394531
37140,537391613,633865729,929253453,-0.034270577132701874,0.24023538827896118,22528,41.47907638549805
37150,533201409,645398009,895700554,-0.010317434556782246,0.23573581874370575,22528,41.47513198852539
37160,536350204,647499261,912280143,-0.04802257940173149,0.23434990644454956,22528,41.47550582885742
37170,535292415,633863687,744969543,-0.039169248193502426,0.2127247303724289,22528,41.47490310668945
37180,537399812,648545791,945309528,-0.020615629851818085,0.21295708417892456,22528,41.479984283447266
37190,540543484,640154118,1130117463,-0.05745965242385864,0.23520663380622864,22528,41.50127410888672
37200,540541438,646441470,1013006418,-0.03360724076628685,0.21089230477809906,22528,41.52698516845703
37210,542636548,641205753,694046808,-0.03874706104397774,0.23880672454833984,22528,41.57505416870117
37220,540537343,631768573,694833737,-0.055416449904441833,0.22892175614833832,22528,41.605003356933594
37230,540554752,644352504,1196569444,-0.05711741745471954,0.2407541275024414,22528,41.64398956298828
37240,539495930,649594375,912606798,-0.08707910031080246,0.23972328007221222,22528,41.663246154785156
37250,541590018,651686407,912409428,-0.07225838303565979,0.2237299233675003,22528,41.702903747558594
37260,541591037,642251263,979255383,-0.0724872574210167,0.2107718586921692,22528,41.731224060058594
37270,543684092,632809980,1113862998,-0.04799933359026909,0.21152706444263458,22528,41.782840728759766
37280,546833921,644347381,812009042,-0.05414096638560295,0.19867944717407227,22528,41.833309173583984
37290,543684093,637009407,695028557,-0.07818527519702911,0.20155508816242218,22528,41.905250549316406
37300,540548608,642253311,895239257,-0.06920868158340454,0.19498984515666962,22528,41.942115783691406
37310,540542462,643298818,1079851098,-0.08815497159957886,0.216864213347435,22528,41.977237701416016
37320,540540418,641204736,662065727,-0.10587691515684128,0.21996600925922394,22528,42.001590728759766
37330,538444286,640154113,911950682,-0.12335200607776642,0.24699804186820984,22528,42.02976989746094
37340,536346108,631764479,946291788,-0.10727833211421967,0.2356129139661789,22528,42.03491973876953
37350,536354300,648547828,1180841043,-0.13768325746059418,0.2402012050151825,22528,42.03704071044922
37360,541591040,639106561,728059218,-0.16309316456317902,0.22908852994441986,22528,42.05021286010742
37370,539492858,641204739,745950274,-0.16927994787693024,0.20401473343372345,22528,42.09107971191406
37380,539493892,632817158,777735002,-0.15596607327461243,0.22435864806175232,22528,42.1115608215332
37390,538460670,644346366,1430200952,-0.13886815309524536,0.2170836627483368,22528,42.13983917236328
37400,536351226,639103491,1214132823,-0.15747937560081482,0.24345716834068298,22528,42.14809799194336
37410,532156923,645396991,1012679253,-0.149378702044487,0.1762586236000061,22528,42.134117126464844
37420,530053631,648548860,895830348,-0.16156601905822754,0.20279459655284882,22528,42.107948303222656
37430,527954428,633860608,1064715317,-0.1301550716161728,0.20862241089344025,22528,42.0477294921875
37440,526907903,650639870,526213713,-0.14818230271339417,0.1558956801891327,22528,42.000118255615234
37450,529003006,619183621,846156094,-0.12917663156986237,0.17710381746292114,22528,41.93552780151367
37460,533203461,647496186,777998162,-0.1272558718919754,0.1839098185300827,22528,41.90714645385742
37470,534255099,645395973,945505878,-0.15166495740413666,0.17699769139289856,22528,41.888832092285156
37480,534255101,652735999,1264464468,-0.14781978726387024,0.17380185425281525,22528,41.880733489990234
37490,534266364,637009411,1347890523,-0.2151757925748825,0.17127595841884613,22528,41.86772537231445
37500,535301628,647493116,1348807757,-0.17411933839321136,0.15661095082759857,22528,41.85671615600586
37510,534245887,634916345,661018443,-0.21321187913417816,0.17283931374549866,22528,41.8453483581543
37520,535294452,630717948,1199912238,-0.21475692093372345,0.1956886351108551,22528,41.838401794433594
37530,530047497,645404164,509437008,-0.19869601726531982,0.1849706619977951,22528,41.808414459228516
37540,523763190,628621831,1296905822,-0.1502610146999359,0.17489564418792725,22528,41.75572204589844
37550,524811787,645399041,1313815128,-0.15913978219032288,0.2421209216117859,22528,41.658119201660156
37560,530055675,638054916,946096203,-0.17423613369464874,0.20255756378173828,22528,41.6143913269043
37570,534236667,646448635,831213093,-0.15560802817344666,0.19371561706066132,22528,41.58594512939453
37580,530053630,637008386,693655638,-0.15480856597423553,0.17448721826076508,22528,41.56311798095703
37590,530044411,644345338,763057457,-0.1254192739725113,0.16606125235557556,22528,41.51617431640625
37600,527953408,627574270,744576588,-0.12665964663028717,0.1775149255990982,22528,41.473384857177734
37610,526907902,642254330,1029065298,-0.10925186425447464,0.14847882091999054,22528,41.4051513671875
37620,526923260,643301888,1197685833,-0.14973492920398712,0.17573395371437073,22528,41.34978103637695
37630,532159995,632809985,781210653,-0.17058099806308746,0.14728859066963196,22528,41.30337905883789
37640,533200380,647500289,745034823,-0.14731161296367645,0.141566663980484,22528,41.28274154663086
37650,531100154,625476098,1330131812,-0.10306425392627716,0.11957073211669922,22528,41.247676849365234
37660,531101197,642256384,827543642,-0.12524572014808655,0.15053720772266388,22528,41.220516204833984
37670,531108345,629670406,1046758727,-0.13195718824863434,0.158460333943367,22528,41.179473876953125
37680,533190140,643301885,1300640809,-0.10434220731258392,0.20377656817436218,22528,41.1585578918457
37690,533203453,647495171,541876578,-0.1356041580438614,0.1496623456478119,22528,41.13374710083008
37700,533205506,650636792,1597383033,-0.10289473086595535,0.17963911592960358,22528,41.12441635131836
37710,532141577,639101437,761746757,-0.15056967735290527,0.2064725160598755,22528,41.095218658447266
37720,532153846,653785596,1281111377,-0.12724928557872772,0.1725628525018692,22528,41.07189178466797
37730,531110402,641203709,1096630862,-0.18806226551532745,0.1912154257297516,22528,41.032127380371094
37740,533201399,643296764,895765322,-0.19939446449279785,0.14497388899326324,22528,41.015785217285156
37750,530060801,627576321,1197555018,-0.21674561500549316,0.18452370166778564,22528,40.98211669921875
37760,529005047,641204734,862474307,-0.22350317239761353,0.15107832849025726,22528,40.93830108642578
37770,530052606,644353534,880300593,-0.2120811641216278,0.1637977659702301,22528,40.88947296142578
37780,531103232,632814077,962021973,-0.1724909245967865,0.17505457997322083,22528,40.853126525878906
37790,529032702,653791744,1564027248,-0.23519118130207062,0.18712769448757172,22528,40.80971145629883
37800,529014277,642253313,1245198962,-0.20002417266368866,0.17753192782402039,22528,40.76803207397461
37810,530052596,653787645,999180827,-0.2059628814458847,0.18383914232254028,22528,40.7238883972168
37820,527945218,632815105,442788678,-0.21155066788196564,0.1664545089006424,22528,40.68444061279297
37830,527958533,645396992,677470533,-0.16530698537826538,0.1618259996175766,22528,40.6170768737793
37840,530056701,637008378,844125018,-0.1754542738199234,0.1604231894016266,22528,40.58251953125
37850,528988673,639107581,631137032,-0.144790381193161,0.16978369653224945,22528,40.528785705566406
37860,530047471,629672454,798315798,-0.11170443892478943,0.14534759521484375,22528,40.4946403503418
37870,527964681,654836218,978276438,-0.10268524289131165,0.16984327137470245,22528,40.43868637084961
37880,529015299,638057984,708992103,-0.15509313344955444,0.15866678953170776,22528,40.40334701538086
37890,530060793,646445568,1215185209,-0.12799668312072754,0.14892008900642395,22528,40.351863861083984
37900,532153859,635957764,894848853,-0.13516272604465485,0.14149126410484314,22528,40.328041076660156
37910,535278072,656932347,664034327,-0.08407441526651382,0.12431744486093521,22528,40.31032180786133
37920,534252021,630714884,965232930,-0.07461020350456238,0.13378140330314636,43008,40.30513000488281
37930,531110395,643298814,895569989,-0.07650253921747208,0.04155841842293739,43008,40.28756332397461
37940,529017345,637008383,1363292258,-0.03830773010849953,0.07054667919874191,30208,40.254249572753906
37950,530051577,648543742,762533677,-0.03750370815396309,0.02358289435505867,30208,40.19956970214844
37960,534241793,639100411,627857465,-0.025983663275837898,0.01706806756556034,52224,40.180938720703125
37970,534248960,640154109,560225087,-0.028542520478367805,-0.009900533594191074,10752,40.17219543457031
37980,534249979,640156162,896615473,-0.0356021448969841,0.0180059801787138,37376,40.16558837890625
37990,531103241,652737016,374368075,-0.03628961369395256,-0.016189606860280037,60416,40.13932800292969
38000,529003018,635958787,222981458,-0.053487442433834076,0.029750239104032516,17408,40.11409378051758
38010,527957490,644350464,964117533,-0.038874685764312744,0.020352058112621307,38400,40.055076599121094
38020,526906876,634910204,778783274,-0.040164049714803696,-0.010146408341825008,59392,40.01559066772461
38030,525863426,648543739,574904906,-0.03031061962246895,-0.05043940246105194,20992,39.937095642089844
38040,526922242,634915332,1028471109,-0.0620880126953125,0.008846740238368511,47104,39.890968322753906
38050,526910976,644348414,710234167,-0.09628612548112869,0.0007009817636571825,47104,39.81420135498047
38060,524817925,643303934,575623743,-0.11230085790157318,0.036617767065763474,34304,39.7648811340332
38070,526905858,628623877,575951923,-0.13394363224506378,0.06803793460130692,40960,39.68143844604492
38080,529010172,639109628,711018284,-0.1247202455997467,0.07928615063428879,40960,39.634098052978516
38090,535296516,640154108,0,-0.1556004136800766,0.12444490194320679,0,39.607425689697266
38100,538436094,656935417,0,-0.1425175666809082,0.07604287564754486,0,39.605560302734375
38110,539490818,642250241,0,-0.12899421155452728,0.11366619169712067,0,39.635276794433594
38120,539492865,637005317,0,-0.11489565670490265,0.0958390012383461,0,39.654396057128906
38130,544736765,639103483,0,-0.10886512696743011,0.08772774040699005,0,39.696136474609375
38140,548926975,639104503,0,-0.10513857007026672,0.07870655506849289,0,39.75424575805664
38150,551025149,638056953,0,-0.11616804450750351,0.0745852068066597,0,39.871368408203125
38160,549977598,635960825,0,-0.11920568346977234,0.07165749371051788,0,39.95111083984375
38170,554171903,634909181,0,-0.12684392929077148,0.06505277007818222,0,40.073143005371094
38180,552075774,637006340,0,-0.11966357380151749,0.06325076520442963,0,40.17417907714844
38190,543686141,640157184,0,-0.11522669345140457,0.06382223963737488,0,40.27452850341797
38200,539491839,642255361,0,-0.11564658582210541,0.07148824632167816,0,40.30611801147461
38210,538443263,643300864,0,-0.11518150568008423,0.0772784948348999,0,40.32773971557617
38220,536346111,644350464,0,-0.10989058762788773,0.07712588459253311,0,40.33064651489258
38230,538442239,638062078,0,-0.11216650158166885,0.08805521577596664,0,40.34095764160156
38240,537393664,647497215,0,-0.117722287774086,0.09420455247163773,0,40.34410858154297
38250,534248958,634909186,0,-0.10893423110246658,0.09117651730775833,0,40.3486442565918
38260,535298559,646449664,0,-0.11031099408864975,0.09222309291362762,0,40.34061050415039
38270,536345086,630715904,0,-0.10467597842216492,0.09192276746034622,0,40.3415641784668
38280,536348159,652734974,0,-0.11212276667356491,0.08704524487257004,0,40.34564971923828
38290,534246910,635960831,0,-0.10465598851442337,0.08094876259565353,0,40.332969665527344
38300,536348159,648545792,0,-0.10379333794116974,0.08463700860738754,0,40.33027648925781
38310,537394687,639105535,0,-0.11190270632505417,0.09126158058643341,0,40.34002685546875
38320,537393662,633863680,0,-0.10696489363908768,0.0889398381114006,0,40.353939056396484
38330,536347136,643301887,0,-0.10938826203346252,0.08991052210330963,0,40.356624603271484
38340,535297536,637008382,0,-0.11159613728523254,0.09542546421289444,0,40.3558349609375
38350,536345086,638056960,0,-0.10723542422056198,0.0953851193189621,0,40.34870910644531
38360,535297534,647495168,0,-0.10384569317102432,0.09222418069839478,0,40.345924377441406
38370,535297535,644349439,0,-0.1040903702378273,0.09458111971616745,0,40.34028244018555
38380,535297536,640154112,0,-0.10317061841487885,0.0949743464589119,0,40.339054107666016
38390,536345087,639105536,0,-0.10296663641929626,0.0975911095738411,0,40.3361930847168
38400,537393662,644348415,0,-0.1007547527551651,0.09548787027597427,0,40.33514404296875
38410,537394686,644349439,0,-0.09893105924129486,0.09456325322389603,0,40.33717346191406
38420,537394686,643301888,0,-0.09885293245315552,0.09462647885084152,0,40.33545684814453
38430,537395710,642253311,0,-0.09920179843902588,0.09473752975463867,0,40.33536148071289
38440,536347135,640155135,0,-0.0987464115023613,0.0952380895614624,0,40.33612060546875
38450,536347135,639107583,0,-0.10127522796392441,0.09766247868537903,0,40.336753845214844
38460,536347136,639107583,0,-0.10153482109308243,0.09866621345281601,0,40.334556579589844
38470,536347135,639107583,0,-0.10506361722946167,0.10222543030977249,0,40.33420944213867
38480,535298560,639106559,0,-0.10711751133203506,0.10221105813980103,0,40.3328857421875
38490,534248959,640156160,0,-0.10957416146993637,0.10670169442892075,0,40.32872009277344
38500,533200384,641203711,0,-0.10852907598018646,0.10912497341632843,0,40.32955551147461
38510,535297535,642252286,0,-0.11013814806938171,0.11306001245975494,0,40.31983947753906
38520,537394687,641203710,0,-0.11134950816631317,0.11160881072282791,0,40.31353759765625
38530,538443263,641204734,0,-0.11490069329738617,0.1140582486987114,0,40.313743591308594
38540,537394686,641203711,0,-0.1160702332854271,0.11712504178285599,0,40.31211853027344
38550,536345086,642252288,0,-0.1183304637670517,0.11982814222574234,0,40.314659118652344
38560,536345086,642251265,0,-0.1200467124581337,0.12177686393260956,0,40.31510543823242
38570,537394687,642251264,0,-0.11439673602581024,0.119551882147789,0,40.31529998779297
38580,536347135,641202688,0,-0.10990329086780548,0.11616431921720505,0,40.315547943115234
38590,534248960,641203711,0,-0.10856182128190994,0.1151249036192894,0,40.31576156616211
38600,533200383,641203710,0,-0.10794328898191452,0.11440933495759964,0,40.32013702392578
38610,537393663,641203711,0,-0.11011546105146408,0.11584538221359253,0,40.31747817993164
38620,539490814,641203712,0,-0.11359728127717972,0.11616076529026031,0,40.3100471496582
38630,535298558,641202688,0,-0.11320595443248749,0.11720504611730576,0,40.31264877319336
38640,534249984,641203710,0,-0.1086864247918129,0.11999555677175522,0,40.320640563964844
38650,537394687,641204734,0,-0.1105368435382843,0.11908353120088577,0,40.31644821166992
38660,535296509,641202688,0,-0.11230655759572983,0.1185503676533699,0,40.314693450927734
38670,535297535,641202688,0,-0.11079443991184235,0.11988944560289383,0,40.31744384765625
38680,537394688,641205759,0,-0.10886605829000473,0.11846838146448135,0,40.313575744628906
38690,534248958,641203711,0,-0.10635603964328766,0.11721792072057724,0,40.312400817871094
38700,535296510,641201664,0,-0.1082506850361824,0.1207679882645607,0,40.317726135253906
38710,539491839,641203711,0,-0.10637364536523819,0.11973974108695984,0,40.313514709472656
38720,535297535,642253312,0,-0.10524078458547592,0.11817733198404312,0,40.309329986572266
38730,533200382,641203711,0,-0.10525627434253693,0.12111455947160721,0,40.3138313293457
38740,537394686,641202687,0,-0.10529577732086182,0.12213579565286636,0,40.31121063232422
38750,536346111,641203711,0,-0.10432393848896027,0.12043850868940353,0,40.308326721191406
38760,534248958,641204736,0,-0.10412844270467758,0.11828070878982544,0,40.31303787231445
38770,536346110,641201663,0,-0.10442230105400085,0.1204443946480751,0,40.311805725097656
38780,536346112,641203711,0,-0.10226806998252869,0.11905531585216522,0,40.31001281738281
38790,535296510,641203712,0,-0.10337892919778824,0.11365407705307007,0,40.30951690673828
38800,536346111,641202687,0,-0.10172723233699799,0.11953483521938324,0,40.31117630004883
38810,536346111,641204736,0,-0.10194908827543259,0.11517175287008286,0,40.307823181152344
38820,536346110,641202688,0,-0.10208877921104431,0.11970524489879608,0,40.31148910522461
38830,537394688,641205759,0,-0.1001933291554451,0.11947835981845856,0,40.30918502807617
38840,535297534,641203711,0,-0.10183188319206238,0.11935430020093918,0,40.31218719482422
38850,537394687,641203711,0,-0.10054628551006317,0.12200235575437546,0,40.3117561340332
38860,535297535,641204735,0,-0.1003488153219223,0.12047629803419113,0,40.310001373291016
38870,536346111,641203711,0,-0.1007806584239006,0.12166813015937805,0,40.31095504760742
38880,535297535,641203711,0,-0.10023945569992065,0.12077392637729645,0,40.308616638183594
38890,536346110,641203711,0,-0.1003074049949646,0.11966732889413834,0,40.309574127197266
38900,535297535,642252287,0,-0.09934403002262115,0.11918895691633224,0,40.305965423583984
38910,536346110,641203711,0,-0.09886667132377625,0.11830791085958481,0,40.308319091796875
38920,536346111,641203711,0,-0.09850358217954636,0.11881767213344574,0,40.3040657043457
38930,536346111,641203711,0,-0.09723200649023056,0.11876066029071808,0,40.30669403076172
38940,535297535,641203711,0,-0.09819258749485016,0.11967528611421585,0,40.30263137817383
38950,536345087,641203712,0,-0.09652668982744217,0.11991563439369202,0,40.30388641357422
38960,535297535,641202688,0,-0.09619457274675369,0.12093949317932129,0,40.29972839355469
38970,536346111,641203712,0,-0.09403612464666367,0.11976588517427444,0,40.2991828918457
38980,535297535,641203712,0,-0.09323737025260925,0.1203402429819107,0,40.29790496826172
38990,536346111,641203712,0,-0.09262202680110931,0.11878873407840729,0,40.299224853515625
39000,535297535,641203711,0,-0.09359847009181976,0.11987461894750595,0,40.29924392700195
39010,536346110,641203711,0,-0.09419557452201843,0.11999823153018951,0,40.297943115234375
39020,536346111,641204735,0,-0.09353780001401901,0.12030097097158432,0,40.29722213745117
39030,536346111,641203711,0,-0.09446646273136139,0.12171058356761932,0,40.29779052734375
39040,536346111,641203711,0,-0.09358900785446167,0.12175317108631134,0,40.29685592651367
39050,536346111,641203712,0,-0.09465263783931732,0.12329211086034775,0,40.29724884033203
39060,536346111,641203712,0,-0.09345793724060059,0.1238575354218483,0,40.2969856262207
39070,536346111,641203711,0,-0.09377051889896393,0.12449376285076141,0,40.29716873168945
39080,536346111,641203712,0,-0.09383684396743774,0.12427595257759094,0,40.29689407348633
39090,536346111,641203711,0,-0.09372486174106598,0.12569685280323029,0,40.295753479003906
39100,535297535,641203711,0,-0.09445265680551529,0.1272958666086197,0,40.296321868896484
39110,535297535,641203711,0,-0.09470506757497787,0.12893226742744446,0,40.2932014465332
39120,536346111,641203711,0,-0.09573230147361755,0.13048674166202545,0,40.292884826660156
39130,535297535,641203711,0,-0.09535282850265503,0.13082793354988098,0,40.29194259643555
39140,536346111,641203712,0,-0.09598203003406525,0.13007059693336487,0,40.29087448120117
39150,535297535,641203712,0,-0.09513124078512192,0.12939739227294922,0,40.29007339477539
39160,535297535,641203712,0,-0.09365784376859665,0.12889109551906586,0,40.288726806640625
39170,536346111,641203711,0,-0.09336422383785248,0.1284877061843872,0,40.28877639770508
39180,536346111,641203711,0,-0.09299246221780777,0.1289202719926834,0,40.28961944580078
39190,536346111,641203711,0,-0.0936034694314003,0.1302766650915146,0,40.28903579711914
39200,536346111,641203711,0,-0.09472320228815079,0.13138580322265625,0,40.28916931152344
39210,536346111,641203711,0,-0.09500885754823685,0.1312985122203827,0,40.28909683227539
39220,536346111,641203712,0,-0.09557662904262543,0.13164342939853668,0,40.28803253173828
39230,536346111,641203712,0,-0.09556485712528229,0.13113325834274292,0,40.28763198852539
39240,536346111,641203712,0,-0.09401976317167282,0.1306454986333847,0,40.287193298339844
39250,536346111,641203712,0,-0.09348414838314056,0.13004177808761597,0,40.28821563720703
39260,536346111,641203711,0,-0.0935225710272789,0.13011744618415833,0,40.28866958618164
39270,536346111,641203711,0,-0.09359998255968094,0.13189734518527985,0,40.28857421875
39280,536346111,641203711,0,-0.0943942740559578,0.1336723268032074,0,40.287899017333984
39290,536346111,641203711,0,-0.09365622699260712,0.13485223054885864,0,40.288818359375
39300,536346111,641203711,0,-0.09357213973999023,0.13479377329349518,0,40.28763198852539
39310,536346111,641203712,0,-0.09362641721963882,0.1353241503238678,0,40.286956787109375
39320,536346111,641203712,0,-0.09283789247274399,0.1346372365951538,0,40.28670120239258
39330,536346111,641203712,0,-0.09071632474660873,0.13357150554656982,0,40.28617858886719
39340,536346111,641203712,0,-0.0908866599202156,0.13439348340034485,0,40.28577423095703
39350,536346111,641203711,0,-0.09117520600557327,0.1352132260799408,0,40.28573989868164
39360,536346111,641203711,0,-0.09098067134618759,0.13541042804718018,0,40.285125732421875
39370,536346111,641203711,0,-0.09165728092193604,0.13622377812862396,0,40.283992767333984
39380,536346111,641203711,0,-0.09222123771905899,0.1373773217201233,0,40.2828254699707
39390,535297535,641203711,0,-0.09266932308673859,0.1370912492275238,0,40.28105926513672
39400,536346111,641203712,0,-0.09131146222352982,0.13684901595115662,0,40.2789306640625
39410,536346111,641203712,0,-0.09022591263055801,0.13667121529579163,0,40.277915954589844
39420,536346111,641203712,0,-0.08970349282026291,0.13641275465488434,0,40.27733612060547
39430,536346111,641203711,0,-0.0888761430978775,0.1359345018863678,0,40.2763786315918
39440,536346111,641203711,0,-0.08903535455465317,0.13653723895549774,0,40.27579116821289
39450,536346111,641203711,0,-0.08982851356267929,0.1372150480747223,0,40.275577545166016
39460,536346111,641203711,0,-0.09035221487283707,0.13808836042881012,0,40.27552032470703
39470,536346111,641203712,0,-0.09025441855192184,0.13812722265720367,0,40.275142669677734
39480,536346111,641203711,0,-0.09023905545473099,0.13876885175704956,0,40.27425765991211
39490,536346111,641203712,0,-0.08988816291093826,0.13805289566516876,0,40.273799896240234
39500,536346111,641203712,0,-0.08986428380012512,0.13807663321495056,0,40.27492904663086
39510,536346111,641203712,0,-0.0895514041185379,0.13805657625198364,0,40.27423858642578
39520,536346111,641203711,0,-0.08963770419359207,0.13809560239315033,0,40.27352523803711
39530,536346111,641203711,0,-0.08930958062410355,0.1381496638059616,0,40.2726936340332
39540,536346111,641203711,0,-0.08910077065229416,0.13873909413814545,0,40.27329635620117
39550,536346111,641203711,0,-0.08954644203186035,0.13972432911396027,0,40.271610260009766
39560,536346111,641203711,0,-0.08946242183446884,0.1396462619304657,0,40.271339416503906
39570,536346111,641203712,0,-0.08912596106529236,0.13942717015743256,0,40.27052307128906
39580,536346111,641203711,0,-0.08853325247764587,0.1389717161655426,0,40.26970291137695
39590,536346111,641203712,0,-0.0888170450925827,0.13875174522399902,0,40.269466400146484
39600,536346111,641203711,0,-0.08832637965679169,0.13916584849357605,0,40.270103454589844
39610,536346111,641203711,0,-0.08850909769535065,0.13990068435668945,0,40.27103805541992
39620,536346111,641203711,0,-0.08851725608110428,0.1403687745332718,0,40.27040481567383
39630,536346111,641203711,0,-0.08793175220489502,0.14164689183235168,0,40.270111083984375
39640,536346111,641203711,0,-0.08664602041244507,0.14155828952789307,0,40.270450592041016
39650,536346111,641203712,0,-0.08719885349273682,0.14054492115974426,0,40.27043151855469
39660,536346111,641203712,0,-0.08648541569709778,0.14026473462581635,0,40.27003860473633
39670,536346111,641203712,0,-0.08580243587493896,0.14033222198486328,0,40.2694091796875
39680,536346111,641203711,0,-0.0854504331946373,0.14108379185199738,0,40.26907730102539
39690,536346111,641203711,0,-0.08612991869449615,0.14172549545764923,0,40.26813507080078
39700,536346111,641203711,0,-0.08653091639280319,0.14215272665023804,0,40.26750946044922
39710,536346111,641203711,0,-0.08602014929056168,0.14240987598896027,0,40.26720428466797
39720,536346111,641203711,0,-0.08599629998207092,0.14178669452667236,0,40.26780700683594
39730,536346111,641203712,0,-0.08544949442148209,0.14184023439884186,0,40.26701736450195
39740,536346111,641203711,0,-0.08508723974227905,0.1414516121149063,0,40.266944885253906
39750,536346111,641203711,0,-0.08457053452730179,0.1404445916414261,0,40.26581954956055
39760,536346111,641203711,0,-0.08442175388336182,0.14054007828235626,0,40.264732360839844
39770,536346111,641203711,0,-0.08502425253391266,0.1416722685098648,0,40.263671875
39780,536346111,641203711,0,-0.0844874456524849,0.14235919713974,0,40.26292037963867
39790,536346111,641203711,0,-0.0842273160815239,0.1429988592863083,0,40.26245880126953
39800,536346111,641203711,0,-0.08491434156894684,0.14300256967544556,0,40.26173782348633
39810,536346111,641203711,0,-0.08482184261083603,0.14377166330814362,0,40.26092529296875
39820,536346111,641203711,0,-0.08543632179498672,0.14345219731330872,0,40.26019287109375
39830,536346111,641203711,0,-0.0849895104765892,0.1429806798696518,0,40.2601318359375
39840,536346111,641203712,0,-0.08452851325273514,0.1424969583749771,0,40.25956344604492
39850,536346111,641203711,0,-0.08439991623163223,0.14270803332328796,0,40.259056091308594
39860,536346111,641203711,0,-0.08427264541387558,0.14291073381900787,0,40.25822067260742
39870,536346111,641203711,0,-0.0844854936003685,0.1430301070213318,0,40.25827407836914
39880,536346111,641203712,0,-0.08422064036130905,0.14314275979995728,0,40.25731658935547
39890,536346111,641203712,0,-0.08376026153564453,0.14334414899349213,0,40.257022857666016
39900,535297535,641203712,0,-0.08340324461460114,0.1443367451429367,0,40.256072998046875
39910,536346111,641203711,0,-0.08324756473302841,0.1445620357990265,0,40.255252838134766
39920,536346111,641203711,0,-0.08403369039297104,0.14435914158821106,0,40.25503158569336
39930,535297535,641203712,0,-0.08469174057245255,0.1438462734222412,0,40.254459381103516
39940,535297535,641203712,0,-0.08431366831064224,0.1444365680217743,0,40.25246810913086
39950,536346111,641203712,0,-0.08308097720146179,0.14584492146968842,0,40.25180435180664
39960,536346111,641203711,0,-0.08305621147155762,0.1472225785255432,0,40.251827239990234
39970,536346111,641203711,0,-0.08332708477973938,0.14847126603126526,0,40.25170135498047
39980,536346111,641203712,0,-0.08233453333377838,0.14766521751880646,0,40.251739501953125
39990,536346111,641203712,0,-0.0813145786523819,0.1472310572862625,0,40.25103759765625
40000,536346111,641203712,0,-0.08140718936920166,0.1475200653076172,0,40.25010681152344
40010,536346111,641203711,0,-0.08192634582519531,0.14774246513843536,0,40.25071334838867
40020,536346111,641203711,0,-0.0826297253370285,0.14737369120121002,0,40.25008773803711
40030,536346111,641203711,0,-0.08217646181583405,0.14791907370090485,0,40.24855041503906
40040,536346111,641203711,0,-0.08235481381416321,0.14870113134384155,0,40.2488899230957
40050,536346111,641203711,0,-0.0816509798169136,0.1485625058412552,0,40.24899673461914
40060,536346111,641203712,0,-0.08146065473556519,0.14781412482261658,0,40.24876403808594
40070,536346111,641203712,0,-0.08133961260318756,0.1469820737838745,0,40.248191833496094
40080,536346111,641203711,0,-0.08125684410333633,0.14661124348640442,0,40.247642517089844
40090,536346111,641203711,0,-0.08113894611597061,0.14719262719154358,0,40.246238708496094
40100,536346111,641203711,0,-0.08080118894577026,0.14766159653663635,0,40.24599838256836
40110,536346111,641203711,0,-0.08007462322711945,0.14878976345062256,0,40.2454833984375
40120,536346111,641203711,0,-0.08000171929597855,0.148346945643425,0,40.2447395324707
40130,535297535,641203711,0,-0.07966329902410507,0.14791516959667206,0,40.24404525756836
