Timestamp,compactImu.a_xyz,compactImu.l_xyz,motorCompact.pwms,stabilizer.pitch,stabilizer.roll,stabilizer.thrust,stabilizer.yaw
38113,536346111,641203712,0,0.9122710227966309,-0.09820803254842758,0,0.3557678461074829
38116,536346111,641203712,0,0.9120931029319763,-0.09860888123512268,0,0.3559105694293976
38120,536346111,641203712,0,0.9117357730865479,-0.09905961900949478,0,0.35607045888900757
38123,536346111,641203712,0,0.9117357730865479,-0.09905961900949478,0,0.35607045888900757
38127,536346111,641203713,0,0.911761462688446,-0.09919717162847519,0,0.35630542039871216
38132,536346111,641203713,0,0.9119038581848145,-0.09893166273832321,0,0.3562277555465698
38135,536346111,641203713,0,0.9119038581848145,-0.09893166273832321,0,0.3562277555465698
38138,536346111,641203713,0,0.9118858575820923,-0.09835944324731827,0,0.3559776246547699
38142,536346111,641203713,0,0.9120699167251587,-0.09757962077856064,0,0.3561570644378662
38145,536346111,642252288,0,0.912095308303833,-0.09683018177747726,0,0.35621973872184753
38149,536346111,642252288,0,0.9118947982788086,-0.09644641727209091,0,0.356324166059494
38154,536346111,642252288,0,0.9117702841758728,-0.09635144472122192,0,0.3562900125980377
38157,536346111,642252288,0,0.9117574691772461,-0.09668102115392685,0,0.3562179505825043
38163,536346111,642252288,0,0.91167151927948,-0.09696032851934433,0,0.3565278947353363
38165,536346111,642252288,0,0.9114882349967957,-0.09703515470027924,0,0.3568851947784424
38167,536346111,642252289,0,0.9114882349967957,-0.09703515470027924,0,0.3568851947784424
38171,536346111,641203713,0,0.9116477370262146,-0.0967806726694107,0,0.3569285273551941
38176,536346111,641203713,0,0.911335289478302,-0.09688074141740799,0,0.35748475790023804
38179,536346111,641203713,0,0.911335289478302,-0.09688074141740799,0,0.35748475790023804
38183,536346111,641203712,0,0.910994827747345,-0.09686855971813202,0,0.3580608069896698
38188,536346111,641203712,0,0.9108245372772217,-0.09715617448091507,0,0.358547568321228
38191,536346110,642252288,0,0.9108245372772217,-0.09715617448091507,0,0.358547568321228
38196,536346111,642252288,0,0.911097526550293,-0.09813195466995239,0,0.3577856123447418
38199,536346111,641203712,0,0.911097526550293,-0.09813195466995239,0,0.3577856123447418
38203,536346111,641203713,0,0.9111973643302917,-0.0978500172495842,0,0.35782939195632935
38208,536346111,642252289,0,0.9114149808883667,-0.09744414687156677,0,0.3581525683403015
38211,536346111,642252289,0,0.9114149808883667,-0.09744414687156677,0,0.3581525683403015
38216,536346111,642252289,0,0.9104024767875671,-0.0972093939781189,0,0.3581676483154297
38219,536346111,642252289,0,0.9104024767875671,-0.0972093939781189,0,0.3581676483154297
38223,535296511,642252288,0,0.9102219939231873,-0.09740041941404343,0,0.35778242349624634
38228,536346111,642252289,0,0.9108558893203735,-0.09791296720504761,0,0.3571406304836273
38230,536346111,642252289,0,0.9108558893203735,-0.09791296720504761,0,0.3571406304836273
38233,536346111,642252289,0,0.9106412529945374,-0.09802527725696564,0,0.3571777641773224
38238,536346111,641203713,0,0.9105745553970337,-0.09792393445968628,0,0.3574722707271576
38241,536346111,641203713,0,0.9107387661933899,-0.09791787713766098,0,0.3582141101360321
38245,536346111,641203712,0,0.9110575914382935,-0.09778387099504471,0,0.3586394786834717
38250,536346111,641203712,0,0.9111460447311401,-0.09775666147470474,0,0.35890981554985046
38253,536346111,641203712,0,0.9108256697654724,-0.09770044684410095,0,0.35901880264282227
38257,536346111,641203712,0,0.910864531993866,-0.09728705137968063,0,0.35915419459342957
38262,536345087,642252289,0,0.9112761616706848,-0.09692703932523727,0,0.3594977855682373
38265,536346111,642252289,0,0.9117083549499512,-0.09655072540044785,0,0.3600078523159027
38269,536346111,642252288,0,0.9115683436393738,-0.09639543294906616,0,0.3603855073451996
38273,536346111,642252288,0,0.9113335013389587,-0.09624726325273514,0,0.36015161871910095
38275,536346111,642252288,0,0.9113335013389587,-0.09624726325273514,0,0.36015161871910095
38278,536346111,642252288,0,0.9110589623451233,-0.09602265805006027,0,0.3596542775630951
38282,536346110,642252288,0,0.9111853837966919,-0.0960727110505104,0,0.35925161838531494
38285,536346110,642252288,0,0.9111878871917725,-0.09644834697246552,0,0.35899317264556885
38289,536346111,642252288,0,0.9106612801551819,-0.09636130183935165,0,0.3592655062675476
38292,536346111,642252288,0,0.9107930064201355,-0.09599748253822327,0,0.3597221374511719
38294,536346111,642252288,0,0.9107930064201355,-0.09599748253822327,0,0.3597221374511719
38297,536346111,642252288,0,0.9109812378883362,-0.09567110240459442,0,0.3602403998374939
38304,536346111,642252289,0,0.9111918210983276,-0.09624967724084854,0,0.3614271879196167
38307,536346111,642252289,0,0.9111918210983276,-0.09624967724084854,0,0.3614271879196167
38311,536346111,642252289,0,0.911131739616394,-0.09644975513219833,0,0.36123791337013245
38316,536346111,642252289,0,0.9109787940979004,-0.09666826575994492,0,0.36067864298820496
38319,536346111,642252289,0,0.9109787940979004,-0.09666826575994492,0,0.36067864298820496
38323,536346111,642252289,0,0.9111056923866272,-0.0968310609459877,0,0.360960453748703
38328,536346111,642252289,0,0.9111603498458862,-0.09730928391218185,0,0.36212560534477234
38331,536346111,642252288,0,0.9111603498458862,-0.09730928391218185,0,0.36212560534477234
38335,536346111,642252288,0,0.9109554886817932,-0.09792657941579819,0,0.36234721541404724
38340,536346111,642252288,0,0.9097875356674194,-0.09831856191158295,0,0.36292994022369385
38343,536346111,642252288,0,0.9097875356674194,-0.09831856191158295,0,0.36292994022369385
38348,536346111,642252288,0,0.9095264077186584,-0.09797770529985428,0,0.36335843801498413
38351,536346111,642252288,0,0.9095264077186584,-0.09797770529985428,0,0.36335843801498413
38359,536346111,642252288,0,0.9088677763938904,-0.09807600826025009,0,0.3639219403266907
38364,536345087,641203712,0,0.9092392325401306,-0.09814414381980896,0,0.3649597764015198
38368,536346111,641203712,0,0.9090980887413025,-0.09828774631023407,0,0.3657369017601013
38372,536346111,641203712,0,0.9091392159461975,-0.09829162061214447,0,0.36631453037261963
38375,536346111,642252288,0,0.9091392159461975,-0.09829162061214447,0,0.36631453037261963
38379,536346111,642252289,0,0.9092479348182678,-0.0979255959391594,0,0.3664136826992035
38388,536346111,642252289,0,0.9089140295982361,-0.09748683124780655,0,0.3660709261894226
38391,536346111,642252289,0,0.9089140295982361,-0.09748683124780655,0,0.3660709261894226
38395,536346111,642252289,0,0.9093471765518188,-0.09707379341125488,0,0.36583220958709717
38400,536346111,642252289,0,0.9096243977546692,-0.09694577008485794,0,0.3660813868045807
38402,536346111,641203712,0,0.9096243977546692,-0.09694577008485794,0,0.3660813868045807
38405,536346111,642252288,0,0.9094682931900024,-0.09679827094078064,0,0.365725040435791
38410,536346111,641203712,0,0.9092903733253479,-0.096824049949646,0,0.36559611558914185
38413,536346111,642252288,0,0.9093561172485352,-0.09653068333864212,0,0.36571362614631653
38417,536346111,642252288,0,0.9092341661453247,-0.096243716776371,0,0.3658408224582672
38421,536346111,642252288,0,0.9091338515281677,-0.09602893888950348,0,0.36618712544441223
38423,536346111,642252288,0,0.9091338515281677,-0.09602893888950348,0,0.36618712544441223
38427,536346111,642252288,0,0.9090338945388794,-0.09567603468894958,0,0.36641478538513184
38431,536346111,642252289,0,0.9088450074195862,-0.09546098113059998,0,0.36676377058029175
38433,536346111,642252289,0,0.908545732498169,-0.09548753499984741,0,0.3669068217277527
38437,536346110,642252289,0,0.9084324240684509,-0.09611837565898895,0,0.36727219820022583
38441,536346110,642252288,0,0.9085041284561157,-0.09684256464242935,0,0.3678593039512634
38443,536346111,642252288,0,0.9085041284561157,-0.09684256464242935,0,0.3678593039512634
38447,536346111,642252288,0,0.9087251424789429,-0.09745118021965027,0,0.3680187165737152
38451,536346111,642252288,0,0.9087364673614502,-0.0980415791273117,0,0.3676457405090332
38456,536346110,642252288,0,0.9082586765289307,-0.0992785394191742,0,0.3673209547996521
38459,536345087,642252289,0,0.9082586765289307,-0.0992785394191742,0,0.3673209547996521
38464,535297535,642252288,0,0.909038245677948,-0.09969369322061539,0,0.365949422121048
38467,535297535,642252288,0,0.909038245677948,-0.09969369322061539,0,0.365949422121048
38471,536346111,642252288,0,0.9089034795761108,-0.09934461861848831,0,0.36546701192855835
38476,536346111,641203712,0,0.9088152050971985,-0.0989849865436554,0,0.36562520265579224
38479,536346111,642252288,0,0.9088152050971985,-0.0989849865436554,0,0.36562520265579224
38483,536346111,642252288,0,0.9090135097503662,-0.09907469153404236,0,0.3654516637325287
38488,536346111,642252288,0,0.9092679023742676,-0.0986848697066307,0,0.3645485043525696
38491,536346111,641203713,0,0.9092679023742676,-0.0986848697066307,0,0.3645485043525696
38495,536346111,641203713,0,0.9094606637954712,-0.09900949150323868,0,0.36416003108024597
38500,536346111,641203713,0,0.9093085527420044,-0.0985012874007225,0,0.3637638986110687
38503,536346111,641203713,0,0.9093085527420044,-0.0985012874007225,0,0.3637638986110687
38508,536346111,642252289,0,0.9093889594078064,-0.09796267002820969,0,0.36345598101615906
38511,536346111,642252289,0,0.9093889594078064,-0.09796267002820969,0,0.36345598101615906
38515,536345087,642252289,0,0.9099553227424622,-0.09780041128396988,0,0.3634089231491089
38520,536346111,642252289,0,0.910368025302887,-0.09769049286842346,0,0.3638630211353302
38523,536346110,641203712,0,0.910368025302887,-0.09769049286842346,0,0.3638630211353302
38527,536346110,641203712,0,0.9102112650871277,-0.09824954718351364,0,0.3639318346977234
38532,536346111,641203712,0,0.9096207618713379,-0.09881791472434998,0,0.3642740547657013
38535,536346111,641203712,0,0.9096207618713379,-0.09881791472434998,0,0.3642740547657013
38540,536346111,641203712,0,0.9091901183128357,-0.09868361055850983,0,0.3637600541114807
38543,536346111,641203712,0,0.9091901183128357,-0.09868361055850983,0,0.3637600541114807
38547,536346111,641203712,0,0.9090277552604675,-0.09899164736270905,0,0.36340412497520447
38552,536346111,642252288,0,0.9089623689651489,-0.09929240494966507,0,0.3634467124938965
38554,536346111,642252288,0,0.9089623689651489,-0.09929240494966507,0,0.3634467124938965
38557,535297535,642252288,0,0.9092220664024353,-0.09942107647657394,0,0.3630372881889343
38562,536346111,641203712,0,0.9090265035629272,-0.09923055768013,0,0.36255329847335815
38565,536346111,641203712,0,0.9092727899551392,-0.09866692125797272,0,0.36238667368888855
38569,536346111,641203713,0,0.9097543954849243,-0.09828027337789536,0,0.3628162145614624
38574,536346111,641203713,0,0.909562349319458,-0.09789974242448807,0,0.3630771338939667
38577,536346111,641203713,0,0.9096811413764954,-0.09740174561738968,0,0.3628697395324707
38584,536346111,642252289,0,0.9106695652008057,-0.09735532104969025,0,0.36215582489967346
38587,536346111,642252289,0,0.9106695652008057,-0.09735532104969025,0,0.36215582489967346
38591,536346111,642252288,0,0.9105874300003052,-0.09739597141742706,0,0.36195650696754456
38600,536346111,642252289,0,0.91047203540802,-0.09678906947374344,0,0.3623480796813965
38602,536346111,642252289,0,0.91047203540802,-0.09678906947374344,0,0.3623480796813965
38605,536346111,642252288,0,0.910629391670227,-0.09711746126413345,0,0.36203715205192566
38610,536346111,642252288,0,0.9108564853668213,-0.09720434993505478,0,0.3619381785392761
38613,536346111,642252288,0,0.910760223865509,-0.09721772372722626,0,0.361621618270874
38618,536346111,642252288,0,0.9105782508850098,-0.09740704298019409,0,0.3613373041152954
38622,536346111,642252288,0,0.9106962084770203,-0.09743859618902206,0,0.3610786199569702
38626,536346111,642252288,0,0.9107460379600525,-0.09773978590965271,0,0.36109280586242676
38632,536346111,642252288,0,0.910573422908783,-0.09852948039770126,0,0.3615747094154358
38635,536346111,642252288,0,0.910573422908783,-0.09852948039770126,0,0.3615747094154358
38639,536346111,642252288,0,0.9102534651756287,-0.09852566570043564,0,0.36141979694366455
38647,536346111,642252288,0,0.9100965261459351,-0.09896127879619598,0,0.3617837131023407
38649,536346111,642252288,0,0.9103451371192932,-0.0992756187915802,0,0.36185503005981445
38652,536346111,642252288,0,0.9103024005889893,-0.09942597150802612,0,0.36156657338142395
38655,536346111,642252288,0,0.9103024005889893,-0.09942597150802612,0,0.36156657338142395
38660,536346110,641203713,0,0.9103267788887024,-0.10045331716537476,0,0.3613683879375458
38664,536346111,641203713,0,0.9104762673377991,-0.10024125874042511,0,0.36135390400886536
38667,536346111,641203712,0,0.9104762673377991,-0.10024125874042511,0,0.36135390400886536
38671,536346111,641203712,0,0.9105169177055359,-0.09978215396404266,0,0.36137935519218445
38676,536346111,641203712,0,0.9100220203399658,-0.09986600279808044,0,0.36153990030288696
38678,536346111,642252288,0,0.9100220203399658,-0.09986600279808044,0,0.36153990030288696
38681,536346111,642252288,0,0.9097316861152649,-0.09980554133653641,0,0.36186113953590393
38686,536346111,642252288,0,0.9095699787139893,-0.10011055320501328,0,0.3621979355812073
38689,536346111,642252288,0,0.9094238877296448,-0.1000046357512474,0,0.3622569739818573
38693,536346111,642252288,0,0.9095282554626465,-0.09929947555065155,0,0.3619369864463806
38698,536346110,642252288,0,0.909713089466095,-0.09951724112033844,0,0.3621397018432617
38700,536346111,642252288,0,0.909976601600647,-0.09975704550743103,0,0.36290261149406433
38705,536345087,642252288,0,0.910400390625,-0.0997495949268341,0,0.3631034791469574
38710,536346111,642252288,0,0.9105124473571777,-0.09969744086265564,0,0.36346134543418884
38712,536346111,642252288,0,0.910527229309082,-0.09956652671098709,0,0.3641188442707062
38715,536346111,642252288,0,0.910527229309082,-0.09956652671098709,0,0.3641188442707062
38719,536346111,642252289,0,0.9103817939758301,-0.09948689490556717,0,0.36456990242004395
38721,536346111,642252289,0,0.9101522564888,-0.09961624443531036,0,0.3648082911968231
38725,536346111,642252288,0,0.910351574420929,-0.09968741238117218,0,0.3650996685028076
38730,536346111,642252288,0,0.9103036522865295,-0.09962717443704605,0,0.36532658338546753
38733,536346111,642252288,0,0.9101143479347229,-0.09997560828924179,0,0.365347683429718
38737,536346111,642252289,0,0.9104105830192566,-0.09988609701395035,0,0.3655985891819
38742,536346111,642252289,0,0.9106473326683044,-0.09952172636985779,0,0.3661220669746399
38745,536346111,642252288,0,0.910999596118927,-0.09883194416761398,0,0.3663789927959442
38749,536346111,642252288,0,0.9112428426742554,-0.09854641556739807,0,0.3665813207626343
38754,536346111,642252288,0,0.9111651182174683,-0.09823909401893616,0,0.36695948243141174
38757,536346111,642252288,0,0.910995602607727,-0.09792178124189377,0,0.36729103326797485
38762,536346111,642252288,0,0.9107840657234192,-0.09765185415744781,0,0.3673945367336273
38765,536346111,642252288,0,0.910736083984375,-0.0978996530175209,0,0.3673470914363861
38769,536346111,642252288,0,0.9107139706611633,-0.09806592762470245,0,0.3673926889896393
38774,536346111,642252288,0,0.9105958342552185,-0.09791147708892822,0,0.3674122095108032
38777,536346111,642252288,0,0.9105478525161743,-0.0979420617222786,0,0.3678053617477417
38781,536346111,642252288,0,0.9104368686676025,-0.09785374253988266,0,0.36754995584487915
38786,536346111,641203712,0,0.9105974435806274,-0.0977073535323143,0,0.3672373592853546
38789,536346111,641203712,0,0.9105525016784668,-0.09795315563678741,0,0.3674325942993164
38794,536346111,641203712,0,0.9103451371192932,-0.0980355441570282,0,0.36741816997528076
38797,536346111,641203712,0,0.9104790091514587,-0.0974782407283783,0,0.3669734597206116
38800,536346111,641203712,0,0.9105671048164368,-0.09718166291713715,0,0.3668980300426483
38804,536346110,642252288,0,0.910283088684082,-0.09762419760227203,0,0.36671796441078186
38807,536346111,642252288,0,0.910283088684082,-0.09762419760227203,0,0.36671796441078186
38810,536346111,642252288,0,0.9099201560020447,-0.0978204682469368,0,0.36667075753211975
38814,536346111,642252288,0,0.9098830819129944,-0.0975939929485321,0,0.366886168718338
38818,536346111,642252288,0,0.909873902797699,-0.09756581485271454,0,0.3673141300678253
38822,536346110,642252288,0,0.9096728563308716,-0.09797657281160355,0,0.3677014708518982
38825,535297534,642252288,0,0.9093725085258484,-0.09854348748922348,0,0.3671349883079529
38830,536346111,642252288,0,0.908706784248352,-0.09858335554599762,0,0.3668535351753235
38833,536346111,642252289,0,0.9085028767585754,-0.0985010638833046,0,0.3668903112411499
38838,536346111,642252289,0,0.9083108305931091,-0.09835895150899887,0,0.36702975630760193
38842,536346111,642252289,0,0.9082337021827698,-0.09811984747648239,0,0.36705446243286133
38844,536346111,642252289,0,0.9084488153457642,-0.09786924719810486,0,0.3668540418148041
38848,536346111,642252289,0,0.9083585739135742,-0.09780484437942505,0,0.3665039837360382
38852,536346111,642252289,0,0.9083625674247742,-0.09764904528856277,0,0.36683958768844604
38854,536346111,642252289,0,0.9083625674247742,-0.09764904528856277,0,0.36683958768844604
38858,536345087,642252288,0,0.9087709188461304,-0.09724720567464828,0,0.3672148585319519
38862,536346111,642252288,0,0.9092499613761902,-0.0969322994351387,0,0.367548406124115
38866,536346111,642252289,0,0.9094934463500977,-0.09695884585380554,0,0.3676510751247406
38869,536346111,642252289,0,0.9096298217773438,-0.09708646684885025,0,0.36752456426620483
38872,536346111,642252289,0,0.9099655151367188,-0.09708822518587112,0,0.36737677454948425
38876,536346111,642252289,0,0.9099063873291016,-0.09665033966302872,0,0.36736491322517395
38879,536346111,642252289,0,0.9099063873291016,-0.09665033966302872,0,0.36736491322517395
38882,536346110,642252289,0,0.9096419811248779,-0.09666205942630768,0,0.3677048087120056
38886,536346110,642252289,0,0.9096264839172363,-0.09734148532152176,0,0.36803656816482544
38890,536346110,642252289,0,0.9095186591148376,-0.09798628836870193,0,0.3680102825164795
38894,536346111,642252288,0,0.9091089367866516,-0.09840332716703415,0,0.3679555356502533
38898,536346111,642252288,0,0.9088793396949768,-0.09869049489498138,0,0.3678654730319977
38902,536346111,642252288,0,0.9089597463607788,-0.09865467995405197,0,0.36777785420417786
38906,536346111,642252288,0,0.9088296294212341,-0.09833269566297531,0,0.36763468384742737
38910,536346111,641203713,0,0.9086068272590637,-0.09842430055141449,0,0.3681431710720062
38914,536346111,641203712,0,0.9082711935043335,-0.09853670001029968,0,0.3684343695640564
38918,536346111,641203712,0,0.9077425599098206,-0.09857399761676788,0,0.3681822717189789
38922,536346111,641203712,0,0.9075552821159363,-0.09868822246789932,0,0.36831429600715637
38926,536346111,642252288,0,0.907708466053009,-0.09821788221597672,0,0.36866462230682373
38930,536346111,642252289,0,0.9079785943031311,-0.09794851392507553,0,0.36891627311706543
38934,536346110,642252289,0,0.90830397605896,-0.09823209047317505,0,0.36901408433914185
38938,536346111,642252289,0,0.9085091352462769,-0.09878015518188477,0,0.36891981959342957
38942,536346111,642252289,0,0.9082388877868652,-0.09871484339237213,0,0.3689040541648865
38946,536346111,642252288,0,0.9079183340072632,-0.09832694381475449,0,0.36875081062316895
38950,536346111,641203712,0,0.9078447222709656,-0.097991444170475,0,0.3686596155166626
38954,536346111,641203712,0,0.9075485467910767,-0.09796098619699478,0,0.3689112067222595
38956,536346111,641203712,0,0.9072635173797607,-0.09823164343833923,0,0.36939749121665955
38960,536346110,641203712,0,0.9072474241256714,-0.09862685948610306,0,0.36952805519104004
38963,536346110,642252288,0,0.9072474241256714,-0.09862685948610306,0,0.36952805519104004
38966,536346111,642252288,0,0.9072132706642151,-0.09891004115343094,0,0.3692082166671753
38970,536346111,642252288,0,0.9073328375816345,-0.09874793142080307,0,0.368865042924881
38974,536345087,642252288,0,0.9076225757598877,-0.09885776787996292,0,0.3689563274383545
38978,536346111,642252288,0,0.907987654209137,-0.09920639544725418,0,0.3693094551563263
38982,536346111,642252288,0,0.90804523229599,-0.09939935803413391,0,0.36933809518814087
38986,536346110,641203712,0,0.9083320498466492,-0.0996633842587471,0,0.3693210780620575
38989,536346110,641203712,0,0.90870600938797,-0.10017102211713791,0,0.3694182336330414
38992,536346111,641203713,0,0.9090256094932556,-0.09998390823602676,0,0.3693900406360626
38995,536346111,641203713,0,0.9090256094932556,-0.09998390823602676,0,0.3693900406360626
38998,536346111,641203713,0,0.9092387557029724,-0.09969432651996613,0,0.3693654239177704
39002,536346111,641203713,0,0.9090381860733032,-0.09944824129343033,0,0.3695346713066101
39005,536346111,641203712,0,0.908810555934906,-0.09936979413032532,0,0.3697287142276764
39009,536346111,641203712,0,0.9084634184837341,-0.09908313304185867,0,0.3701169490814209
39012,536346111,641203713,0,0.908794641494751,-0.09844880551099777,0,0.3706105053424835
39015,536346111,641203713,0,0.908794641494751,-0.09844880551099777,0,0.3706105053424835
39018,536346111,641203713,0,0.9092594981193542,-0.09793993085622787,0,0.37095552682876587
39022,536346111,641203712,0,0.9096977114677429,-0.09751016646623611,0,0.3710608184337616
39026,536346111,641203712,0,0.9096632599830627,-0.09716343879699707,0,0.37108132243156433
39030,536346111,642252289,0,0.9097575545310974,-0.09692350029945374,0,0.37129533290863037
39034,536346111,642252288,0,0.9100157022476196,-0.09661196917295456,0,0.37123605608940125
39038,536346111,642252288,0,0.9101970791816711,-0.09660126268863678,0,0.3713398575782776
39042,536346111,642252288,0,0.9100995063781738,-0.09670483320951462,0,0.371179461479187
39046,536346111,642252288,0,0.9100147485733032,-0.09656135737895966,0,0.37091052532196045
39050,536346111,642252288,0,0.9101752638816833,-0.09652680158615112,0,0.3706759810447693
39054,536346111,642252288,0,0.9102666974067688,-0.09664317965507507,0,0.37056249380111694
39058,536346111,642252288,0,0.9101974964141846,-0.09632158279418945,0,0.37028932571411133
39062,536346110,642252288,0,0.9102593064308167,-0.09619124978780746,0,0.3698963522911072
39066,536346110,642252288,0,0.9104295969009399,-0.0966804027557373,0,0.36984699964523315
39070,536346111,642252288,0,0.9102871417999268,-0.09657744318246841,0,0.3700978755950928
39074,536346111,641203712,0,0.9101840853691101,-0.09638084471225739,0,0.37031933665275574
39078,536346111,642252289,0,0.9103981852531433,-0.09660685807466507,0,0.3706120550632477
39082,536346111,642252289,0,0.9107110500335693,-0.09689211845397949,0,0.37108880281448364
39086,536346111,642252289,0,0.9112315773963928,-0.09681028872728348,0,0.3713144063949585
39090,536346111,642252288,0,0.9117066860198975,-0.09639357775449753,0,0.3715401291847229
39094,536346110,642252288,0,0.9117850661277771,-0.09653022885322571,0,0.3717549741268158
39098,536346111,642252288,0,0.9116413593292236,-0.09700726717710495,0,0.3715778887271881
39102,536346111,642252289,0,0.9112403988838196,-0.09733257442712784,0,0.3710053265094757
39105,536346111,642252289,0,0.9109953045845032,-0.09750392287969589,0,0.37077146768569946
39108,536346111,642252289,0,0.9110209345817566,-0.0976996123790741,0,0.37067732214927673
39112,536346111,642252288,0,0.9113613963127136,-0.09757594019174576,0,0.37089303135871887
39115,536345087,642252288,0,0.9113613963127136,-0.09757594019174576,0,0.37089303135871887
39118,535297535,642252288,0,0.9118833541870117,-0.09741143137216568,0,0.37048962712287903
39122,536346111,642252289,0,0.9120592474937439,-0.09719209372997284,0,0.37004923820495605
39125,536346111,642252288,0,0.9119964241981506,-0.09674295783042908,0,0.36979547142982483
39128,536346111,642252288,0,0.9119147658348083,-0.09638623148202896,0,0.3697105348110199
39131,536346111,642252288,0,0.9119147658348083,-0.09638623148202896,0,0.3697105348110199
39134,536346111,642252289,0,0.9119336605072021,-0.09601809829473495,0,0.3698742091655731
39138,536346111,642252289,0,0.9121224284172058,-0.09596989303827286,0,0.3701316714286804
39140,536346111,642252289,0,0.9125182032585144,-0.09586604684591293,0,0.37014132738113403
39144,536346111,642252289,0,0.9130398035049438,-0.096037358045578,0,0.370248943567276
39147,536345087,642252289,0,0.9130398035049438,-0.096037358045578,0,0.370248943567276
39150,536346111,642252289,0,0.9136455655097961,-0.09631645679473877,0,0.370585173368454
39152,536346111,642252289,0,0.9138327836990356,-0.09594057500362396,0,0.3712749481201172
39156,536346111,642252289,0,0.914044201374054,-0.09569986164569855,0,0.3717612624168396
39159,536346111,642252289,0,0.914044201374054,-0.09569986164569855,0,0.3717612624168396
39162,536346111,642252289,0,0.9142775535583496,-0.09585649520158768,0,0.3721592426300049
39164,536346110,642252289,0,0.9142748117446899,-0.09636551141738892,0,0.3718947470188141
39168,536346110,642252289,0,0.9144105315208435,-0.09674809128046036,0,0.37203550338745117
39171,536346111,642252289,0,0.9144105315208435,-0.09674809128046036,0,0.37203550338745117
39174,536346111,642252288,0,0.914652943611145,-0.09632956981658936,0,0.3723013401031494
39176,536346111,642252288,0,0.9147293567657471,-0.09618768841028214,0,0.3722013235092163
39180,536346110,642252289,0,0.9149326682090759,-0.09651430696249008,0,0.37217703461647034
39183,536346111,642252288,0,0.9149326682090759,-0.09651430696249008,0,0.37217703461647034
39186,536346111,642252288,0,0.915221631526947,-0.09643466025590897,0,0.3721138536930084
39189,536346110,642252288,0,0.9151285886764526,-0.09677700698375702,0,0.3725118339061737
39192,536346111,642252288,0,0.9150490760803223,-0.09704563021659851,0,0.37303146719932556
39195,536346111,642252289,0,0.9150490760803223,-0.09704563021659851,0,0.37303146719932556
39198,536346111,642252289,0,0.9152930378913879,-0.09737955033779144,0,0.37328386306762695
39202,536346111,642252288,0,0.9154240489006042,-0.09763848036527634,0,0.37335115671157837
39206,536346111,642252288,0,0.9152756333351135,-0.09783418476581573,0,0.3737899363040924
39210,536346111,642252288,0,0.9152271747589111,-0.0978131890296936,0,0.37419822812080383
39214,535297535,642252288,0,0.914937436580658,-0.09731312096118927,0,0.3738728165626526
39218,536346111,641203712,0,0.9148129820823669,-0.09695430845022202,0,0.37320607900619507
39222,536346111,641203712,0,0.9142714142799377,-0.09675421565771103,0,0.3730911314487457
39226,536346110,641203712,0,0.9141780138015747,-0.09703803062438965,0,0.3732154965400696
39228,536346110,642252289,0,0.9144541621208191,-0.09766875207424164,0,0.3737106919288635
39232,536346111,642252289,0,0.9147680401802063,-0.0979469045996666,0,0.3737775385379791
39235,536346111,642252289,0,0.9147680401802063,-0.0979469045996666,0,0.3737775385379791
39238,536346111,642252289,0,0.9143439531326294,-0.09824931621551514,0,0.3734802007675171
39242,536346111,642252288,0,0.914127767086029,-0.09809429198503494,0,0.37339434027671814
39246,536346111,641203712,0,0.9137272238731384,-0.0975988507270813,0,0.37301015853881836
39250,536346110,642252288,0,0.9136629700660706,-0.0978536382317543,0,0.37310123443603516
39254,536346111,642252288,0,0.9138007164001465,-0.09823945164680481,0,0.3734019994735718
39257,536346111,642252288,0,0.9137237668037415,-0.09854063391685486,0,0.37354424595832825
39260,536346111,642252288,0,0.9134078025817871,-0.09878309816122055,0,0.3735090494155884
39263,536346111,641203712,0,0.9134078025817871,-0.09878309816122055,0,0.3735090494155884
39266,536346111,641203712,0,0.9127457737922668,-0.09867651015520096,0,0.3735557198524475
39270,536345087,642252288,0,0.9128742814064026,-0.09874451905488968,0,0.3738971948623657
39274,536345087,642252289,0,0.913526713848114,-0.09903723746538162,0,0.37387359142303467
39278,536346110,642252289,0,0.9141430258750916,-0.09950092434883118,0,0.37356898188591003
39282,536346111,642252289,0,0.9145370125770569,-0.10000694543123245,0,0.37317177653312683
39284,536346111,642252289,0,0.91494220495224,-0.09994737803936005,0,0.3731442391872406
39288,536346111,642252289,0,0.9150019884109497,-0.09987181425094604,0,0.37344616651535034
39291,536346111,642252289,0,0.9150019884109497,-0.09987181425094604,0,0.37344616651535034
39294,536346110,642252289,0,0.9151530861854553,-0.10014965385198593,0,0.3739503026008606
39298,536346110,642252289,0,0.9153409600257874,-0.10086645931005478,0,0.37394970655441284
39302,536346111,641203712,0,0.9151796102523804,-0.10123973339796066,0,0.3740411400794983
39306,536346111,641203712,0,0.9152180552482605,-0.10097747296094894,0,0.37430551648139954
39309,536346111,641203712,0,0.9154870510101318,-0.10065151751041412,0,0.3746751844882965
39312,536346111,642252288,0,0.9157394766807556,-0.10059443861246109,0,0.37452372908592224
39315,536346111,642252288,0,0.9157394766807556,-0.10059443861246109,0,0.37452372908592224
39318,536346111,642252288,0,0.916085958480835,-0.1003810465335846,0,0.37438666820526123
39321,536346111,642252288,0,0.9160564541816711,-0.10002968460321426,0,0.37450507283210754
39324,536346111,642252288,0,0.9159379601478577,-0.09951065480709076,0,0.3743085563182831
39327,536346111,642252288,0,0.9159379601478577,-0.09951065480709076,0,0.3743085563182831
39330,536346111,642252288,0,0.9159491658210754,-0.09924956411123276,0,0.374289870262146
39332,536346110,642252288,0,0.9159688949584961,-0.09992310404777527,0,0.3745453357696533
39336,536346111,641203712,0,0.9159987568855286,-0.10022078454494476,0,0.3749068081378937
39339,536346111,641203712,0,0.9159987568855286,-0.10022078454494476,0,0.3749068081378937
39342,536346111,641203713,0,0.9161489605903625,-0.10026779770851135,0,0.3754120171070099
39346,536346111,641203713,0,0.9163745641708374,-0.09999823570251465,0,0.37560081481933594
39348,536346111,641203713,0,0.9167521595954895,-0.09967295080423355,0,0.3759889304637909
39352,536346111,641203713,0,0.91676926612854,-0.0994764119386673,0,0.37619340419769287
39355,536346111,641203713,0,0.91676926612854,-0.0994764119386673,0,0.37619340419769287
39358,536346111,642252288,0,0.9169379472732544,-0.0993349552154541,0,0.3761059045791626
39362,536346111,642252288,0,0.9168570041656494,-0.09922686219215393,0,0.37585392594337463
39365,536346111,641203712,0,0.9167206287384033,-0.09912874549627304,0,0.3761156499385834
39368,536346111,641203712,0,0.9163641333580017,-0.0991934984922409,0,0.37658044695854187
39371,536346111,641203712,0,0.9163641333580017,-0.0991934984922409,0,0.37658044695854187
39374,536346111,641203712,0,0.9158703088760376,-0.09925317764282227,0,0.37696564197540283
39376,536346111,642252288,0,0.915856122970581,-0.09947571903467178,0,0.37727731466293335
39380,536346111,642252289,0,0.9157578945159912,-0.09953847527503967,0,0.3778506815433502
39383,536346110,642252289,0,0.9157578945159912,-0.09953847527503967,0,0.3778506815433502
39387,536346110,642252289,0,0.9155306816101074,-0.10012513399124146,0,0.3785126507282257
39389,536346111,642252289,0,0.9155600666999817,-0.10050707310438156,0,0.3786734640598297
39392,536346111,642252289,0,0.9154497981071472,-0.10047166049480438,0,0.37825852632522583
39395,536346111,642252289,0,0.9154497981071472,-0.10047166049480438,0,0.37825852632522583
39398,536346111,642252289,0,0.9152404069900513,-0.10041200369596481,0,0.3781939446926117
39401,536346111,642252288,0,0.9153998494148254,-0.10018549859523773,0,0.3785456120967865
39404,536346111,641203712,0,0.9152413010597229,-0.10001988708972931,0,0.37878793478012085
39407,536346111,641203712,0,0.9152413010597229,-0.10001988708972931,0,0.37878793478012085
39410,536346111,642252288,0,0.9150679707527161,-0.09982410073280334,0,0.37900638580322266
39413,536346111,642252288,0,0.9151869416236877,-0.09952151775360107,0,0.3790266811847687
39416,536346111,642252288,0,0.9151504635810852,-0.09925229102373123,0,0.37919673323631287
39419,536346111,642252288,0,0.9151504635810852,-0.09925229102373123,0,0.37919673323631287
39422,536346111,642252288,0,0.9150026440620422,-0.09904740005731583,0,0.37932178378105164
39425,536346111,642252288,0,0.9147809743881226,-0.09903258085250854,0,0.3792724311351776
39428,536346111,642252288,0,0.9148210883140564,-0.09900910407304764,0,0.3792591392993927
39431,536346111,642252289,0,0.9148210883140564,-0.09900910407304764,0,0.3792591392993927
39434,536346111,642252289,0,0.9146916270256042,-0.09895984083414078,0,0.37937217950820923
39438,536346111,642252289,0,0.9145830869674683,-0.09887249767780304,0,0.3794935643672943
39441,536346111,641203713,0,0.9145121574401855,-0.09896320849657059,0,0.3796357810497284
39444,536346111,641203712,0,0.9141370058059692,-0.09902980178594589,0,0.3799005448818207
39447,536346111,641203712,0,0.9141370058059692,-0.09902980178594589,0,0.3799005448818207
39450,536346111,642252288,0,0.9138423204421997,-0.09898709505796432,0,0.380038321018219
39453,536346111,642252288,0,0.9135461449623108,-0.09893271327018738,0,0.38035303354263306
39456,536346111,642252288,0,0.9132981300354004,-0.09855449199676514,0,0.380809485912323
39459,536346111,642252288,0,0.9132981300354004,-0.09855449199676514,0,0.380809485912323
39462,536346111,642252288,0,0.9130124449729919,-0.09839890152215958,0,0.3811684548854828
39465,536346110,642252288,0,0.9128127098083496,-0.09879465401172638,0,0.381115585565567
39468,536346111,642252288,0,0.9127241373062134,-0.0991218239068985,0,0.38057827949523926
39471,536346111,642252288,0,0.9127241373062134,-0.0991218239068985,0,0.38057827949523926
39474,536346110,642252288,0,0.9129171967506409,-0.09951871633529663,0,0.380669504404068
39477,536346111,642252288,0,0.9130499958992004,-0.09986679255962372,0,0.3810529112815857
39480,536346111,641203713,0,0.9130225777626038,-0.10020340979099274,0,0.3814915120601654
39483,536346111,642252289,0,0.9130225777626038,-0.10020340979099274,0,0.3814915120601654
39486,536346111,642252289,0,0.9132429361343384,-0.10015130788087845,0,0.3813595771789551
39489,536346111,642252289,0,0.9134581685066223,-0.10030718892812729,0,0.3808958828449249
39492,536346111,642252289,0,0.9136083722114563,-0.10033886879682541,0,0.38066092133522034
39495,536346111,642252289,0,0.9136083722114563,-0.10033886879682541,0,0.38066092133522034
39498,536346111,642252288,0,0.9136990308761597,-0.10014815628528595,0,0.3807889521121979
39502,536346111,642252288,0,0.9135382175445557,-0.10007933527231216,0,0.3810237944126129
39507,536346111,641203712,0,0.9132171869277954,-0.10003503412008286,0,0.38109588623046875
39509,536346110,641203712,0,0.9128130078315735,-0.10057695209980011,0,0.3813072144985199
39512,536346110,641203712,0,0.9126375317573547,-0.1011304184794426,0,0.38164135813713074
39515,536346111,642252288,0,0.9126375317573547,-0.1011304184794426,0,0.38164135813713074
39518,536346111,642252288,0,0.9128108024597168,-0.10100939124822617,0,0.38223546743392944
39521,536346111,642252288,0,0.9131643772125244,-0.10095366835594177,0,0.38271811604499817
39524,536346111,642252288,0,0.9135317206382751,-0.10135339200496674,0,0.3831048309803009
39527,536346111,642252288,0,0.9135317206382751,-0.10135339200496674,0,0.3831048309803009
39531,536346111,642252288,0,0.9136626124382019,-0.10134100168943405,0,0.3835948407649994
39536,536346111,642252289,0,0.9139268398284912,-0.10119688510894775,0,0.3843756914138794
39538,536346111,642252289,0,0.9139268398284912,-0.10119688510894775,0,0.3843756914138794
39542,536346111,642252289,0,0.9141461253166199,-0.10061218589544296,0,0.3846489489078522
39547,536346111,642252289,0,0.9142355918884277,-0.10032299906015396,0,0.38476842641830444
39549,536346111,642252289,0,0.9144963622093201,-0.10010513663291931,0,0.38468843698501587
39552,536345086,642252289,0,0.9151749610900879,-0.10066138952970505,0,0.38481593132019043
39555,536345086,642252289,0,0.9151749610900879,-0.10066138952970505,0,0.38481593132019043
39559,536346111,642252288,0,0.9157416224479675,-0.10108106583356857,0,0.38493576645851135
39562,536346111,642252288,0,0.91603684425354,-0.10117296129465103,0,0.38523831963539124
39565,536346111,642252288,0,0.9162322878837585,-0.10135006159543991,0,0.3854871690273285
39569,536346111,641203712,0,0.9160334467887878,-0.10115643590688705,0,0.3858678936958313
39572,536346111,641203712,0,0.9158939123153687,-0.10125280171632767,0,0.3860372006893158
39575,536346110,641203712,0,0.9158939123153687,-0.10125280171632767,0,0.3860372006893158
39580,536346110,641203712,0,0.9160770773887634,-0.10240806639194489,0,0.3866652250289917
39582,536346110,641203712,0,0.9160770773887634,-0.10240806639194489,0,0.3866652250289917
39585,536346111,641203712,0,0.9159112572669983,-0.10259581357240677,0,0.3866180181503296
39588,536346111,642252288,0,0.9157587289810181,-0.1022111028432846,0,0.3865010738372803
39592,536346111,642252288,0,0.9156561493873596,-0.10215174406766891,0,0.3864825665950775
39594,536346111,642252288,0,0.9156561493873596,-0.10215174406766891,0,0.3864825665950775
39597,536346111,642252288,0,0.9157779812812805,-0.1023939922451973,0,0.3863411843776703
39600,536346111,642252288,0,0.9155014753341675,-0.10267174988985062,0,0.386232852935791
39603,536346111,642252288,0,0.9155014753341675,-0.10267174988985062,0,0.386232852935791
39606,536346111,642252288,0,0.9148604273796082,-0.10291094332933426,0,0.3861851692199707
39609,536346111,642252288,0,0.9145298004150391,-0.10266351699829102,0,0.38621786236763
39613,536346111,642252288,0,0.9143006801605225,-0.10240337252616882,0,0.3862013816833496
39616,536346111,642252288,0,0.9138645529747009,-0.10251785069704056,0,0.38584667444229126
39619,536346111,642252288,0,0.9138645529747009,-0.10251785069704056,0,0.38584667444229126
39623,536346111,642252288,0,0.9134876728057861,-0.10264363139867783,0,0.3856547474861145
39625,536346111,642252288,0,0.9133914113044739,-0.10287126153707504,0,0.3860671818256378
39628,536346111,642252288,0,0.9136078953742981,-0.10313690453767776,0,0.3863806426525116
39631,536346111,642252289,0,0.9136078953742981,-0.10313690453767776,0,0.3863806426525116
39635,536346111,641203713,0,0.9138858914375305,-0.10331645607948303,0,0.3870463967323303
39637,536346111,641203713,0,0.914172887802124,-0.10338892042636871,0,0.38725847005844116
39640,536346111,641203712,0,0.9145347476005554,-0.10310743004083633,0,0.3872513473033905
39644,536346111,641203713,0,0.9147763848304749,-0.10308565944433212,0,0.38699907064437866
39646,536346111,641203713,0,0.9147763848304749,-0.10308565944433212,0,0.38699907064437866
39649,536346111,641203713,0,0.9146058559417725,-0.10299932211637497,0,0.3871771991252899
39652,536346111,642252289,0,0.9144951701164246,-0.10282652080059052,0,0.38721680641174316
39656,536346111,641203713,0,0.9147809743881226,-0.10271190851926804,0,0.38750356435775757
39658,536346111,641203713,0,0.9147809743881226,-0.10271190851926804,0,0.38750356435775757
39661,536346111,642252289,0,0.9149437546730042,-0.10278213769197464,0,0.3875424563884735
39664,536346111,642252288,0,0.9150921106338501,-0.10293842107057571,0,0.3874649405479431
39668,536346111,642252288,0,0.9153189659118652,-0.10294412821531296,0,0.38771340250968933
39670,536346111,642252288,0,0.9153189659118652,-0.10294412821531296,0,0.38771340250968933
39673,536346111,642252288,0,0.9151846170425415,-0.10273417830467224,0,0.3882002532482147
39677,536346111,641203712,0,0.9151554703712463,-0.10295694321393967,0,0.38872021436691284
39680,536346111,641203712,0,0.9151573181152344,-0.10324618965387344,0,0.3888999819755554
39683,536346111,642252288,0,0.9151573181152344,-0.10324618965387344,0,0.3888999819755554
39687,536346110,642252288,0,0.9150002002716064,-0.10359184443950653,0,0.38909369707107544
39689,536346110,642252288,0,0.915173351764679,-0.10414855182170868,0,0.3893350064754486
39692,536346111,642252288,0,0.9152624011039734,-0.10439375787973404,0,0.38892272114753723
39695,536346111,642252288,0,0.9152624011039734,-0.10439375787973404,0,0.38892272114753723
39699,536346111,642252288,0,0.9152230024337769,-0.10421985387802124,0,0.38867464661598206
39701,536346111,642252288,0,0.9150367975234985,-0.10439963638782501,0,0.3890538513660431
39704,536346111,642252289,0,0.9151105284690857,-0.10471341758966446,0,0.38927018642425537
39708,536346111,642252289,0,0.9154024124145508,-0.10502070188522339,0,0.3889889419078827
39710,536346111,641203713,0,0.9154024124145508,-0.10502070188522339,0,0.3889889419078827
39713,536346111,641203713,0,0.9155476689338684,-0.10528657585382462,0,0.3889075219631195
39716,536345087,641203713,0,0.9163438677787781,-0.10533227771520615,0,0.3889957666397095
39720,536345087,641203713,0,0.9172454476356506,-0.10519500076770782,0,0.38916015625
39722,536346111,641203713,0,0.9172454476356506,-0.10519500076770782,0,0.38916015625
39725,536346111,641203713,0,0.9172533750534058,-0.10529245436191559,0,0.38917216658592224
39729,536346111,642252289,0,0.9172610640525818,-0.10550923645496368,0,0.3886549472808838
39731,536346111,642252289,0,0.9172610640525818,-0.10550923645496368,0,0.3886549472808838
39734,536346111,642252289,0,0.9170969128608704,-0.10532813519239426,0,0.3882118761539459
39737,536346111,642252288,0,0.9169946312904358,-0.10537120699882507,0,0.38805675506591797
39741,536346111,642252288,0,0.9170011281967163,-0.10550867021083832,0,0.3879399299621582
39743,536346111,642252288,0,0.9170011281967163,-0.10550867021083832,0,0.3879399299621582
39746,536346111,642252288,0,0.9169166684150696,-0.10555939376354218,0,0.38787031173706055
39750,536346111,642252288,0,0.9168591499328613,-0.10568603873252869,0,0.3880474269390106
39752,536346111,642252289,0,0.916772723197937,-0.10556994378566742,0,0.3884805738925934
39755,536346111,642252289,0,0.916772723197937,-0.10556994378566742,0,0.3884805738925934
39758,536346111,642252289,0,0.916664183139801,-0.10534588247537613,0,0.3885330259799957
39762,536346111,642252288,0,0.916980504989624,-0.1051914393901825,0,0.38887184858322144
39765,536346111,642252288,0,0.9173335433006287,-0.1049681305885315,0,0.38883623480796814
39768,536346111,642252288,0,0.9175862669944763,-0.10455276817083359,0,0.3887433111667633
39772,536346111,642252288,0,0.917582631111145,-0.10441310703754425,0,0.38850152492523193
39774,536346111,642252288,0,0.917582631111145,-0.10441310703754425,0,0.38850152492523193
39777,536346111,642252288,0,0.9173560738563538,-0.10465151071548462,0,0.3882557451725006
39780,536346111,642252289,0,0.9171361327171326,-0.10492629557847977,0,0.3884429931640625
39784,536346111,642252289,0,0.917427659034729,-0.10526143014431,0,0.38835468888282776
39786,536346110,642252289,0,0.917427659034729,-0.10526143014431,0,0.38835468888282776
39789,536346110,642252289,0,0.9177646636962891,-0.1057504415512085,0,0.3884924650192261
39793,536346111,642252289,0,0.9177762269973755,-0.10567312687635422,0,0.3885219097137451
39795,536346111,642252289,0,0.9177762269973755,-0.10567312687635422,0,0.3885219097137451
39798,536346111,642252289,0,0.9178748726844788,-0.10578998178243637,0,0.3886626064777374
39801,536346111,642252289,0,0.9181893467903137,-0.10572471469640732,0,0.3891681432723999
39806,536346111,642252289,0,0.9181273579597473,-0.10580401867628098,0,0.38989028334617615
39809,536345087,642252289,0,0.9185278415679932,-0.10570811480283737,0,0.3900371789932251
39813,536346111,642252289,0,0.9191114902496338,-0.10522061586380005,0,0.390190064907074
39818,536346111,642252289,0,0.919239342212677,-0.10494514554738998,0,0.3901452422142029
39820,536346111,642252289,0,0.9193223118782043,-0.10473581403493881,0,0.39022010564804077
39823,536346111,642252289,0,0.9193223118782043,-0.10473581403493881,0,0.39022010564804077
39828,536346111,642252288,0,0.9189958572387695,-0.10420771688222885,0,0.38936060667037964
39831,536346111,642252288,0,0.9189958572387695,-0.10420771688222885,0,0.38936060667037964
39835,536346111,642252288,0,0.9187108874320984,-0.10399390757083893,0,0.38934436440467834
39839,536346111,642252288,0,0.9186837673187256,-0.10382065922021866,0,0.389259934425354
39841,536346111,642252288,0,0.9186894297599792,-0.10394378751516342,0,0.3893812298774719
39844,536346111,642252288,0,0.918438732624054,-0.10442911833524704,0,0.389415979385376
39848,536346111,642252288,0,0.9181433916091919,-0.10493884980678558,0,0.38965409994125366
39851,536346111,642252289,0,0.9181433916091919,-0.10493884980678558,0,0.38965409994125366
39855,536346110,642252289,0,0.918052077293396,-0.10537441074848175,0,0.39010512828826904
39859,536346111,642252289,0,0.9180806279182434,-0.10584209114313126,0,0.39028531312942505
39861,536346111,642252289,0,0.9178490042686462,-0.1057644635438919,0,0.390350878238678
39865,536346111,641203713,0,0.9174357056617737,-0.10557547956705093,0,0.39044392108917236
39870,536346111,641203713,0,0.917059600353241,-0.10537803173065186,0,0.39004796743392944
39873,536346111,641203713,0,0.9169119000434875,-0.10552506148815155,0,0.39018064737319946
39877,536346111,641203713,0,0.9164450764656067,-0.1056804284453392,0,0.39065274596214294
39882,536346111,641203712,0,0.9160207509994507,-0.1054607704281807,0,0.39082226157188416
39885,536346111,641203712,0,0.9160979390144348,-0.1055724024772644,0,0.39073073863983154
39889,536345087,642252288,0,0.9167460799217224,-0.10557345300912857,0,0.3908158242702484
39894,536346111,642252288,0,0.9168614149093628,-0.10554002970457077,0,0.3908231556415558
39897,536346111,642252288,0,0.9168992638587952,-0.10571034997701645,0,0.39070552587509155
39902,536346111,642252288,0,0.9168161749839783,-0.10595379024744034,0,0.3907817602157593
39905,536346111,642252288,0,0.9167847633361816,-0.1056143194437027,0,0.39104747772216797
39909,536345087,642252288,0,0.9172216057777405,-0.10499369353055954,0,0.39112409949302673
39914,536346111,642252288,0,0.9174267053604126,-0.1047511175274849,0,0.39119192957878113
39917,536346111,642252288,0,0.9175578951835632,-0.10429128259420395,0,0.39145004749298096
39920,536346111,642252288,0,0.9170091152191162,-0.10398727655410767,0,0.3918328881263733
39924,536346111,642252288,0,0.9164677262306213,-0.10369965434074402,0,0.3916725218296051
39927,536346111,642252288,0,0.9164677262306213,-0.10369965434074402,0,0.3916725218296051
39931,536346111,642252288,0,0.9162585735321045,-0.1034688800573349,0,0.391594797372818
39936,536346111,642252288,0,0.9164975881576538,-0.10358933359384537,0,0.39261865615844727
39939,536346111,641203713,0,0.9164975881576538,-0.10358933359384537,0,0.39261865615844727
39943,536346111,641203713,0,0.9166908860206604,-0.10371358692646027,0,0.39313915371894836
39948,536346111,641203713,0,0.9162032008171082,-0.10417265444993973,0,0.39338868856430054
39951,536346111,642252289,0,0.9162032008171082,-0.10417265444993973,0,0.39338868856430054
39955,536346111,642252288,0,0.9160844683647156,-0.10370790958404541,0,0.3931056559085846
39960,536346111,642252288,0,0.916168212890625,-0.10314016789197922,0,0.3927968442440033
39963,536346111,642252288,0,0.916168212890625,-0.10314016789197922,0,0.3927968442440033
39968,536346111,642252288,877874735,0.9158115983009338,-0.1037018671631813,57856,0.39271438121795654
39971,536346111,642252288,877874735,0.9158115983009338,-0.1037018671631813,57856,0.39271438121795654
39975,536346111,642252288,994658105,0.9157178997993469,-0.10421038419008255,57856,0.3924408257007599
39980,536346111,642252288,1112624960,0.9154638648033142,-0.10493489354848862,38400,0.392721027135849
39983,536346111,642252289,1112624960,0.9154638648033142,-0.10493489354848862,38400,0.392721027135849
39987,536346111,642252289,1112624960,0.9156729578971863,-0.10518252104520798,38400,0.3927600085735321
39992,536346111,642252289,1163153987,0.9152238368988037,-0.10530579835176468,53760,0.3929104804992676
39995,536346110,642252289,1163153987,0.9152238368988037,-0.10530579835176468,53760,0.3929104804992676
40000,536345086,642252289,1146442562,0.9159740805625916,-0.10669220983982086,53760,0.3928757309913635
40003,536346111,642252289,1146442562,0.9159740805625916,-0.10669220983982086,53760,0.3928757309913635
40007,536346111,642252288,1146442306,0.9157987833023071,-0.10693982988595963,53760,0.3927610218524933
40012,535297535,641203712,1146442562,0.9151593446731567,-0.10645309835672379,53760,0.39163437485694885
40015,536346111,641203713,1146442562,0.9151593446731567,-0.10645309835672379,53760,0.39163437485694885
40019,536346111,642252288,1146442562,0.915492057800293,-0.10563769191503525,53760,0.39181724190711975
40024,535297535,642252288,1146442561,0.9134734869003296,-0.10595492273569107,53760,0.3926609754562378
40027,535296511,642252289,1146442561,0.9134734869003296,-0.10595492273569107,53760,0.3926609754562378
40032,537394686,642252289,1129796161,0.9159039855003357,-0.10714660584926605,53760,0.39405205845832825
40035,537394686,642252288,1129796161,0.9159039855003357,-0.10714660584926605,53760,0.39405205845832825
40038,535297535,642253312,1146508098,0.913524329662323,-0.10714832693338394,53760,0.39597630500793457
40042,535296510,642251265,1129731392,0.9149937629699707,-0.10560458898544312,53760,0.3921486735343933
40045,536346110,641203712,1146573632,0.9146094918251038,-0.10838538408279419,53760,0.39337342977523804
40049,536346111,642252289,1112953921,0.9144083857536316,-0.10763970017433167,53760,0.3949207365512848
40054,535297535,641203712,1112953920,0.9142622351646423,-0.10597344487905502,53760,0.3950928747653961
40057,535297535,642251264,1129796928,0.9141853451728821,-0.10558830201625824,53760,0.39267945289611816
40061,536346110,641203713,1146573887,0.9131556153297424,-0.10764668881893158,53760,0.39123275876045227
40066,537394687,642252289,1096308032,0.9140316843986511,-0.10579735785722733,53760,0.39516881108283997
40069,535297534,641203712,1129861951,0.9125282168388367,-0.10783372074365616,53760,0.39561042189598083
40073,535296511,643300865,1113019966,0.9142405390739441,-0.10856640338897705,53760,0.3910011649131775
40078,537394687,640155137,1113084992,0.9133732914924622,-0.10878700762987137,53760,0.3933548331260681
40081,536345087,644348417,1079531071,0.9153955578804016,-0.10771860927343369,53760,0.396065354347229
40086,536346110,641203712,1129927742,0.9147262573242188,-0.11055749654769897,53760,0.39476442337036133
40089,536346111,643300864,1096242496,0.9134913086891174,-0.10975123196840286,53760,0.3952796161174774
40092,535297535,642252289,1113085502,0.9131523370742798,-0.10915110260248184,53760,0.3932083547115326
40096,536345087,643301887,1096373822,0.9129643440246582,-0.10740093886852264,53760,0.3943329453468323
40099,537394687,642252288,1096373822,0.9129643440246582,-0.10740093886852264,53760,0.3943329453468323
40102,536346111,642251264,1096373567,0.9122313857078552,-0.10579600930213928,53760,0.39766034483909607
40105,536346110,643300865,1113216318,0.9122030735015869,-0.10709530115127563,53760,0.3983415961265564
40110,536346111,642251265,1096373822,0.9124085307121277,-0.10711842030286789,53760,0.3984791338443756
40112,536345087,642251265,1096373822,0.913662314414978,-0.10701525211334229,53760,0.3982138931751251
40115,536346111,640154113,1096373822,0.913662314414978,-0.10701525211334229,53760,0.3982138931751251
40120,536345086,640154113,1079662397,0.9144291877746582,-0.11126597225666046,53760,0.3992582857608795
40123,536345087,640155136,1079662397,0.9144291877746582,-0.11126597225666046,53760,0.3992582857608795
40127,535296511,640155136,1096439357,0.9144929647445679,-0.11181458830833435,53760,0.39830920100212097
40132,536346110,642252288,1113216316,0.9128638505935669,-0.1129181906580925,53760,0.39650511741638184
40135,536346110,642253312,1113216316,0.9128638505935669,-0.1129181906580925,53760,0.39650511741638184
40139,537394687,642253312,1062950972,0.9144538044929504,-0.11257190257310867,53760,0.3960210084915161
40144,536347134,645400065,1096439101,0.9086018204689026,-0.11109722405672073,53760,0.40004512667655945
40147,536346110,645400065,1096439101,0.9086018204689026,-0.11109722405672073,53760,0.40004512667655945
40152,535296512,644350465,1062950972,0.9130220413208008,-0.10333546251058578,53760,0.39914974570274353
40154,535296511,645398017,1062950972,0.9130220413208008,-0.10333546251058578,53760,0.39914974570274353
40157,535297534,644350465,1096505147,0.9136667847633362,-0.1035742536187172,53760,0.3963342308998108
40162,536347133,643300866,1096504892,0.9110109210014343,-0.10657313466072083,53760,0.39562350511550903
40164,537394687,641202690,1046239292,0.9114027619361877,-0.10772781074047089,53760,0.39832326769828796
40167,536345087,644348417,1046239292,0.9114027619361877,-0.10772781074047089,53760,0.39832326769828796
40171,536345087,644347392,1029528122,0.9160690903663635,-0.10670728981494904,53760,0.3991074562072754
40174,535298558,643298817,1096504891,0.9145591855049133,-0.10902133584022522,53760,0.39820942282676697
40177,535296510,641201665,1079793723,0.9127732515335083,-0.11209108680486679,53760,0.3966904282569885
40181,535295487,642251265,1029528121,0.917684018611908,-0.11296825855970383,53760,0.39398959279060364
40185,536347133,645396994,1079793467,0.9167200922966003,-0.11566189676523209,53760,0.3946802318096161
40187,536348157,645398018,1079793467,0.9167200922966003,-0.11566189676523209,53760,0.3946802318096161
40192,536347134,643301890,1046239547,0.9111369848251343,-0.12103889137506485,53760,0.3971225321292877
40196,535296513,643301889,995843131,0.9129446744918823,-0.1131792739033699,53760,0.3960306644439697
40200,535296512,644349441,1046305081,0.9140587449073792,-0.1101074367761612,53760,0.39433684945106506
40204,536348157,646447618,1113412922,0.9074881076812744,-0.11289944499731064,53760,0.3947662115097046
40208,536345088,642253314,979262521,0.9108140468597412,-0.10852692276239395,53760,0.395156592130661
40211,536345087,643301890,979262521,0.9108140468597412,-0.10852692276239395,53760,0.395156592130661
40216,536348157,644350464,1096701241,0.904727578163147,-0.11214900761842728,53760,0.3971249461174011
40219,535299581,645399041,1096701241,0.904727578163147,-0.11214900761842728,53760,0.3971249461174011
40223,534247935,641205760,1046305081,0.8993157148361206,-0.11453849077224731,53760,0.3951488435268402
40228,536346112,639107583,1012750906,0.9015111327171326,-0.10745128989219666,53760,0.39112240076065063
40231,536346111,639106559,1012750906,0.9015111327171326,-0.10745128989219666,53760,0.39112240076065063
40235,536345086,638056958,1046436152,0.8992306590080261,-0.1090966984629631,53760,0.39216721057891846
40240,536344063,640155134,996105272,0.9004266858100891,-0.11209078878164291,53760,0.39031463861465454
40243,535296511,641202686,996105272,0.9004266858100891,-0.11209078878164291,53760,0.39031463861465454
40248,535297533,642251265,1029724727,0.8975186944007874,-0.11925802379846573,53760,0.38799551129341125
40251,536346110,642251265,1029724727,0.8975186944007874,-0.11925802379846573,53760,0.38799551129341125
40255,536346111,644349441,1012947767,0.899820864200592,-0.12198396027088165,53760,0.38942572474479675
40260,535298560,644348417,1012816697,0.8966206908226013,-0.11564554274082184,53760,0.38978537917137146
40262,534251007,644349441,1012816697,0.8966206908226013,-0.11564554274082184,53760,0.38978537917137146
40266,535296512,641204737,1046436406,0.89303058385849,-0.11455252766609192,53760,0.38562431931495667
40270,536345088,641204737,962682422,0.8974931836128235,-0.11018909513950348,53760,0.38481900095939636
40273,536345086,640156160,996236086,0.9001519680023193,-0.1077558770775795,53760,0.3862188458442688
40277,535298557,640156160,1029790262,0.8989101052284241,-0.11030837148427963,53760,0.3861379325389862
40282,535297534,640155135,1029790518,0.8957030177116394,-0.11461257934570312,53760,0.38453665375709534
40285,536345088,641201664,945839927,0.896942675113678,-0.11173554509878159,53760,0.38420239090919495
40289,536345087,642251264,1013078837,0.8968914747238159,-0.11265023052692413,53760,0.3845232427120209
40294,536347134,643300865,996236086,0.8955085277557373,-0.11363010853528976,53760,0.38745465874671936
40297,536346110,643300865,996301621,0.8958244919776917,-0.11553961783647537,53760,0.3893246054649353
40302,535296510,642253312,996302132,0.8969438076019287,-0.11590137332677841,53760,0.38610100746154785
40304,534247933,641204735,1013144627,0.8960980176925659,-0.11898007988929749,53760,0.3825649321079254
40307,536347133,641204735,1013144627,0.8960980176925659,-0.11898007988929749,53760,0.3825649321079254
40311,537394687,639107583,996301622,0.8918176889419556,-0.12090226262807846,53760,0.3852897882461548
40316,535297536,639107584,979459637,0.8893640637397766,-0.11312056332826614,53760,0.38517898321151733
40319,533199359,640156160,979459637,0.8893640637397766,-0.11312056332826614,53760,0.38517898321151733
40324,534248958,642251267,996302131,0.8900982141494751,-0.11343065649271011,53760,0.3714596629142761
40327,537395710,642251268,996302131,0.8900982141494751,-0.11343065649271011,53760,0.3714596629142761
40331,537394685,642251267,979655477,0.8896434903144836,-0.11657463759183884,53760,0.37671026587486267
40336,535296509,643300864,979721778,0.8920956254005432,-0.1255001574754715,53760,0.38027092814445496
40339,535296511,642252287,979721778,0.8920956254005432,-0.1255001574754715,53760,0.38027092814445496
40342,534246911,641203710,929259571,0.8936343193054199,-0.12350831180810928,53760,0.3790937066078186
40346,536346111,640154112,946036532,0.8934061527252197,-0.11892712116241455,53760,0.3794224262237549
40349,535297534,641203712,996498737,0.8931835889816284,-0.12167501449584961,53760,0.37826108932495117
40353,535298557,641204740,996432947,0.8899596333503723,-0.12534978985786438,53760,0.37949177622795105
40358,536346110,641203716,946167603,0.8911779522895813,-0.12478097528219223,53760,0.38131988048553467
40360,535297534,641204739,963010097,0.8940520882606506,-0.1267930418252945,53760,0.3804935812950134
40363,535296510,641204736,963010097,0.8940520882606506,-0.1267930418252945,53760,0.3804935812950134
40368,536346110,643303933,946167346,0.8909275531768799,-0.12528936564922333,53760,0.3784814476966858
40371,537394686,643302910,946167346,0.8909275531768799,-0.12528936564922333,53760,0.3784814476966858
40375,539491839,642251265,946232882,0.8887572288513184,-0.1253647357225418,53760,0.38262736797332764
40380,536345086,643299842,929521712,0.8930785655975342,-0.12738630175590515,53760,0.3923119902610779
40383,536346110,642251266,929521712,0.8930785655975342,-0.12738630175590515,53760,0.3923119902610779
40388,537395713,642251265,912547892,0.8888757824897766,-0.1232544407248497,53760,0.39241281151771545
40392,534247937,643300864,912745007,0.8912724256515503,-0.11786660552024841,53760,0.38843175768852234
40396,534247935,643300863,946233391,0.8919252157211304,-0.11598891019821167,53760,0.3839292824268341
40400,537395710,642252287,946232882,0.8861649632453918,-0.11685892939567566,53760,0.38765019178390503
40404,537395710,642252289,929521457,0.8819994330406189,-0.11753547936677933,53760,0.3913162052631378
40408,536345087,642252290,896033327,0.8850181102752686,-0.1170240193605423,53760,0.39102229475975037
40412,536345088,642252290,912744752,0.8868590593338013,-0.11389809101819992,53760,0.3908859193325043
40416,535297534,640156160,946364463,0.8852447271347046,-0.11409714818000793,53760,0.3887767195701599
40418,537395711,639107584,946364463,0.8852447271347046,-0.11409714818000793,53760,0.3887767195701599
40422,536346111,640156160,896033326,0.8862422108650208,-0.11348890513181686,53760,0.3892667889595032
40426,536345087,641203712,879255856,0.886561393737793,-0.11124789714813232,53760,0.39461857080459595
40430,537394686,641203713,896033326,0.8876806497573853,-0.10982105135917664,53760,0.39382368326187134
40434,535298558,641204737,912875821,0.8893709182739258,-0.11209122091531754,53760,0.39155784249305725
40438,534248958,642252289,912810287,0.8883375525474548,-0.11298113316297531,53760,0.39258500933647156
40442,536345086,642251264,896098861,0.8897360563278198,-0.11398773640394211,53760,0.38987910747528076
40445,535295487,642251262,862610477,0.8938796520233154,-0.11370892077684402,53760,0.3888665735721588
40450,535297533,643298814,896033071,0.8906375169754028,-0.11437472701072693,53760,0.3925895094871521
40454,537394686,642251263,896229932,0.8891841173171997,-0.11819058656692505,53760,0.391854465007782
40456,535296511,642252287,879387693,0.8906111717224121,-0.11821246892213821,53760,0.390907347202301
40460,536346111,642252289,879321902,0.8912173509597778,-0.11624131351709366,53760,0.3919532001018524
