Timestamp,compactImu.a_xyz,compactImu.l_xyz,motorCompact.pwms,stabilizer.pitch,stabilizer.roll,stabilizer.thrust,stabilizer.yaw
2572313,535297535,641205761,0,1.1741259098052979,0.6726734638214111,0,-89.595458984375
2572323,535297535,641205761,0,1.1746703386306763,0.6735360622406006,0,-89.59759521484375
2572333,535297535,640157185,0,1.1750621795654297,0.6737620234489441,0,-89.59915161132812
2572343,536346111,640157185,0,1.1756001710891724,0.6743966341018677,0,-89.60128021240234
2572353,535297535,641205761,0,1.176533579826355,0.6746914386749268,0,-89.60194396972656
2572363,535297535,641205761,0,1.1773971319198608,0.6758567690849304,0,-89.60546112060547
2572373,536346111,641205761,0,1.1776701211929321,0.676985502243042,0,-89.6075210571289
2572383,535297535,641205761,0,1.178950309753418,0.6774308085441589,0,-89.61003875732422
2572393,535297535,641205761,0,1.1791491508483887,0.6780617237091064,0,-89.61167907714844
2572403,535297535,641205761,0,1.1801310777664185,0.679936945438385,0,-89.61526489257812
2572413,535297535,641205761,0,1.1804485321044922,0.680427610874176,0,-89.6175308227539
2572423,535297535,641205761,0,1.180433750152588,0.6810508370399475,0,-89.62012481689453
2572433,535297535,641205761,0,1.1810481548309326,0.6822068691253662,0,-89.62166595458984
2572443,535297535,641205761,0,1.1826566457748413,0.6835038661956787,0,-89.62409210205078
2572453,535297535,641205761,0,1.1832184791564941,0.6842114329338074,0,-89.62553405761719
2572463,536346111,641205761,0,1.1852126121520996,0.6855674982070923,0,-89.62751770019531
2572473,535297535,640157185,0,1.185623288154602,0.6861870288848877,0,-89.62918853759766
2572483,535297535,641205761,0,1.1866706609725952,0.6868648529052734,0,-89.63082122802734
2572493,535297535,641205761,0,1.1875760555267334,0.6864925026893616,0,-89.63251495361328
2572503,535297535,641205761,0,1.187984585762024,0.6876069903373718,0,-89.63508605957031
2572513,535297535,641205761,0,1.188262701034546,0.6877546310424805,0,-89.63720703125
2572523,536346111,641205761,0,1.188840389251709,0.6885625123977661,0,-89.63905334472656
2572533,535297535,641205761,0,1.1888713836669922,0.6884130835533142,0,-89.64006805419922
2572543,535297535,641205761,0,1.1893912553787231,0.6889863014221191,0,-89.64332580566406
2572553,535297535,641205761,0,1.1901320219039917,0.6902399063110352,0,-89.64474487304688
2572563,536346111,641205761,0,1.190022349357605,0.6913935542106628,0,-89.64692687988281
2572573,535297535,641205761,0,1.1906086206436157,0.6918771266937256,0,-89.64797973632812
2572583,535297535,641205761,0,1.1911089420318604,0.6931714415550232,0,-89.64968872070312
2572593,535297535,641205761,0,1.191948652267456,0.6935858130455017,0,-89.65216827392578
2572603,535297535,641205761,0,1.1915916204452515,0.6943690180778503,0,-89.6550521850586
2572613,535297535,641205761,0,1.1923491954803467,0.6951388120651245,0,-89.65685272216797
2572623,535297535,641205761,0,1.1939756870269775,0.6953220367431641,0,-89.66023254394531
2572633,535297535,641205761,0,1.1937607526779175,0.6957713961601257,0,-89.66218566894531
2572643,535297535,641205761,0,1.1940522193908691,0.6966015696525574,0,-89.66492462158203
2572653,535297535,641205761,0,1.1940330266952515,0.697289764881134,0,-89.6668930053711
2572663,535297535,641205761,0,1.1938610076904297,0.6974937319755554,0,-89.67012786865234
2572673,535297535,641205761,0,1.1941450834274292,0.697555422782898,0,-89.67224884033203
2572683,535297535,641205761,0,1.1952824592590332,0.6984794735908508,0,-89.67554473876953
2572693,535297535,641205761,0,1.1955517530441284,0.6992689967155457,0,-89.67716979980469
2572703,535297535,641205761,0,1.1960582733154297,0.6995505094528198,0,-89.67945861816406
2572713,535297535,641205761,0,1.1969740390777588,0.6998541951179504,0,-89.68071746826172
2572723,535297535,641205761,0,1.1978777647018433,0.7005619406700134,0,-89.68363952636719
2572733,535297535,641205761,0,1.1984530687332153,0.7003830671310425,0,-89.6860122680664
2572743,535297535,641205761,0,1.1995304822921753,0.7002886533737183,0,-89.68964385986328
2572753,535297535,641205761,0,1.2006572484970093,0.7006502151489258,0,-89.69046020507812
2572763,535297535,641205761,0,1.201702356338501,0.7011606097221375,0,-89.69337463378906
2572773,535297535,641205761,0,1.2023659944534302,0.701161801815033,0,-89.6950454711914
2572783,535297535,641205761,0,1.2023967504501343,0.7012642025947571,0,-89.69790649414062
2572793,535297535,641205761,0,1.2020903825759888,0.7015554308891296,0,-89.69954681396484
2572803,535297535,641205761,0,1.2025192975997925,0.7012990117073059,0,-89.70336151123047
2572813,535297535,641205761,0,1.2027560472488403,0.7018316388130188,0,-89.70502471923828
2572823,535297535,641205761,0,1.2039458751678467,0.70318204164505,0,-89.70835876464844
2572833,535297535,641205761,0,1.2045598030090332,0.7036710381507874,0,-89.71003723144531
2572843,535297535,641205761,0,1.204291820526123,0.7045676112174988,0,-89.71232604980469
2572853,536346111,641205761,0,1.2050453424453735,0.7050161361694336,0,-89.71414184570312
2572863,535297535,641205761,0,1.2061312198638916,0.7050306797027588,0,-89.71623229980469
2572873,535297535,641205761,0,1.2066764831542969,0.7063226103782654,0,-89.71879577636719
2572883,535297535,641205761,0,1.2073688507080078,0.7061780095100403,0,-89.7211685180664
2572893,536346111,641205760,0,1.2070817947387695,0.705619215965271,0,-89.72224426269531
2572903,536346111,641205761,0,1.2072194814682007,0.7062926888465881,0,-89.72407531738281
2572913,535297535,641205761,0,1.2076236009597778,0.706859827041626,0,-89.72526550292969
2572923,535297535,641205761,0,1.207862377166748,0.7066003680229187,0,-89.7287826538086
2572933,535297535,641205761,0,1.2088271379470825,0.7064170837402344,0,-89.73097229003906
2572943,535297535,641205761,0,1.2089027166366577,0.7066223621368408,0,-89.73328399658203
2572953,535297535,641205761,0,1.2087985277175903,0.7077299952507019,0,-89.73482513427734
2572963,535297535,641205761,0,1.2095587253570557,0.709505558013916,0,-89.73664855957031
2572973,535297535,641205761,0,1.2101534605026245,0.7098486423492432,0,-89.73897552490234
2572983,535297535,641205761,0,1.2109675407409668,0.7111056447029114,0,-89.74125671386719
2572993,535297535,641205761,0,1.2109140157699585,0.712363064289093,0,-89.74359893798828
2573003,536346111,641205761,0,1.2118068933486938,0.7129058241844177,0,-89.74669647216797
2573013,535297535,641205761,0,1.212823510169983,0.7135048508644104,0,-89.74761199951172
2573023,535297535,641205761,0,1.213480830192566,0.7133349776268005,0,-89.75060272216797
2573033,535297535,641205761,0,1.2140823602676392,0.7135418057441711,0,-89.75316619873047
2573043,535297535,641205761,0,1.2142126560211182,0.7145447731018066,0,-89.7552719116211
2573053,535297535,641205761,0,1.2146185636520386,0.7152446508407593,0,-89.75715637207031
2573063,535297535,641205761,0,1.216164469718933,0.7153272032737732,0,-89.76020812988281
2573073,535297535,641205761,0,1.216789722442627,0.7152730226516724,0,-89.76156616210938
2573083,535297535,641205761,0,1.217946171760559,0.7166478037834167,0,-89.76386260986328
2573093,535297535,641205761,0,1.2181098461151123,0.7173793315887451,0,-89.76582336425781
2573103,535297535,641205761,0,1.2185662984848022,0.7194209098815918,0,-89.76849365234375
2573113,536346111,641205761,0,1.2194457054138184,0.7192412614822388,0,-89.77006530761719
2573123,535297535,641205761,0,1.2205030918121338,0.7186242938041687,0,-89.7718734741211
2573133,535297535,641205761,0,1.220848560333252,0.7186671495437622,0,-89.7726058959961
2573143,535297535,641205761,0,1.2219539880752563,0.7189645171165466,0,-89.77587890625
2573153,535297535,641205761,0,1.2223032712936401,0.7189667224884033,0,-89.7773666381836
2573163,535297535,641205761,0,1.2228200435638428,0.7199774980545044,0,-89.780517578125
2573173,536346111,641205761,0,1.2224546670913696,0.7210643887519836,0,-89.7829360961914
2573183,536346111,641205760,0,1.2225282192230225,0.7211409211158752,0,-89.78413391113281
2573193,535297535,641205761,0,1.2227669954299927,0.7219089269638062,0,-89.78497314453125
2573203,535297535,641205761,0,1.2230452299118042,0.722174346446991,0,-89.78760528564453
2573213,536346111,641205761,0,1.2235910892486572,0.7229539752006531,0,-89.78868865966797
2573223,536346111,641205761,0,1.2238678932189941,0.7238244414329529,0,-89.79035186767578
2573233,535297535,641205761,0,1.2239925861358643,0.7243325710296631,0,-89.791015625
2573243,535297535,641205761,0,1.2243351936340332,0.7252293825149536,0,-89.79400634765625
2573253,535297535,641205761,0,1.2253690958023071,0.7253142595291138,0,-89.79596710205078
2573263,535297535,641205761,0,1.226192831993103,0.7253878712654114,0,-89.79902648925781
2573273,535297535,641205761,0,1.22635018825531,0.7255043387413025,0,-89.80070495605469
2573283,535297535,641205761,0,1.2269026041030884,0.726714551448822,0,-89.80293273925781
2573293,535297535,640157185,0,1.2268035411834717,0.7278284430503845,0,-89.80448913574219
2573303,535297535,641205761,0,1.2276825904846191,0.7279864549636841,0,-89.80709838867188
2573313,535297535,641205761,0,1.227993130683899,0.7279700636863708,0,-89.80948638916016
2573323,535297535,641205761,0,1.2282936573028564,0.728943407535553,0,-89.81240844726562
2573333,535297535,641205761,0,1.2287514209747314,0.7300512790679932,0,-89.81421661376953
2573343,535297535,641205761,0,1.2294682264328003,0.7300754189491272,0,-89.8163833618164
2573353,535297535,641205761,0,1.2298610210418701,0.7296919822692871,0,-89.8174057006836
2573363,535297535,641205761,0,1.231075644493103,0.7303504347801208,0,-89.81993865966797
2573373,535297535,641205761,0,1.2317205667495728,0.7313358187675476,0,-89.82174682617188
2573383,535297535,641205761,0,1.2329379320144653,0.7306467890739441,0,-89.8234634399414
2573393,535297535,641205761,0,1.2334742546081543,0.7305251359939575,0,-89.82557678222656
2573403,535297535,641205761,0,1.2344988584518433,0.7315180897712708,0,-89.8279037475586
2573413,535297535,641205761,0,1.234690546989441,0.7321954965591431,0,-89.82950592041016
2573423,536346111,641205761,0,1.2348994016647339,0.7338073253631592,0,-89.83096313476562
2573433,535297535,641205761,0,1.234954595565796,0.7341986298561096,0,-89.83199310302734
2573443,535297535,641205761,0,1.235234022140503,0.7340386509895325,0,-89.83486938476562
2573453,535297535,640157185,0,1.2351093292236328,0.7348662614822388,0,-89.83645629882812
2573463,535297535,641205761,0,1.2347363233566284,0.7354440689086914,0,-89.83956146240234
2573473,535297535,641205761,0,1.235101580619812,0.7351574301719666,0,-89.84200286865234
2573483,535297535,641205761,0,1.2351632118225098,0.7346301078796387,0,-89.84496307373047
2573493,536346111,641205761,0,1.2359095811843872,0.735241174697876,0,-89.8467788696289
2573503,536346111,641205761,0,1.2372610569000244,0.7353799343109131,0,-89.84800720214844
2573513,535297535,641205761,0,1.2378333806991577,0.7362536191940308,0,-89.84998321533203
2573523,535297535,641205761,0,1.2390530109405518,0.736549973487854,0,-89.85256958007812
2573533,535297535,641205761,0,1.2382017374038696,0.7375935316085815,0,-89.85504913330078
2573543,535297535,641205761,0,1.2381078004837036,0.7369162440299988,0,-89.8580093383789
2573553,535297535,641205761,0,1.2377808094024658,0.737329363822937,0,-89.85954284667969
2573563,535297535,641205761,0,1.238233208656311,0.7370851039886475,0,-89.86235809326172
2573573,536346111,641205761,0,1.2391010522842407,0.7370200157165527,0,-89.86372375488281
2573583,535297535,641205761,0,1.240179419517517,0.7372479438781738,0,-89.86664581298828
2573593,536346111,641205761,0,1.241334319114685,0.7376383543014526,0,-89.8686294555664
2573603,535297535,641205761,0,1.2422075271606445,0.7389541864395142,0,-89.87123107910156
2573613,535297535,641205761,0,1.242058515548706,0.7398109436035156,0,-89.8731918334961
2573623,535297535,640157185,0,1.2429405450820923,0.7398368716239929,0,-89.87671661376953
2573633,535297535,641205761,0,1.243499994277954,0.739866316318512,0,-89.8786392211914
2573643,535297535,641205761,0,1.2442796230316162,0.7408317923545837,0,-89.88163757324219
2573653,535297535,641205761,0,1.2445040941238403,0.7414320111274719,0,-89.8828125
2573663,535297535,641205761,0,1.2449206113815308,0.7414752840995789,0,-89.8863525390625
2573673,535297535,641205761,0,1.2450194358825684,0.7413192391395569,0,-89.88858795166016
2573683,535297535,641205761,0,1.245192050933838,0.7414713501930237,0,-89.8908462524414
2573693,536346111,641205761,0,1.2458367347717285,0.7427275776863098,0,-89.89198303222656
2573703,535297535,641205761,0,1.2466280460357666,0.7441185712814331,0,-89.89410400390625
2573713,535297535,641205761,0,1.2463957071304321,0.7446087598800659,0,-89.8960189819336
2573723,535297535,641205761,0,1.246497631072998,0.7449415922164917,0,-89.89833068847656
2573733,535297535,641205761,0,1.2465163469314575,0.7446964979171753,0,-89.8997802734375
2573743,535297535,641205761,0,1.2461549043655396,0.7449939846992493,0,-89.9021224975586
2573753,535297535,641205761,0,1.2466909885406494,0.745437741279602,0,-89.90421295166016
2573763,535297535,641205761,0,1.2472076416015625,0.7452622652053833,0,-89.90645599365234
2573773,535297535,641205761,0,1.2468008995056152,0.7453811168670654,0,-89.90787506103516
2573783,535297535,641205761,0,1.2474570274353027,0.7455196976661682,0,-89.91127014160156
2573793,535297535,641205761,0,1.247902274131775,0.7461497783660889,0,-89.91349792480469
2573803,535297535,641205761,0,1.248055338859558,0.7460676431655884,0,-89.9154281616211
2573813,535297535,641205761,0,1.248590111732483,0.7469545006752014,0,-89.9173355102539
2573823,536346111,641205761,0,1.249184250831604,0.747140645980835,0,-89.92017364501953
2573833,535297535,641205761,0,1.250142216682434,0.7464317679405212,0,-89.92107391357422
2573843,535297535,641205761,0,1.25123131275177,0.7463498711585999,0,-89.92398834228516
2573853,535297535,640157185,0,1.2513326406478882,0.7457441687583923,0,-89.92520141601562
2573863,535297535,641205761,0,1.2518603801727295,0.7462232708930969,0,-89.92769622802734
2573873,535297535,641205761,0,1.2520124912261963,0.7462995648384094,0,-89.92932891845703
2573883,535297535,641205761,0,1.2522426843643188,0.746764600276947,0,-89.93315124511719
2573893,535297535,641205761,0,1.2527276277542114,0.747456967830658,0,-89.9347915649414
2573903,535297535,641205761,0,1.2524629831314087,0.7470710277557373,0,-89.93734741210938
2573913,535297535,641205761,0,1.2529196739196777,0.7474390268325806,0,-89.93880462646484
2573923,536346111,641205761,0,1.2535837888717651,0.7469398379325867,0,-89.93927764892578
2573933,536346111,641205761,0,1.2536795139312744,0.7478311061859131,0,-89.94091033935547
2573943,535297535,641205761,0,1.2544310092926025,0.7488768696784973,0,-89.9426498413086
2573953,535297535,641205761,0,1.2552098035812378,0.7491210103034973,0,-89.94463348388672
2573963,535297535,641205761,0,1.2552855014801025,0.7490708231925964,0,-89.94702911376953
2573973,535297535,641205761,0,1.2556804418563843,0.749962568283081,0,-89.94889831542969
2573983,535297535,641205761,0,1.255638837814331,0.7503559589385986,0,-89.95155334472656
2573993,535297535,641205761,0,1.2559515237808228,0.7503417134284973,0,-89.95303344726562
2574003,535297535,641205761,0,1.257025957107544,0.7508882284164429,0,-89.9550552368164
2574013,535297535,641205761,0,1.2571821212768555,0.7509444355964661,0,-89.95716857910156
2574023,535297535,641205761,0,1.2573109865188599,0.7513049840927124,0,-89.95921325683594
2574033,535297535,641205761,0,1.2569198608398438,0.7521876096725464,0,-89.9605712890625
2574043,535297535,641205761,0,1.257421851158142,0.752958357334137,0,-89.96338653564453
2574053,535297535,641205761,0,1.2581185102462769,0.7535496950149536,0,-89.964599609375
2574063,535297535,641205761,0,1.258455753326416,0.7543669939041138,0,-89.96730041503906
2574073,535297535,641205761,0,1.2589077949523926,0.7538424730300903,0,-89.96885681152344
2574083,536346111,641205761,0,1.2596752643585205,0.7550963163375854,0,-89.97045135498047
2574093,535297535,641205761,0,1.2596169710159302,0.7560237050056458,0,-89.9722671508789
2574103,535297535,641205761,0,1.2595415115356445,0.7566903233528137,0,-89.97416687011719
2574113,535297535,641205761,0,1.2594034671783447,0.7565800547599792,0,-89.9760971069336
2574123,535297535,641205761,0,1.2602002620697021,0.7564412355422974,0,-89.97970581054688
2574133,535297535,641205761,0,1.260878562927246,0.7567095756530762,0,-89.9817886352539
2574143,535297535,641205761,0,1.260326862335205,0.7583250999450684,0,-89.98470306396484
2574153,535297535,641205761,0,1.2611368894577026,0.7585378885269165,0,-89.98687744140625
2574163,535297535,641205761,0,1.262664794921875,0.7571570873260498,0,-89.98893737792969
2574173,535297535,641205761,0,1.2625051736831665,0.756995439529419,0,-89.99004364013672
2574183,535297535,641205761,0,1.2631962299346924,0.7580074071884155,0,-89.99273681640625
2574193,536346111,641205761,0,1.2631877660751343,0.7588836550712585,0,-89.9938735961914
2574203,535297535,641205761,0,1.2636357545852661,0.7597804069519043,0,-89.99686431884766
2574213,536346111,641205761,0,1.2647652626037598,0.7595571875572205,0,-89.997802734375
2574223,535297535,641205761,0,1.2654260396957397,0.7589934468269348,0,-90.0000991821289
2574233,535297535,641205761,0,1.2651575803756714,0.7590250968933105,0,-90.0023422241211
2574243,535297535,641205761,0,1.265582799911499,0.7589109539985657,0,-90.00523376464844
2574253,535297535,641205761,0,1.266006588935852,0.7586013078689575,0,-90.00729370117188
2574263,535297535,641205761,0,1.2669309377670288,0.758195698261261,0,-90.00951385498047
2574273,535297535,641205761,0,1.266527533531189,0.7588837146759033,0,-90.01131439208984
2574283,536346111,641205761,0,1.2672269344329834,0.7601391077041626,0,-90.01438903808594
2574293,535297535,641205761,0,1.2676620483398438,0.7598211169242859,0,-90.01484680175781
2574303,535297535,641205761,0,1.2685588598251343,0.7607921361923218,0,-90.01753997802734
2574313,535297535,641205761,0,1.2679499387741089,0.7605205178260803,0,-90.01936340332031
2574323,535297535,641205761,0,1.267724871635437,0.7597106099128723,0,-90.02188873291016
2574333,535297535,641205761,0,1.2681080102920532,0.7595626711845398,0,-90.02395629882812
2574343,536346111,640157185,0,1.2683223485946655,0.7614434957504272,0,-90.02619171142578
2574353,535297535,641205761,0,1.2676596641540527,0.7620289325714111,0,-90.02748107910156
2574363,535297535,641205761,0,1.2674152851104736,0.7619937658309937,0,-90.02989959716797
2574373,535297535,641205761,0,1.2683424949645996,0.7632579207420349,0,-90.03196716308594
2574383,535297535,641205761,0,1.2694833278656006,0.7629538774490356,0,-90.03440856933594
2574393,535297535,641205761,0,1.2693874835968018,0.7629179954528809,0,-90.03575897216797
2574403,535297535,641205761,0,1.270229697227478,0.762405514717102,0,-90.03845977783203
2574413,535297535,641205761,0,1.2713820934295654,0.7629096508026123,0,-90.0405502319336
2574423,535297535,641205761,0,1.2725419998168945,0.7636121511459351,0,-90.04293823242188
2574433,536346111,640157185,0,1.272937536239624,0.7647280097007751,0,-90.04483032226562
2574443,535297535,641205761,0,1.2734582424163818,0.7654154300689697,0,-90.04676055908203
2574453,535297535,641205761,0,1.2743743658065796,0.7653781771659851,0,-90.04908752441406
2574463,535297535,641205761,0,1.2749937772750854,0.7658162713050842,0,-90.05194854736328
2574473,535297535,641205761,0,1.2750519514083862,0.7655870914459229,0,-90.05329895019531
2574483,535297535,640157185,0,1.2765090465545654,0.7659021615982056,0,-90.05541229248047
2574493,535297535,641205761,0,1.2767422199249268,0.7665711045265198,0,-90.05712127685547
2574503,535297535,641205761,0,1.276455283164978,0.7666658163070679,0,-90.06000518798828
2574513,535297535,641205761,0,1.27639639377594,0.7663994431495667,0,-90.06145477294922
2574523,535297535,641205761,0,1.275331974029541,0.7662475109100342,0,-90.0643081665039
2574533,535297535,641205761,0,1.275331974029541,0.7664181590080261,0,-90.06570434570312
2574543,536346111,641205761,0,1.2756361961364746,0.7671718597412109,0,-90.06769561767578
2574553,535297535,640157185,0,1.2754348516464233,0.7683162093162537,0,-90.06926727294922
2574563,535297535,641205761,0,1.2755807638168335,0.7688690423965454,0,-90.07151794433594
2574573,535297535,641205761,0,1.2760951519012451,0.7692523002624512,0,-90.07328033447266
2574583,535297535,641205761,0,1.2764002084732056,0.7696728110313416,0,-90.07579803466797
2574593,536346111,641205761,0,1.276032567024231,0.7700030207633972,0,-90.07666015625
2574603,535297535,641205761,0,1.2751986980438232,0.7700072526931763,0,-90.07917785644531
2574613,535297535,641205761,0,1.275675654411316,0.7709590196609497,0,-90.08076477050781
2574623,535297535,641205761,0,1.2762309312820435,0.7721789479255676,0,-90.08336639404297
2574633,535297535,641205761,0,1.2760578393936157,0.7720456123352051,0,-90.0849380493164
2574643,535297535,641205761,0,1.2772290706634521,0.7723276615142822,0,-90.08737182617188
2574653,536346111,641205761,0,1.2778096199035645,0.772710382938385,0,-90.0887451171875
2574663,535297535,641205761,0,1.278756022453308,0.7738511562347412,0,-90.09037780761719
2574673,535297535,641205761,0,1.2795791625976562,0.7743549346923828,0,-90.09175872802734
2574683,536346111,641205761,0,1.2808195352554321,0.7741379737854004,0,-90.09346008300781
2574693,535297535,641205761,0,1.280554175376892,0.7733656764030457,0,-90.09501647949219
2574703,535297535,641205761,0,1.2805691957473755,0.77492356300354,0,-90.09820556640625
2574713,535297535,641205761,0,1.2808678150177002,0.7760008573532104,0,-90.0995864868164
2574723,535297535,641205761,0,1.281238317489624,0.7757573127746582,0,-90.10165405273438
2574733,535297535,641205761,0,1.281569480895996,0.7760564088821411,0,-90.10282135009766
2574743,535297535,641205761,0,1.2820765972137451,0.7770344614982605,0,-90.10542297363281
2574753,535297535,641205761,0,1.282565951347351,0.777866780757904,0,-90.10771942138672
2574763,535297535,641205761,0,1.282546877861023,0.7786052823066711,0,-90.11003875732422
2574773,535297535,641205761,0,1.282617211341858,0.7786422371864319,0,-90.11206817626953
2574783,535297535,641205761,0,1.2825229167938232,0.7780662775039673,0,-90.11483001708984
2574793,535297535,641205761,0,1.2829593420028687,0.7779810428619385,0,-90.11674499511719
2574803,535297535,641205761,0,1.2831753492355347,0.7793262600898743,0,-90.1207275390625
2574813,535297535,641205761,0,1.282821774482727,0.7799572944641113,0,-90.12297058105469
2574823,535297535,641205761,0,1.2835928201675415,0.7803767919540405,0,-90.12580871582031
2574833,535297535,641205761,0,1.283769130706787,0.7807806730270386,0,-90.1279525756836
2574843,535297535,641205761,0,1.2840468883514404,0.782069981098175,0,-90.13069152832031
2574853,535297535,641205761,0,1.2841308116912842,0.7817670106887817,0,-90.1326675415039
2574863,535297535,641205761,0,1.284472942352295,0.7809961438179016,0,-90.13676452636719
2574873,535297535,641205761,0,1.284568190574646,0.7804687023162842,0,-90.13851165771484
2574883,535297535,641205761,0,1.2851042747497559,0.7796102166175842,0,-90.14219665527344
2574893,535297535,641205761,0,1.2851924896240234,0.7805588245391846,0,-90.1443099975586
2574903,536346111,641205761,0,1.2858411073684692,0.7824403643608093,0,-90.14592742919922
2574913,535297535,641205761,0,1.2857780456542969,0.7818194627761841,0,-90.14701843261719
2574923,535297535,641205761,0,1.285955548286438,0.7804855704307556,0,-90.14904022216797
2574933,535297535,641205761,0,1.2860753536224365,0.7811099886894226,0,-90.1508560180664
2574943,535297535,641205761,0,1.2862008810043335,0.7808831930160522,0,-90.15373229980469
2574953,535297535,641205761,0,1.2863895893096924,0.780571699142456,0,-90.15609741210938
2574963,535297535,641205761,0,1.2854840755462646,0.7805411219596863,0,-90.15914916992188
2574973,535297535,641205761,0,1.2853596210479736,0.780872642993927,0,-90.1614761352539
2574983,535297535,641205761,0,1.2861593961715698,0.7812901139259338,0,-90.16398620605469
2574993,535297535,641205761,0,1.2863011360168457,0.7812100648880005,0,-90.1662368774414
2575003,535297535,641205761,0,1.2867677211761475,0.7816440463066101,0,-90.16900634765625
2575013,535297535,641205761,0,1.2875018119812012,0.7815289497375488,0,-90.17071533203125
2575023,535297535,641205761,0,1.287050724029541,0.7815644145011902,0,-90.17396545410156
2575033,536346111,641205761,0,1.287409782409668,0.781033456325531,0,-90.17523956298828
2575043,535297535,641205761,0,1.2868411540985107,0.7812662124633789,0,-90.17776489257812
2575053,535297535,641205761,0,1.287322759628296,0.7810488939285278,0,-90.1793212890625
2575063,535297535,641205761,0,1.287199854850769,0.7801681756973267,0,-90.18212890625
2575073,535297535,641205761,0,1.2870078086853027,0.7797895669937134,0,-90.183837890625
2575083,535297535,641205761,0,1.2872782945632935,0.7799171209335327,0,-90.1867904663086
2575093,535297535,641205761,0,1.2875293493270874,0.7803297638893127,0,-90.18870544433594
2575103,536346111,641205761,0,1.2875033617019653,0.780451238155365,0,-90.19062805175781
2575113,536346111,641205761,0,1.2884248495101929,0.7808775305747986,0,-90.19152069091797
2575123,535297535,641205761,0,1.2882276773452759,0.781660795211792,0,-90.19375610351562
2575133,535297535,641205761,0,1.288795828819275,0.7824912071228027,0,-90.195556640625
2575143,535297535,641205761,0,1.2894021272659302,0.7830579280853271,0,-90.19819641113281
2575153,535297535,641205761,0,1.2898447513580322,0.7838044166564941,0,-90.19913482666016
2575163,535297535,641205761,0,1.2907718420028687,0.7849622964859009,0,-90.2012939453125
2575173,535297535,641205761,0,1.2911593914031982,0.7857255935668945,0,-90.2032470703125
2575183,535297535,641205760,0,1.2910741567611694,0.7852970957756042,0,-90.20654296875
2575193,535297535,641205760,0,1.2905402183532715,0.7850968837738037,0,-90.20833587646484
2575203,535297535,641205761,0,1.290061354637146,0.7846720814704895,0,-90.21038055419922
2575213,535297535,641205761,0,1.2906122207641602,0.7846691012382507,0,-90.21211242675781
2575223,535297535,641205761,0,1.29033362865448,0.7845130562782288,0,-90.21521759033203
2575233,535297535,641205761,0,1.2901384830474854,0.7847065925598145,0,-90.21724700927734
2575243,535297535,641205761,0,1.2905795574188232,0.7846524119377136,0,-90.22052764892578
2575253,535297535,641205761,0,1.2912389039993286,0.7853835225105286,0,-90.22283172607422
2575263,535297535,641205761,0,1.2915812730789185,0.786152184009552,0,-90.22649383544922
2575273,535297535,641205761,994659646,1.2915217876434326,0.7870050072669983,8192,-90.2284927368164
2575283,535297535,641205761,1078874691,1.292243480682373,0.7865824103355408,38400,-90.23043823242188
2575293,535297535,641205761,1146378312,1.2922370433807373,0.7864848971366882,4096,-90.23231506347656
2575303,536346111,641205761,1196776012,1.2922495603561401,0.7882046699523926,19456,-90.23387908935547
2575313,535297535,641205761,1196907338,1.2931199073791504,0.7880057096481323,19456,-90.23546600341797
2575323,536346111,641205760,1180129867,1.292218804359436,0.7881249785423279,19456,-90.23500061035156
2575333,536346111,640156161,1230659148,1.2943240404129028,0.788168728351593,35328,-90.24476623535156
2575343,535296510,641204738,1230790473,1.2967652082443237,0.7859377264976501,35328,-90.24747467041016
2575353,535297535,642253312,1213947724,1.2936797142028809,0.7854511737823486,35328,-90.2451171875
2575363,536346111,641204736,1213881934,1.291773796081543,0.7859088182449341,35328,-90.24198913574219
2575373,536346110,641204737,1331847504,1.2905014753341675,0.7881394028663635,0,-90.24298858642578
2575383,535297535,641205761,1281320273,1.2909070253372192,0.7863911390304565,0,-90.24687194824219
2575393,535297535,641205761,1348626260,1.2916096448898315,0.786504328250885,15360,-90.24772644042969
2575403,536347135,641205760,1331717716,1.2905455827713013,0.7864591479301453,34304,-90.25053405761719
2575413,535296511,641205760,1281583183,1.2889114618301392,0.7883267998695374,56320,-90.2542495727539
2575423,536346112,641205761,1315006549,1.2933783531188965,0.7902114987373352,15360,-90.25732421875
2575433,535297534,641205761,1331980369,1.2944670915603638,0.7906764149665833,15360,-90.26222229003906
2575443,534248960,641203713,1298229844,1.29368257522583,0.7871285080909729,15360,-90.26994323730469
2575453,537394687,641203712,1331980370,1.2923589944839478,0.7826433777809143,15360,-90.2728271484375
2575463,534247935,641205760,1298426705,1.2894032001495361,0.7828375697135925,15360,-90.2757339477539
2575473,536346110,641204736,1315137619,1.2881919145584106,0.7800254821777344,15360,-90.28010559082031
2575483,536346112,641203712,1281583955,1.2856333255767822,0.7789748311042786,15360,-90.27890014648438
2575493,536345087,641206784,1298491985,1.288303256034851,0.7806186079978943,15360,-90.27946472167969
2575503,535296511,641208832,1281649489,1.288717269897461,0.7917879819869995,15360,-90.28230285644531
2575513,536346111,640157186,1298360915,1.292901635169983,0.7974489331245422,15360,-90.28422546386719
2575523,535297535,639106563,1332178515,1.2984553575515747,0.7937158942222595,31232,-90.28629302978516
2575533,535296511,642254337,1298689875,1.2987638711929321,0.794093906879425,31232,-90.28982543945312
2575543,537393664,643302911,1281846612,1.3000080585479736,0.7989547252655029,53248,-90.28829956054688
2575553,535298559,639106561,1315335764,1.295725703239441,0.7953630089759827,31232,-90.28936004638672
2575563,536345087,641202689,1281912401,1.2983793020248413,0.7863829731941223,54784,-90.29180908203125
2575573,534249983,642253311,1281715794,1.2933560609817505,0.7792434096336365,3584,-90.29756927490234
2575583,535297535,639107585,1298558805,1.294119954109192,0.7751419544219971,31232,-90.30400085449219
2575593,536346111,642253311,1265201490,1.2921115159988403,0.7725590467453003,31232,-90.30492401123047
2575603,535297535,641206783,1298689875,1.2904322147369385,0.7806200981140137,31232,-90.30899047851562
2575613,535297534,641205760,1298755666,1.2857822179794312,0.7798140048980713,31232,-90.3097915649414
2575623,534249983,641207808,1315336275,1.282478928565979,0.7816427946090698,31232,-90.32003784179688
2575633,535297534,642255360,1315466834,1.281811237335205,0.7806326746940613,31232,-90.32209777832031
2575643,535297535,641205761,1332376661,1.2761425971984863,0.7813027501106262,46592,-90.33074188232422
2575653,535298559,637011458,1450210907,1.2745094299316406,0.7860191464424133,11264,-90.33048248291016
2575663,536346110,647497217,1568112483,1.2693451642990112,0.7795358300209045,57856,-90.33401489257812
2575673,535298560,642253312,1601864293,1.2627204656600952,0.7837550044059753,8192,-90.33671569824219
2575683,535297536,644351487,1652591210,1.260151743888855,0.7888479232788086,38400,-90.33984375
2575693,534249983,639108606,1719896939,1.2532001733779907,0.794233500957489,53760,-90.34334564208984
2575703,534248959,638062078,1686541165,1.2380175590515137,0.802585780620575,4096,-90.35671997070312
2575713,535297537,637011456,1719963760,1.2371494770050049,0.8154423236846924,4096,-90.35723114013672
2575723,536345087,642251264,1736937325,1.236318826675415,0.8140350580215454,4096,-90.36137390136719
2575733,535297533,642254338,1753779820,1.2379518747329712,0.8042730689048767,4096,-90.36174774169922
2575743,534249983,643302916,1736675439,1.2378727197647095,0.798178493976593,4096,-90.3722915649414
2575753,536346111,644349440,1703383149,1.228202223777771,0.800125241279602,4096,-90.37153625488281
2575763,534249985,634915324,1720029806,1.213997483253479,0.8131601810455322,4096,-90.376953125
2575773,536346111,640157187,1720094830,1.2155330181121826,0.8160236477851868,4096,-90.37950897216797
2575783,535296510,641206787,1754043500,1.2218561172485352,0.823137104511261,19456,-90.38371276855469
2575793,534252031,630718974,1820956276,1.2157447338104248,0.8253051042556763,17152,-90.3909683227539
2575803,534249983,643302913,1804375921,1.1936604976654053,0.8147143721580505,17152,-90.40386199951172
2575813,534251007,640160256,1871748473,1.187015414237976,0.8230412602424622,32768,-90.40841674804688
2575823,534249982,639108608,1888722292,1.1621391773223877,0.8293872475624084,32768,-90.42434692382812
2575833,535297534,640159234,1888656502,1.1623613834381104,0.8338293433189392,32768,-90.43170166015625
2575843,534248957,635962881,1972937338,1.1602044105529785,0.826443612575531,48384,-90.44337463378906
2575853,536347135,638061056,1956029053,1.158931851387024,0.8189720511436462,48384,-90.44685363769531
2575863,533198335,639105537,1956095098,1.1777877807617188,0.8155384659767151,48384,-90.45702362060547
2575873,535299581,640154114,1956160378,1.1641101837158203,0.8074063658714294,48384,-90.46875
2575883,535299581,638057986,1972937082,1.1523813009262085,0.7891891002655029,48384,-90.47383117675781
2575893,535294463,640153091,1905960312,1.155582308769226,0.785995602607727,48384,-90.47557830810547
2575903,536349186,638057982,1955897982,1.146625280380249,0.7950306534767151,48384,-90.48037719726562
2575913,539500031,644351491,1972805503,1.1212787628173828,0.7990940809249878,48384,-90.46715545654297
2575923,536357374,639107584,2022940033,1.0482004880905151,0.788625180721283,48384,-90.44929504394531
2575933,536362491,641205764,2056559743,0.973728597164154,0.785854697227478,48384,-90.44832611083984
2575943,537413117,646450695,2039651458,0.8369816541671753,0.7584791779518127,48384,-90.4432144165039
2575953,537418242,639108609,2072877704,0.7325274348258972,0.7684076428413391,48384,-90.43119049072266
2575963,538468866,641208834,2056034698,0.5363368988037109,0.8012611269950867,48384,-90.41502380371094
2575973,539518460,647498242,2089981828,0.3876274824142456,0.8040010333061218,48384,-90.39430236816406
2575983,539524602,646448641,2240713358,0.16057482361793518,0.7637213468551636,22784,-90.36439514160156
2575993,540571135,642254335,2173869199,-0.012714168056845665,0.7556594610214233,63488,-90.33873748779297
2576003,538476030,639111675,2274399890,-0.2856135666370392,0.7704145312309265,63488,-90.30766296386719
2576013,538481148,638059004,2357891734,-0.4707009792327881,0.7615084648132324,63488,-90.28942108154297
2576023,538480127,643300862,2206962834,-0.7848598957061768,0.752561092376709,22784,-90.26351165771484
2576033,539528696,649591295,2375127184,-0.9829655289649963,0.7355089783668518,63488,-90.2437973022461
2576043,539530739,646446588,2442300305,-1.3021736145019531,0.6564346551895142,63488,-90.21184539794922
2576053,540582380,638059002,2492696719,-1.5451018810272217,0.5681554675102234,63488,-90.18521118164062
2576063,540577260,634914298,2526382484,-1.8850557804107666,0.41357749700546265,38400,-90.1470718383789
2576073,540583406,638060028,2592901019,-2.099719285964966,0.31759190559387207,38400,-90.12789154052734
2576083,542686711,640156157,2542175655,-2.4718143939971924,0.21775855123996735,38400,-90.08012390136719
2576093,544787963,642253309,2559151271,-2.7601101398468018,0.1805965155363083,13568,-90.04061126708984
2576103,546874876,646447612,2559740586,-3.145737886428833,0.16436253488063812,54016,-89.9643783569336
2576113,548958713,642252286,2426049950,-3.353203773498535,0.13696706295013428,54016,-89.90038299560547
2576123,547906039,639106559,2492958114,-3.5595085620880127,0.09085997194051743,13568,-89.79279327392578
2576133,548934130,638059008,2326042000,-3.638439655303955,0.03350505977869034,13568,-89.72639465332031
2576143,547882477,642255357,2443873685,-3.655406951904297,-0.08268136531114578,54016,-89.6232681274414
2576153,546833907,643303929,2375717530,-3.6579885482788086,-0.1666233390569687,13568,-89.56373596191406
2576163,549986809,642252280,2342556065,-3.7143168449401855,-0.2340502142906189,54016,-89.4639892578125
2576173,547893752,642249208,2526907550,-3.7820255756378174,-0.25592994689941406,54016,-89.39498138427734
2576183,546842105,646444538,2443218335,-3.87814998626709,-0.30473196506500244,54016,-89.3031997680664
2576193,545791484,645395968,2459208866,-3.903917074203491,-0.3306224048137665,13568,-89.24932861328125
2576203,544738812,644349444,2409533601,-3.9285762310028076,-0.34824344515800476,54016,-89.17410278320312
2576213,542646782,645401093,2559806630,-3.9250102043151855,-0.3542296886444092,54016,-89.12866973876953
2576223,540551681,644352517,2543093409,-3.9670045375823975,-0.31931477785110474,13568,-89.08213806152344
2576233,541604349,643302912,2576516770,-4.012283802032471,-0.312305748462677,13568,-89.05301666259766
2576243,539508215,638056958,2560000665,-4.133310317993164,-0.3495592474937439,38400,-89.0178451538086
2576253,539513337,638051836,2475524763,-4.238196849822998,-0.3923170864582062,63488,-89.00118255615234
2576263,539506173,639097339,2256828817,-4.368524551391602,-0.44059446454048157,32768,-88.97557830810547
2576273,538451451,639098365,2189983627,-4.425131320953369,-0.4779515564441681,32768,-88.962646484375
2576283,539492862,639105534,2240313998,-4.428259372711182,-0.4994000494480133,32768,-88.9408187866211
2576293,538439166,638059007,2156166282,-4.402482509613037,-0.5022256374359131,57600,-88.92308807373047
2576303,538440190,633863682,2139454346,-4.344624996185303,-0.5067909955978394,57600,-88.90534210205078
2576313,537383419,630717953,2072478087,-4.272984981536865,-0.5289794206619263,57600,-88.89277648925781
2576323,536333818,629669375,2139913602,-4.147630214691162,-0.5557088851928711,57600,-88.88262939453125
2576333,536332794,626524670,2173074311,-4.048715591430664,-0.5820699334144592,57600,-88.8788070678711
2576343,537381372,624426495,2056028546,-3.9252889156341553,-0.6076076030731201,57600,-88.86820983886719
2576353,536334839,626523648,2189916806,-3.8276894092559814,-0.6432800889015198,57600,-88.8642807006836
2576363,534231546,629667329,2106360191,-3.677555799484253,-0.6941177845001221,57600,-88.86975860595703
2576373,535285242,629667329,2190113666,-3.5757672786712646,-0.7216091156005859,57600,-88.87291717529297
2576383,534240759,632812034,2273998977,-3.4608798027038574,-0.7829205989837646,57600,-88.88418579101562
2576393,534242809,635958785,2139717763,-3.414051055908203,-0.8323834538459778,57600,-88.8977279663086
2576403,533200382,634909181,2172944006,-3.3754281997680664,-0.860975980758667,57600,-88.91661071777344
2576413,533204483,630715900,2206104461,-3.3825535774230957,-0.8514996767044067,57600,-88.93379974365234
2576423,532166151,626523642,2323545231,-3.472964286804199,-0.7948061227798462,32768,-88.9631118774414
2576433,531120648,626524665,2272688531,-3.5580270290374756,-0.7485306262969971,57600,-88.98811340332031
2576443,531116556,624426492,2188804496,-3.6848630905151367,-0.6490696668624878,57600,-89.03148651123047
2576453,540530225,656930290,594270372,-3.7365386486053467,-0.5354323983192444,57600,-89.04759979248047
2576463,600191653,693625300,11131817,-3.1319093704223633,0.5210475921630859,57600,-88.75323486328125
2576473,551828000,683138526,1542493482,-2.1517932415008545,1.151183843612671,57600,-88.51106262207031
2576483,537171442,643300859,1120712771,-0.25743359327316284,1.184793472290039,57600,-88.50826263427734
2576493,536140266,635961856,1220588111,1.0009591579437256,1.0712581872940063,57600,-88.525146484375
2576503,535129574,630716927,1154267201,2.4686267375946045,0.8847702145576477,57600,-88.55269622802734
2576513,535194084,632820225,1721996651,3.2879977226257324,0.7217348217964172,57600,-88.56706237792969
2576523,534176226,635959807,1405331787,3.9611363410949707,0.48562318086624146,57600,-88.57877349853516
2576533,542682623,649591285,2320723391,4.097910404205322,0.3531656563282013,57600,-88.57538604736328
2576543,551131678,639112696,2069655236,3.4257559776306152,0.5044589638710022,57600,-88.47193145751953
2576553,545969693,639108608,2840022997,2.5916635990142822,0.685946524143219,32768,-88.39300537109375
2576563,538618363,645395960,3110812587,1.0770021677017212,0.8549344539642334,57600,-88.32485961914062
2576573,547902887,682111465,1643353897,0.4214482307434082,0.5439261794090271,32768,-88.29423522949219
2576583,572992967,659043826,735684446,0.5137786269187927,-0.08627396821975708,57600,-88.09795379638672
2576593,571981275,642254332,2057202321,0.7611929178237915,-0.32175981998443604,32768,-87.89559936523438
2576603,567797214,633863679,1807904122,0.8277115821838379,-0.5881367921829224,32768,-87.623046875
2576613,564704760,638059006,2274719149,0.6891458630561829,-0.6885945200920105,63488,-87.46739196777344
2576623,558416382,637008381,2359391155,0.32580509781837463,-0.7230451107025146,13568,-87.26689147949219
2576633,555298315,641203710,2291632311,-0.09546720236539841,-0.6944430470466614,54016,-87.1603775024414
2576643,552165900,643300867,2793630166,-0.7245269417762756,-0.5849863886833191,28928,-87.02534484863281
2576653,546915854,646444546,2375780015,-1.2410849332809448,-0.49005794525146484,54016,-86.9589614868164
2576663,545878537,645398017,2927781585,-1.9263849258422852,-0.3804272711277008,28928,-86.87841033935547
2576673,543755783,644350465,2459732146,-2.3844029903411865,-0.3268774747848511,28928,-86.83390808105469
2576683,541667843,641204736,2793960135,-2.9899566173553467,-0.27320626378059387,28928,-86.7789306640625
2576693,541640196,641203708,2509997490,-3.335617780685425,-0.24297115206718445,28928,-86.74751281738281
2576703,538489345,645399036,2560657841,-3.768141746520996,-0.20975738763809204,3584,-86.71469116210938
2576713,537422336,642256384,2593555125,-3.9244813919067383,-0.19663505256175995,28928,-86.70378875732422
2576723,534256125,645399038,2326829982,-4.103334903717041,-0.19881507754325867,3584,-86.70671844482422
2576733,534247927,652737015,2577958561,-4.099647521972656,-0.21635420620441437,28928,-86.71559143066406
2576743,533176820,649592316,2310708371,-4.002931118011475,-0.2998315095901489,3584,-86.72826385498047
2576753,532135406,644348413,2545127322,-3.8948845863342285,-0.37865331768989563,3584,-86.74452209472656
2576763,531070448,650638842,2327289491,-3.676645517349243,-0.5258612632751465,3584,-86.77547454833984
2576773,530030068,651692543,2394069401,-3.5290141105651855,-0.5991382002830505,3584,-86.80524444580078
2576783,531082745,649596419,2493878175,-3.2879040241241455,-0.6548282504081726,28928,-86.84658813476562
2576793,530039297,647496191,2259328156,-3.1977295875549316,-0.6611323952674866,28928,-86.87591552734375
2576803,527957517,644347390,2509477811,-3.0973997116088867,-0.5968978404998779,3584,-86.93142700195312
2576813,528999950,645396993,2342952612,-3.0755534172058105,-0.5124993920326233,3584,-86.97145080566406
2576823,529008144,649591294,2443156136,-3.0529916286468506,-0.37078917026519775,3584,-87.02764892578125
2576833,529004043,647491071,2409863846,-3.0351104736328125,-0.2983112037181854,3584,-87.06542205810547
2576843,529008132,642251267,2544015012,-3.004096269607544,-0.23520924150943756,3584,-87.12450408935547
2576853,527962617,639109636,2695006887,-2.9813880920410156,-0.2330767959356308,3584,-87.16232299804688
2576863,529008113,639108608,2645463191,-3.0026118755340576,-0.2982330918312073,3584,-87.22245025634766
2576873,527964650,643299838,2745862047,-3.0100257396698,-0.4008639454841614,3584,-87.26239013671875
2576883,527959530,641198589,2695597976,-3.024430990219116,-0.5934761166572571,3584,-87.3285903930664
2576893,527960553,643299843,2712242847,-3.026496171951294,-0.7251337766647339,3584,-87.37174224853516
2576903,526905836,644351492,2712309657,-2.9902327060699463,-0.9014824628829956,3584,-87.43745422363281
2576913,526905840,644349436,2611909272,-2.974625587463379,-0.9936457276344299,3584,-87.48663330078125
2576923,526905845,643301884,2644808861,-2.937126398086548,-1.1034557819366455,3584,-87.56049346923828
2576933,526906881,643303936,2493684131,-2.9182851314544678,-1.1265884637832642,3584,-87.61097717285156
2576943,526914057,642254334,2610665126,-2.9168524742126465,-1.066954255104065,3584,-87.68374633789062
2576953,527963665,640148985,2442827686,-2.948298215866089,-0.9910404682159424,28928,-87.7308578491211
2576963,527970842,639102463,2475333810,-3.0138564109802246,-0.8214442729949951,28928,-87.79361724853516
2576973,527967773,640155136,2476120751,-3.063835859298706,-0.6629899144172668,3584,-87.83834075927734
2576983,527967772,641203711,2492833452,-3.1395020484924316,-0.4097777307033539,3584,-87.90206909179688
2576993,526913042,641204736,2543622055,-3.163800001144409,-0.27960410714149475,3584,-87.95220947265625
2577003,526907913,641202684,2560727966,-3.174038887023926,-0.15672831237316132,3584,-88.0289306640625
2577013,525854209,644347389,2594346656,-3.144533634185791,-0.12628598511219025,3584,-88.08382415771484
2577023,527948282,645395971,2645005721,-3.063626289367676,-0.13837502896785736,3584,-88.15726470947266
2577033,526901751,642252293,2644742815,-2.9916677474975586,-0.18491603434085846,3584,-88.20201873779297
2577043,527951347,639107587,2678690966,-2.9071154594421387,-0.2667810618877411,3584,-88.27027893066406
2577053,525860336,634912252,2728824731,-2.881094217300415,-0.34554532170295715,3584,-88.32179260253906
2577063,524810738,635958775,2728629911,-2.8839383125305176,-0.4700063169002533,3584,-88.41178894042969
2577073,525860340,639107578,2711851421,-2.890038013458252,-0.5398720502853394,3584,-88.46820068359375
2577083,525859320,643301885,2728367516,-2.876694440841675,-0.610405445098877,3584,-88.55101776123047
2577093,524807674,642254336,2644809371,-2.8588545322418213,-0.6344037652015686,3584,-88.6109619140625
2577103,525853183,642246145,2610929052,-2.797058343887329,-0.6599050760269165,3584,-88.69668579101562
2577113,526895622,643295744,2460131741,-2.7299599647521973,-0.6520093679428101,3584,-88.74788665771484
2577123,525848078,642252287,2409145501,-2.612034559249878,-0.5709050297737122,28928,-88.82608795166016
2577133,525843987,642259456,2409473440,-2.5189952850341797,-0.469830721616745,3584,-88.88589477539062
2577143,525845017,640163328,2392370081,-2.372016668319702,-0.2514723539352417,3584,-88.96619415283203
2577153,525854236,637011454,2475860651,-2.2978148460388184,-0.08783352375030518,3584,-89.02074432373047
2577163,527957532,635956734,2475730346,-2.2649810314178467,0.15345090627670288,3584,-89.09481811523438
2577173,527960597,635952636,2526584486,-2.2710273265838623,0.28673025965690613,3584,-89.14034271240234
2577183,527958542,635956734,2560204961,-2.283704996109009,0.4220728278160095,3584,-89.20716094970703
2577193,531101192,634910206,2459671711,-2.27919864654541,0.48165202140808105,28928,-89.24566650390625
2577203,532145664,638061057,2544016796,-2.2257542610168457,0.519555389881134,3584,-89.28378295898438
2577213,532142585,641206784,2544409752,-2.176778554916382,0.5076037049293518,3584,-89.30345153808594
2577223,533187063,643304954,2510856086,-2.0827138423919678,0.4459995627403259,3584,-89.33356475830078
2577233,534231537,640157175,2561579666,-2.006338357925415,0.3931121826171875,3584,-89.3454360961914
2577243,534232560,639106552,2578094231,-1.8836480379104614,0.2722066044807434,3584,-89.36000061035156
2577253,535279085,639104515,2561513876,-1.7814738750457764,0.17637361586093903,3584,-89.36483764648438
2577263,534235632,642251269,2661980827,-1.6203198432922363,0.035309311002492905,44032,-89.37770080566406
2577273,534243827,643298817,2695206816,-1.5474151372909546,-0.04335850477218628,44032,-89.38672637939453
2577283,534255099,640154110,2627442341,-1.5498381853103638,-0.11359057575464249,3584,-89.40367126464844
2577293,534266369,641203708,2711262892,-1.615655541419983,-0.11774591356515884,44032,-89.41443634033203
2577303,532170247,637009410,2660736171,-1.760406255722046,-0.07412245869636536,44032,-89.44209289550781
2577313,532164108,638056958,2577244072,-1.8365567922592163,-0.013637450523674488,44032,-89.46300506591797
2577323,532155915,642257405,2543887267,-1.9046128988265991,0.09160646796226501,44032,-89.49453735351562
2577333,531105293,640157176,2543756198,-1.92587411403656,0.16824844479560852,44032,-89.51739501953125
2577343,533200396,637008377,2593890471,-1.943630576133728,0.2876618802547455,44032,-89.54853820800781
2577353,534246920,637006332,2527175077,-1.9457569122314453,0.34331029653549194,44032,-89.56072998046875
2577363,535292417,635956739,2661325477,-1.9037412405014038,0.382382869720459,44032,-89.56945037841797
2577373,536333817,637008382,2611649436,-1.8509958982467651,0.3673137128353119,44032,-89.57350158691406
2577383,535280114,638061053,2862779813,-1.726469874382019,0.2867298126220703,44032,-89.57235717773438
2577393,535274986,638062071,2712769942,-1.624041199684143,0.19905444979667664,44032,-89.57395935058594
2577403,535270883,638059004,2880343191,-1.4279989004135132,-0.004016546998172998,44032,-89.5806655883789
2577413,533172705,638054909,2930346652,-1.281266450881958,-0.16664886474609375,44032,-89.58781433105469
2577423,535265765,639106558,2779616152,-1.0367263555526733,-0.4122049808502197,44032,-89.60065460205078
2577433,535258603,643298816,2712640411,-0.8497635722160339,-0.5469806790351868,19200,-89.60665893554688
2577443,535255536,645398011,2679283097,-0.5269126296043396,-0.6986852884292603,19200,-89.60957336425781
2577453,535248377,644351482,2628690077,-0.27828624844551086,-0.7569618225097656,19200,-89.6102066040039
2577463,536297987,638059006,2477762717,0.1109393835067749,-0.75946444272995,19200,-89.6016845703125
2577473,536296972,632818177,2494277793,0.3828801214694977,-0.7095053195953369,19200,-89.59819793701172
2577483,536300055,634912248,2292757412,0.7586525678634644,-0.5467793941497803,19200,-89.59148406982422
2577493,536303133,641204728,2393091752,0.9896247386932373,-0.3910853862762451,19200,-89.58924865722656
2577503,537352735,643302908,2309468837,1.3171504735946655,-0.11854449659585953,19200,-89.58684539794922
2577513,537358879,642251259,2393025962,1.5212937593460083,0.06274418532848358,19200,-89.58037567138672
2577523,537360922,641199610,2443422378,1.7886685132980347,0.3093793988227844,19200,-89.57291412353516
2577533,537368087,640153085,2493425583,1.93751060962677,0.4443601667881012,19200,-89.56562042236328
2577543,535271955,637010436,2460068522,2.145416498184204,0.6279176473617554,19200,-89.56488800048828
2577553,534227468,633863675,2527569572,2.257810115814209,0.7225847244262695,19200,-89.57227325439453
2577563,534232578,638053877,2645074338,2.3905322551727295,0.786234438419342,19200,-89.58695983886719
2577573,534232568,641200635,2695601568,2.4556941986083984,0.767285168170929,19200,-89.5986328125
2577583,533191151,642254333,2863109538,2.5422141551971436,0.6658705472946167,19200,-89.6182861328125
2577593,534238697,641205757,2829882782,2.582308769226074,0.5583289265632629,19200,-89.63123321533203
2577603,534240742,640156157,2846725532,2.6364898681640625,0.3632009029388428,19200,-89.64996337890625
2577613,533191141,640155133,2846725277,2.6792874336242676,0.2170386016368866,19200,-89.66183471679688
2577623,534238697,638057983,2779617692,2.73638916015625,0.010667463764548302,19200,-89.6802978515625
2577633,533189106,638056955,2695339682,2.783722400665283,-0.09294770658016205,19200,-89.69326782226562
2577643,534233594,641201657,2578032032,2.865023136138916,-0.17208528518676758,19200,-89.71524047851562
2577653,535277058,641202684,2561057957,2.949042797088623,-0.17962537705898285,19200,-89.72290802001953
2577663,534225419,641204734,2426579106,3.1086997985839844,-0.11412313580513,44032,-89.73339080810547
2577673,535275021,637009406,2477041057,3.2232863903045654,-0.038948193192481995,44032,-89.73834228515625
2577683,535277073,633861626,2476911272,3.3758084774017334,0.09145033359527588,19200,-89.74761962890625
2577693,535281167,635956730,2510530727,3.4537816047668457,0.18030230700969696,19200,-89.7523193359375
2577703,535281167,641202683,2510334378,3.5645878314971924,0.308485746383667,19200,-89.759033203125
2577713,535279115,646448631,3396629462,3.632481813430786,0.39297783374786377,19200,-89.76632690429688
2577723,536324616,644350459,2744883632,3.7683370113372803,0.48895958065986633,19200,-89.7676010131836
2577733,535271937,638059013,2845611182,3.883244752883911,0.5240990519523621,19200,-89.77001953125
2577743,536312314,635957763,2762447012,4.118118762969971,0.5141618847846985,19200,-89.77019500732422
2577753,537348596,638054908,2695732382,4.3139472007751465,0.4640355408191681,19200,-89.76823425292969
2577763,536286705,644352505,2679217562,4.719630241394043,0.35943883657455444,19200,-89.7607650756836
2577773,536272368,643301884,2612109722,5.059345722198486,0.27283334732055664,19200,-89.75997924804688
2577783,535220722,640156162,2595333272,5.656593322753906,0.15273454785346985,19200,-89.76806640625
2577793,535219704,639103488,2511317148,6.065021514892578,0.09630610048770905,19200,-89.77184295654297
2577803,534177275,639105531,2595071388,6.64487361907959,0.046162478625774384,19200,-89.78032684326172
2577813,534179330,642251254,2494343582,7.010128498077393,0.046371519565582275,19200,-89.78939056396484
2577823,534182406,646444537,2343679127,7.513655185699463,0.08932027220726013,19200,-89.80703735351562
2577833,534186505,646449668,2610799533,7.852184295654297,0.13944149017333984,19200,-89.81651306152344
2577843,535239177,642257412,2460724383,8.315690040588379,0.23810870945453644,19200,-89.8318099975586
2577853,535245321,642252286,2627903913,8.59779167175293,0.2995927631855011,19200,-89.83807373046875
2577863,535246345,638054913,2360390297,8.977924346923828,0.380658358335495,19200,-89.85005187988281
2577873,534208011,637008384,2493885093,9.20085620880127,0.4361112415790558,19200,-89.8574447631836
2577883,535262730,639103477,2477435807,9.458276748657227,0.5337976217269897,19200,-89.87140655517578
2577893,533173769,643295734,2493819812,9.58286190032959,0.585586428642273,19200,-89.88359832763672
2577903,534230533,646446590,2577508007,9.7201509475708,0.6438557505607605,19200,-89.90444946289062
2577913,534239747,644355584,2627969702,9.768416404724121,0.6761620044708252,19200,-89.91474151611328
2577923,534249982,642254334,2694879651,9.759873390197754,0.705375611782074,44032,-89.92655944824219
2577933,534254074,640156158,2745539493,9.71456527709961,0.6939427852630615,19200,-89.93419647216797
2577943,534258167,638061055,2779028132,9.611403465270996,0.6366474032402039,19200,-89.94684600830078
2577953,534260212,637009407,2796001442,9.524487495422363,0.5885916352272034,19200,-89.95773315429688
2577963,533210610,639106559,2695667867,9.387764930725098,0.4765596389770508,19200,-89.97251892089844
2577973,534257137,642248190,2762578847,9.308602333068848,0.39571845531463623,19200,-89.98406219482422
2577983,534253040,640153086,2762710172,9.209128379821777,0.26594555377960205,19200,-89.9981918334961
2577993,534252020,639112706,2628625308,9.16269588470459,0.19888544082641602,19200,-90.00679779052734
2578003,534253047,642257408,2511448727,9.095215797424316,0.13582031428813934,19200,-90.02124786376953
2578013,534258171,641203707,2394206612,9.028305053710938,0.1026526540517807,19200,-90.02826690673828
2578023,534266369,635960830,2326967701,8.875313758850098,0.09499697387218475,19200,-90.03771209716797
2578033,533235205,634911233,2460659102,8.713547706604004,0.11624151468276978,19200,-90.04302978515625
2578043,533255688,640150013,2610996647,8.315608024597168,0.1785489320755005,19200,-90.06425476074219
2578053,534321672,637004282,2661392807,7.931259632110596,0.22474052011966705,19200,-90.07228088378906
2578063,533290506,638056958,2845022387,7.215670108795166,0.3108723759651184,19200,-90.08866119384766
2578073,533300745,640154111,2828376242,6.6666131019592285,0.3694579005241394,19200,-90.10041046142578
2578083,533310981,641203710,3012333242,5.765402793884277,0.4346233308315277,19200,-90.11660766601562
2578093,533305858,639109634,2878838192,5.152196884155273,0.46180540323257446,19200,-90.12653350830078
2578103,533296638,639113734,2928972722,4.299660682678223,0.4807223975658417,19200,-90.1465835571289
2578113,533282298,642251267,2862519977,3.806555986404419,0.4701087772846222,19200,-90.15969848632812
2578123,531171830,643296766,2912982948,3.170861005783081,0.4040280282497406,19200,-90.18562316894531
2578133,532209141,642250235,2795805602,2.8180296421051025,0.34508371353149414,19200,-90.20592498779297
2578143,532195827,638060029,2779094687,2.3771181106567383,0.24730552732944489,19200,-90.23505401611328
2578153,532189684,635961860,2762448287,2.146329164505005,0.18620799481868744,19200,-90.25382995605469
2578163,533226996,641200643,2729157018,1.8818472623825073,0.08902723342180252,19200,-90.28046417236328
2578173,533218805,646444543,2628691097,1.7543226480484009,0.02722143568098545,19200,-90.2956771850586
2578183,534259196,647498236,2493950107,1.6358354091644287,-0.03418755903840065,44032,-90.30864715576172
2578193,534255106,641207808,2494213277,1.5806446075439453,-0.028745368123054504,19200,-90.31901550292969
2578203,535306761,632813061,2594154407,1.5241702795028687,0.029368961229920387,19200,-90.33531951904297
2578213,535309830,635958785,2628166817,1.4640071392059326,0.07388745248317719,19200,-90.3388671875
2578223,535316997,641203711,2694946983,1.3294193744659424,0.1290283352136612,19200,-90.34354400634766
2578233,535321095,644349433,2627839142,1.2044105529785156,0.17034336924552917,19200,-90.3481216430664
2578243,534275591,643302909,2627510436,0.9829201102256775,0.24281585216522217,44032,-90.35533142089844
2578253,534273544,639104511,2593956261,0.838356077671051,0.28906741738319397,44032,-90.36656951904297
2578263,533219847,642253313,2678170788,0.6513382196426392,0.36564719676971436,19200,-90.38320922851562
2578273,533218821,639109629,2677973927,0.550963819026947,0.4069671332836151,19200,-90.39949798583984
2578283,533218817,642253304,2728501923,0.3847275972366333,0.4438099265098572,19200,-90.42288970947266
2578293,532174334,646444538,2745278628,0.26258984208106995,0.44288045167922974,19200,-90.4441146850586
2578303,532175357,643299839,2744884387,0.07221225649118423,0.4219696521759033,44032,-90.47522735595703
2578313,533223931,638057988,2812189607,-0.05365700647234917,0.40114322304725647,19200,-90.4913558959961
2578323,533227002,638056961,2912589737,-0.2488548457622528,0.36608946323394775,19200,-90.51449584960938
2578333,533226999,644352509,2829032101,-0.402772456407547,0.3315621018409729,19200,-90.52886962890625
2578343,532171254,642251261,2778766237,-0.6010422706604004,0.2612992823123932,44032,-90.55765533447266
2578353,533214708,641200639,2779225502,-0.6934531331062317,0.20127449929714203,19200,-90.57270812988281
2578363,533216756,637006339,2912983203,-0.8090437054634094,0.09754115343093872,19200,-90.5943603515625
2578373,534268407,642255362,2845874597,-0.90340656042099,0.04482290521264076,19200,-90.6137924194336
2578383,534266362,643307011,2845678247,-1.0413570404052734,0.001754328841343522,19200,-90.625244140625
2578393,535309820,641203712,2761989541,-1.1154024600982666,-0.02091025561094284,19200,-90.63249969482422
2578403,535304702,640150009,2712051872,-1.196848750114441,-0.0397496372461319,19200,-90.64258575439453
2578413,536346114,644349432,2594678687,-1.2250711917877197,-0.03820134699344635,19200,-90.64476776123047
2578423,536339972,642253310,2577901472,-1.2013674974441528,0.002136882161721587,19200,-90.6385269165039
2578433,537382406,637009416,2594547362,-1.1351414918899536,0.03748228773474693,19200,-90.63117218017578
2578443,537386501,634912259,2644616103,-1.0267685651779175,0.09285275638103485,19200,-90.62041473388672
2578453,536347144,641205753,2711134383,-0.9952554702758789,0.13804754614830017,19200,-90.6137466430664
2578463,536350218,647494134,2644091822,-1.027703046798706,0.22247613966464996,19200,-90.6107406616211
2578473,537403912,643298812,2677908138,-1.0772663354873657,0.2771831452846527,19200,-90.60475158691406
2578483,538451460,640157190,2678431652,-1.1379060745239258,0.3390921354293823,19200,-90.58911895751953
2578493,537404928,635962881,2778831527,-1.1743412017822266,0.3591763377189636,19200,-90.57536315917969
2578503,538457595,640160249,2862322862,-1.2719074487686157,0.35331085324287415,19200,-90.55944061279297
2578513,538457591,646446587,2845808297,-1.348952054977417,0.3224228620529175,19200,-90.5425033569336
2578523,539505138,648536574,2829620897,-1.4743974208831787,0.2209419459104538,19200,-90.52125549316406
2578533,539504115,641200645,2812778658,-1.5398011207580566,0.14019060134887695,19200,-90.50193786621094
2578543,539497977,641204738,2695273638,-1.5961045026779175,0.062211837619543076,19200,-90.47190856933594
2578553,539491835,642251263,2728696997,-1.6027733087539673,0.03756388649344444,19200,-90.4531021118164
2578563,540533249,643296768,2527503782,-1.5657200813293457,0.02572639286518097,19200,-90.41632843017578
