Timestamp,compactImu.a_xyz,compactImu.l_xyz,motorCompact.pwms,stabilizer.pitch,stabilizer.roll,stabilizer.thrust,stabilizer.yaw
12141,536346111,641202686,0,-0.35313206911087036,-0.5367181897163391,0,12.757369041442871
12151,536346111,641202686,0,-0.35298120975494385,-0.5369836688041687,0,12.757241249084473
12161,536346111,641202686,0,-0.35251113772392273,-0.5372700691223145,0,12.756587028503418
12171,536346111,641202686,0,-0.35268884897232056,-0.5372481942176819,0,12.75684642791748
12181,536346111,642251262,0,-0.3529818058013916,-0.5372873544692993,0,12.75787353515625
12191,536346111,641202686,0,-0.35366928577423096,-0.5368812084197998,0,12.759174346923828
12201,536346111,641202686,0,-0.3542376458644867,-0.5372430682182312,0,12.758938789367676
12211,536346111,641202686,0,-0.3550627827644348,-0.538742184638977,0,12.759316444396973
12221,536346111,641202686,0,-0.35481423139572144,-0.5386881828308105,0,12.759629249572754
12231,536346111,641202686,0,-0.35483652353286743,-0.5376653671264648,0,12.76060962677002
12241,536346111,641202686,0,-0.3549039363861084,-0.5379751920700073,0,12.76121711730957
12251,536346111,641202686,0,-0.35457223653793335,-0.536981999874115,0,12.761246681213379
12261,536346111,641202686,0,-0.35425084829330444,-0.536430299282074,0,12.761494636535645
12271,536346111,641202686,0,-0.35361239314079285,-0.5360918045043945,0,12.762372970581055
12281,536346111,641202686,0,-0.35350409150123596,-0.535483181476593,0,12.761977195739746
12291,536346111,641202686,0,-0.3527960181236267,-0.5356071591377258,0,12.761445045471191
12301,536346111,641202686,0,-0.3529105484485626,-0.5358368754386902,0,12.761138916015625
12311,536346111,641202686,0,-0.352938175201416,-0.5356839299201965,0,12.760308265686035
12321,536346111,641202686,0,-0.353217750787735,-0.5359728932380676,0,12.760334014892578
12331,536346111,641202687,0,-0.352245569229126,-0.5365701913833618,0,12.760573387145996
12341,536346111,641202686,0,-0.3519471287727356,-0.5365815162658691,0,12.759533882141113
12351,536346111,641202686,0,-0.3526134788990021,-0.537428081035614,0,12.759929656982422
12361,536346111,642251262,0,-0.3524709939956665,-0.5380505919456482,0,12.760409355163574
12371,536346111,641202686,0,-0.3528822362422943,-0.5384650826454163,0,12.761693000793457
12381,536346111,641202686,0,-0.35288330912590027,-0.538750410079956,0,12.76270866394043
12391,536346111,641202686,0,-0.35324859619140625,-0.539371132850647,0,12.762946128845215
12401,536346111,641202686,0,-0.35332781076431274,-0.5394698977470398,0,12.763375282287598
12411,536346111,641202686,0,-0.3527802526950836,-0.5394846796989441,0,12.762513160705566
12421,536346111,641202686,0,-0.35226717591285706,-0.5393120050430298,0,12.762368202209473
12431,536346111,641202686,0,-0.35187840461730957,-0.5392084717750549,0,12.762174606323242
12441,536346111,641202686,0,-0.3516747057437897,-0.539202868938446,0,12.761663436889648
12451,536346111,641202686,0,-0.3515576720237732,-0.5399372577667236,0,12.762372970581055
12461,536346111,641202686,0,-0.35137784481048584,-0.5391585826873779,0,12.76362133026123
12471,536346111,641202686,0,-0.3515981435775757,-0.5379141569137573,0,12.763907432556152
12481,536346111,641202686,0,-0.3514186143875122,-0.5372023582458496,0,12.763999938964844
12491,536346111,641202686,0,-0.3516647517681122,-0.5379264950752258,0,12.763294219970703
12501,536346111,641202686,0,-0.35162538290023804,-0.5383636355400085,0,12.764120101928711
12511,536346111,641202686,0,-0.35241368412971497,-0.5383771061897278,0,12.763626098632812
12521,536346111,641202686,0,-0.352628231048584,-0.5386594533920288,0,12.763728141784668
12531,536346111,641202686,0,-0.35255852341651917,-0.5392908453941345,0,12.763846397399902
12541,536346111,641202686,0,-0.35306745767593384,-0.5396949648857117,0,12.763606071472168
12551,536346111,641202686,0,-0.35279351472854614,-0.5404183268547058,0,12.763425827026367
12561,536346111,641202687,0,-0.3516957759857178,-0.5403656959533691,0,12.764140129089355
12571,536346111,641202686,0,-0.35141128301620483,-0.5399093627929688,0,12.764571189880371
12581,536346111,641202687,0,-0.35122042894363403,-0.5391700267791748,0,12.764630317687988
12591,536346111,641202686,0,-0.3508489727973938,-0.5401303172111511,0,12.765159606933594
12601,536346111,641202686,0,-0.351458340883255,-0.5402660965919495,0,12.76507568359375
12611,536346111,641202686,0,-0.35177382826805115,-0.5401953458786011,0,12.765884399414062
12621,536346111,641202686,0,-0.3513668179512024,-0.5407612919807434,0,12.765751838684082
12631,536346111,641202686,0,-0.35152876377105713,-0.540989875793457,0,12.767021179199219
12641,536346111,641202686,0,-0.3521144986152649,-0.5414664149284363,0,12.766446113586426
12651,536346111,641202686,0,-0.3520691394805908,-0.541409432888031,0,12.76729965209961
12661,536346111,641202686,0,-0.3519572615623474,-0.5416593551635742,0,12.767037391662598
12671,536346111,641202686,0,-0.35226598381996155,-0.5416945219039917,0,12.767627716064453
12681,536346111,641202686,0,-0.3525328040122986,-0.5410026907920837,0,12.767644882202148
12691,536346111,641202686,0,-0.35239100456237793,-0.5412668585777283,0,12.767945289611816
12701,536346111,641202686,0,-0.3522057831287384,-0.5420670509338379,0,12.767027854919434
12711,536346111,641202686,0,-0.35312286019325256,-0.5421916842460632,0,12.766942024230957
12721,536346111,641202686,0,-0.353130042552948,-0.5417964458465576,0,12.767107963562012
12731,536346111,641202686,0,-0.3529917299747467,-0.5420246124267578,0,12.766901016235352
12741,536346111,641202686,0,-0.35292112827301025,-0.5422616600990295,0,12.767423629760742
12751,536346111,641202686,0,-0.3531092405319214,-0.5429584980010986,0,12.766603469848633
12761,536346111,641202687,0,-0.3528924286365509,-0.5430223941802979,0,12.767170906066895
12771,536346111,641202686,0,-0.35297802090644836,-0.5427311658859253,0,12.767461776733398
12781,536346111,641202686,0,-0.35329246520996094,-0.5431867837905884,0,12.767441749572754
12791,536346111,641202686,0,-0.3534342050552368,-0.5434144139289856,0,12.767546653747559
12801,536346111,641202686,0,-0.3535524010658264,-0.5437852144241333,0,12.768089294433594
12811,536346111,641202686,0,-0.3543388247489929,-0.5429373979568481,0,12.76840591430664
12821,536346111,641202686,0,-0.3535333275794983,-0.542969822883606,0,12.768566131591797
12831,536346111,641202686,0,-0.35295748710632324,-0.5431936383247375,0,12.767982482910156
12841,536346111,641202686,0,-0.3524169921875,-0.5433602929115295,0,12.767261505126953
12851,536346111,641202686,0,-0.35202887654304504,-0.5447397828102112,0,12.768138885498047
12861,536346111,641202686,0,-0.3518606424331665,-0.5450099110603333,0,12.768645286560059
12871,536346111,642251262,0,-0.3518095910549164,-0.5449456572532654,0,12.768532752990723
12881,536346111,641202686,0,-0.3519899249076843,-0.5455082654953003,0,12.768372535705566
12891,536346111,641202686,0,-0.3524684011936188,-0.5452765822410583,0,12.769209861755371
12901,536346111,641202686,0,-0.3529636263847351,-0.5448781847953796,0,12.768991470336914
12911,536346111,641202686,0,-0.3530479967594147,-0.5436283946037292,0,12.769844055175781
12921,536346111,641202686,0,-0.3529098331928253,-0.54323410987854,0,12.770441055297852
12931,536346111,641202686,0,-0.35356658697128296,-0.543480634689331,0,12.770694732666016
12941,536346111,641202686,0,-0.354124516248703,-0.5433555245399475,0,12.77112865447998
12951,536346111,641202686,0,-0.3546018898487091,-0.5427060127258301,0,12.77198314666748
12961,536346111,641202686,0,-0.354949414730072,-0.5426223874092102,0,12.771958351135254
12971,536346111,641202686,0,-0.35515719652175903,-0.542800784111023,0,12.77321720123291
12981,536346111,641202686,0,-0.35579031705856323,-0.5435409545898438,0,12.773052215576172
12991,536346111,641202686,0,-0.3562944233417511,-0.5444969534873962,0,12.7732572555542
13001,536346111,641202686,0,-0.35667189955711365,-0.543703019618988,0,12.773938179016113
13011,536346111,641202686,0,-0.3569081723690033,-0.5439562797546387,0,12.77338981628418
13021,536346111,641202686,0,-0.3561769127845764,-0.5434051156044006,0,12.773849487304688
13031,536346111,642251262,0,-0.35559260845184326,-0.5427009463310242,0,12.774280548095703
13041,536346111,641202686,0,-0.3558504581451416,-0.5429275035858154,0,12.774577140808105
13051,536346111,641202686,0,-0.35530152916908264,-0.5425975918769836,0,12.775546073913574
13061,536346111,641202686,0,-0.35553836822509766,-0.5429078340530396,0,12.776533126831055
13071,536346111,641202686,0,-0.3551478981971741,-0.5431636571884155,0,12.776443481445312
13081,536346111,641202686,0,-0.3553984761238098,-0.5427355766296387,0,12.775825500488281
13091,536346111,641202686,0,-0.3563494384288788,-0.5424506664276123,0,12.77628231048584
13101,536346111,641202686,0,-0.35663291811943054,-0.5427100658416748,0,12.776198387145996
13111,536346111,641202686,0,-0.3567138612270355,-0.5428849458694458,0,12.776290893554688
13121,536346111,641202686,0,-0.35632389783859253,-0.5433052778244019,0,12.776328086853027
13131,536346111,641202686,0,-0.3556930720806122,-0.5432807207107544,0,12.776244163513184
13141,536346111,641202686,0,-0.35598695278167725,-0.5433796644210815,0,12.775924682617188
13151,536346111,641202686,0,-0.3570666015148163,-0.5425509214401245,0,12.77669620513916
13161,536346111,641202686,0,-0.35696542263031006,-0.5419152975082397,0,12.777199745178223
13171,536346111,641202686,0,-0.35641834139823914,-0.5415936708450317,0,12.77759075164795
13181,536346111,641202686,0,-0.3559151291847229,-0.5415757298469543,0,12.777605056762695
13191,536346111,641202686,0,-0.35575366020202637,-0.5410997271537781,0,12.777665138244629
13201,536346111,641202686,0,-0.35585471987724304,-0.5412363409996033,0,12.777052879333496
13211,536346111,641202686,0,-0.35513925552368164,-0.5414922833442688,0,12.778035163879395
13221,536346111,641202686,0,-0.3548182249069214,-0.5418555736541748,0,12.77744197845459
13231,536346111,641202686,0,-0.355010062456131,-0.5415022373199463,0,12.777344703674316
13241,536346111,641202686,0,-0.355272501707077,-0.5419919490814209,0,12.776491165161133
13251,536346111,641202686,0,-0.3554968535900116,-0.541904091835022,0,12.777603149414062
13261,536346111,642251262,0,-0.35583925247192383,-0.5416953563690186,0,12.777963638305664
13271,536346111,641202686,0,-0.3571181297302246,-0.5425314903259277,0,12.777880668640137
13281,536346111,641202686,0,-0.3572956621646881,-0.541991651058197,0,12.778101921081543
13291,536346111,641202686,0,-0.35772138833999634,-0.5422736406326294,0,12.77826976776123
13301,536346111,641202686,0,-0.35806769132614136,-0.5421685576438904,0,12.778633117675781
13311,536346111,641202686,0,-0.35814952850341797,-0.541888415813446,0,12.77902889251709
13321,536346111,641202686,0,-0.35823601484298706,-0.5417634844779968,0,12.77905559539795
13331,536346111,641202686,0,-0.3581573963165283,-0.5398110151290894,0,12.779126167297363
13341,536346111,641202686,0,-0.3581666350364685,-0.5400820374488831,0,12.778801918029785
13351,536346111,641202686,0,-0.3581254482269287,-0.5394560098648071,0,12.779212951660156
13361,536346111,641202686,0,-0.3586653172969818,-0.5385063290596008,0,12.779032707214355
13371,535297535,641202686,0,-0.3596936762332916,-0.5384860634803772,0,12.778217315673828
13381,536346111,641202686,0,-0.3593737781047821,-0.5380289554595947,0,12.777802467346191
13391,536346111,641202686,0,-0.3593635559082031,-0.5379552245140076,0,12.777679443359375
13401,536346111,641202686,0,-0.359173446893692,-0.5376539826393127,0,12.777403831481934
13411,536346111,641202686,0,-0.35826537013053894,-0.5371325612068176,0,12.778008460998535
13421,536346111,641202686,0,-0.3583829402923584,-0.5364350080490112,0,12.777511596679688
13431,536346111,641202686,0,-0.3581097722053528,-0.5368537902832031,0,12.777127265930176
13441,536346111,641202687,0,-0.3578905463218689,-0.5377405285835266,0,12.777803421020508
13451,536346111,641202687,0,-0.3572097420692444,-0.5370215177536011,0,12.777700424194336
13461,536346111,641202686,0,-0.35658538341522217,-0.5374993085861206,0,12.778462409973145
13471,536346111,641202686,0,-0.356627494096756,-0.5382435917854309,0,12.777867317199707
13481,536346111,642251262,0,-0.35699495673179626,-0.5391563177108765,0,12.777557373046875
13491,536346111,642251262,0,-0.3576050102710724,-0.5388620495796204,0,12.777013778686523
13501,536346111,641202686,0,-0.3581381142139435,-0.5383322238922119,0,12.776495933532715
13511,536346111,641202686,0,-0.35729002952575684,-0.5384638905525208,0,12.775572776794434
13521,536346111,641202686,0,-0.3566577136516571,-0.5385713577270508,0,12.775834083557129
13531,536346111,641202686,0,-0.3571779131889343,-0.5383024215698242,0,12.77613353729248
13541,536346111,641202686,0,-0.356891006231308,-0.5384963750839233,0,12.77606201171875
13551,536346111,641202686,0,-0.35627180337905884,-0.538101315498352,0,12.775320053100586
13561,536346111,641202686,0,-0.3555120527744293,-0.5385227799415588,0,12.775457382202148
13571,536346111,641202686,0,-0.35539576411247253,-0.5387122631072998,0,12.776510238647461
13581,536346111,641202687,0,-0.3545766770839691,-0.539644181728363,0,12.776566505432129
13591,535297535,641202686,0,-0.35398411750793457,-0.5397177934646606,0,12.775384902954102
13601,536346111,641202686,0,-0.354018896818161,-0.5393539071083069,0,12.775002479553223
13611,536346111,641202686,0,-0.3554081320762634,-0.538414716720581,0,12.775106430053711
13621,536346111,641202686,0,-0.3559843599796295,-0.5386273860931396,0,12.77490234375
13631,536346111,641202686,0,-0.3556920289993286,-0.5396744012832642,0,12.774738311767578
13641,536346111,641202686,0,-0.3556670546531677,-0.53963303565979,0,12.774723052978516
13651,536346111,641202686,0,-0.3547212481498718,-0.5392282605171204,0,12.77475357055664
13661,536346111,641202686,0,-0.35496219992637634,-0.5390333533287048,0,12.77444076538086
13671,536346111,641202686,0,-0.354483425617218,-0.5397169589996338,0,12.774606704711914
13681,536346111,641202686,0,-0.3540186285972595,-0.5405347943305969,0,12.77520751953125
13691,535297535,641202686,0,-0.3538435995578766,-0.5417091250419617,0,12.774372100830078
13701,536346111,641202686,0,-0.35422584414482117,-0.5413923263549805,0,12.774297714233398
13711,536346111,641202686,0,-0.3537408411502838,-0.5411469340324402,0,12.77420711517334
13721,536346111,642251263,0,-0.3529181480407715,-0.5409949421882629,0,12.774504661560059
13731,536346111,641202687,0,-0.35185497999191284,-0.5410984754562378,0,12.774726867675781
13741,536346111,641202686,0,-0.3520129919052124,-0.5416455268859863,0,12.775102615356445
13751,536346111,641202686,0,-0.35229599475860596,-0.5416371822357178,0,12.775158882141113
13761,536346111,641202686,0,-0.352896511554718,-0.5411901473999023,0,12.775029182434082
13771,536346111,641202686,0,-0.3523714542388916,-0.5416080951690674,0,12.773886680603027
13781,536346111,641202686,0,-0.35252681374549866,-0.5418899059295654,0,12.775209426879883
13791,536346111,641202686,0,-0.3532648980617523,-0.5405682325363159,0,12.775630950927734
13801,536346111,641202686,0,-0.3537408411502838,-0.5404236316680908,0,12.775825500488281
13811,536346111,641202686,0,-0.3546128571033478,-0.5412086844444275,0,12.776911735534668
13821,536346111,641202687,0,-0.35420626401901245,-0.5411628484725952,0,12.777061462402344
13831,536346111,642251262,0,-0.3535754382610321,-0.5421288013458252,0,12.776756286621094
13841,536346111,641202686,0,-0.35353517532348633,-0.5427811741828918,0,12.776602745056152
13851,536346111,641202686,0,-0.35339978337287903,-0.5423288345336914,0,12.776373863220215
13861,536346111,641202686,0,-0.3536035418510437,-0.5424701571464539,0,12.776604652404785
13871,536346111,641202686,0,-0.3538108766078949,-0.5428540110588074,0,12.77696704864502
13881,536346110,641202686,0,-0.35415181517601013,-0.5437785983085632,0,12.777626037597656
13891,536346111,641202686,0,-0.35404279828071594,-0.5440204739570618,0,12.7779541015625
13901,536346111,641202686,0,-0.35405877232551575,-0.543670117855072,0,12.77785587310791
13911,536346111,641202687,0,-0.3540564179420471,-0.5440263748168945,0,12.7769136428833
13921,536346111,641202686,0,-0.35395315289497375,-0.5436807870864868,0,12.776330947875977
13931,536346111,641202686,0,-0.3546200096607208,-0.5434256792068481,0,12.776078224182129
13941,536346111,641202686,0,-0.354611873626709,-0.5436737537384033,0,12.775774002075195
13951,536346111,641202686,0,-0.35434943437576294,-0.5434678792953491,0,12.777280807495117
13961,536346111,641202686,0,-0.3542487621307373,-0.5427067279815674,0,12.777368545532227
13971,536346111,641202686,0,-0.35408371686935425,-0.5425916910171509,0,12.777899742126465
13981,536346111,641202687,0,-0.3544563055038452,-0.542407751083374,0,12.77758502960205
13991,536346111,641202687,0,-0.3549928069114685,-0.5415311455726624,0,12.778022766113281
14001,536346111,641202686,0,-0.3547104597091675,-0.5411683917045593,0,12.778231620788574
14011,536346111,641202686,0,-0.3552034795284271,-0.5414679646492004,0,12.779324531555176
14021,536346111,641202686,0,-0.3551446795463562,-0.5412755012512207,0,12.779152870178223
14031,536346111,641202686,0,-0.3561660051345825,-0.5409823656082153,0,12.778660774230957
14041,536346111,641202686,0,-0.3556625247001648,-0.5409232378005981,0,12.778151512145996
14051,536346111,641202686,0,-0.3555053174495697,-0.5413766503334045,0,12.777833938598633
14061,536346111,641202686,0,-0.35606586933135986,-0.540976881980896,0,12.778274536132812
14071,536346111,641202686,0,-0.3561592698097229,-0.5416567325592041,0,12.777945518493652
14081,536346111,641202686,0,-0.35660338401794434,-0.5409675240516663,0,12.777709007263184
14091,536346111,641202686,0,-0.3571680784225464,-0.5410233736038208,0,12.778131484985352
14101,536346111,641202686,0,-0.357815682888031,-0.5408074259757996,0,12.778348922729492
14111,536346111,641202686,0,-0.3584079146385193,-0.5400511026382446,0,12.778314590454102
14121,536346111,641202686,0,-0.35855501890182495,-0.5404822826385498,0,12.778923034667969
14131,536346111,641202686,0,-0.35859477519989014,-0.5407607555389404,0,12.779678344726562
14141,536346111,641202686,0,-0.3587484657764435,-0.5405802726745605,0,12.780218124389648
14151,536346111,641202686,0,-0.3598608076572418,-0.5400875210762024,0,12.780360221862793
14161,536346111,641202686,0,-0.3607211709022522,-0.5407592058181763,0,12.78016471862793
14171,536346111,641202686,0,-0.35998067259788513,-0.5405360460281372,0,12.778735160827637
14181,536346111,641202686,0,-0.3595128655433655,-0.5401549935340881,0,12.778818130493164
14191,536346111,641202686,0,-0.35899588465690613,-0.5402189493179321,0,12.779144287109375
14201,536346111,641202686,0,-0.3592049777507782,-0.5402637124061584,0,12.779610633850098
14211,536346111,641202686,0,-0.3584326505661011,-0.5406469106674194,0,12.778696060180664
14221,536346111,641202686,0,-0.35823968052864075,-0.5399389266967773,0,12.779008865356445
14231,536346111,641202686,0,-0.35782429575920105,-0.5403532981872559,0,12.779834747314453
14241,536346111,641202686,0,-0.3573884665966034,-0.5404837727546692,0,12.78029727935791
14251,536346111,641202686,0,-0.35673731565475464,-0.5405795574188232,0,12.7813720703125
14261,536346111,641202686,0,-0.35703185200691223,-0.5408961176872253,0,12.782029151916504
14271,536346111,641202686,0,-0.35698655247688293,-0.5412538647651672,0,12.782151222229004
14281,536346111,641202686,0,-0.3567586839199066,-0.5417049527168274,0,12.782629013061523
14291,536346111,641202686,0,-0.3575206995010376,-0.542217493057251,0,12.783246040344238
14301,536346111,641202686,0,-0.3574311137199402,-0.5419341325759888,0,12.78332805633545
14311,536346111,641202686,0,-0.356947660446167,-0.5428178310394287,0,12.784446716308594
14321,536346111,641202686,0,-0.35667118430137634,-0.5433001518249512,0,12.785177230834961
14331,536346111,641202686,0,-0.35699576139450073,-0.5440788269042969,0,12.78492259979248
14341,536346111,642251262,0,-0.3570733666419983,-0.5441337823867798,0,12.785087585449219
14351,536346111,641202686,0,-0.3571077883243561,-0.5439865589141846,0,12.785501480102539
14361,536346111,641202686,0,-0.3574542999267578,-0.5440983772277832,0,12.78520393371582
14371,536346111,641202686,0,-0.35822826623916626,-0.5441913604736328,0,12.785541534423828
14381,536346111,641202686,0,-0.35804682970046997,-0.5442483425140381,0,12.78548812866211
14391,536346111,641202686,0,-0.3582405745983124,-0.5445265769958496,0,12.78633975982666
14401,536346111,641202686,0,-0.3583937883377075,-0.544409453868866,0,12.786072731018066
14411,536346111,641202686,0,-0.35869404673576355,-0.5445490479469299,0,12.785589218139648
14421,536346111,641202686,0,-0.35929858684539795,-0.5441245436668396,0,12.785965919494629
14431,536346111,641202686,0,-0.35955026745796204,-0.5443423986434937,0,12.787199020385742
14441,536346111,641202686,0,-0.35940906405448914,-0.5439128875732422,0,12.788100242614746
14451,536346111,641202686,0,-0.36008918285369873,-0.5438371896743774,0,12.788305282592773
14461,536346111,641202686,0,-0.36007827520370483,-0.5443785786628723,0,12.788667678833008
14471,536346111,641202686,0,-0.36126774549484253,-0.5449698567390442,0,12.78851318359375
14481,536346111,641202686,0,-0.3612893223762512,-0.5450659990310669,0,12.788758277893066
14491,536346111,641202686,0,-0.36158907413482666,-0.5452224016189575,0,12.788365364074707
14501,536346111,641202686,0,-0.36118119955062866,-0.5451225638389587,0,12.788496971130371
14511,536346111,641202686,0,-0.36126744747161865,-0.5450334548950195,0,12.788713455200195
14521,536346111,641202686,0,-0.3615262806415558,-0.5453261137008667,0,12.7891845703125
14531,536346111,641202686,0,-0.36132916808128357,-0.5448353886604309,0,12.788593292236328
14541,536346111,641202686,0,-0.3610941767692566,-0.5452801585197449,0,12.788477897644043
14551,536346111,641202686,0,-0.3609982430934906,-0.5458863973617554,0,12.78769588470459
14561,536346111,641202686,0,-0.3605359196662903,-0.5465287566184998,0,12.786405563354492
14571,536346111,641202687,0,-0.3597969710826874,-0.5479102730751038,0,12.786420822143555
14581,536346111,641202686,0,-0.3603624403476715,-0.548072338104248,0,12.78593635559082
14591,536346111,641202686,0,-0.3605270981788635,-0.5488332509994507,0,12.78647518157959
14601,536346111,641202686,0,-0.3606387674808502,-0.5491951107978821,0,12.786291122436523
14611,536346111,641202686,0,-0.361172616481781,-0.5484057664871216,0,12.787115097045898
14621,536346111,641202686,0,-0.36136069893836975,-0.5485432147979736,0,12.786863327026367
14631,536346111,641202686,0,-0.36204832792282104,-0.5489203333854675,0,12.78649616241455
14641,536346111,641202686,0,-0.36205407977104187,-0.5491985082626343,0,12.786370277404785
14651,536346111,641202686,0,-0.36166366934776306,-0.5483956336975098,0,12.785414695739746
14661,536346111,641202687,0,-0.36143261194229126,-0.5489751100540161,0,12.785385131835938
14671,536346111,641202686,0,-0.3608727753162384,-0.5486686825752258,0,12.78545093536377
14681,536346111,641202686,0,-0.36088377237319946,-0.5484453439712524,0,12.785003662109375
14691,536346111,641202686,0,-0.3603867292404175,-0.5485674142837524,0,12.78458023071289
14701,536346111,641202686,0,-0.36003971099853516,-0.5494461059570312,0,12.784527778625488
14711,536346111,641202686,0,-0.3603613078594208,-0.5499190092086792,0,12.784345626831055
14721,536346111,641202686,0,-0.36050093173980713,-0.5506016612052917,0,12.78409481048584
14731,536346111,641202686,0,-0.3595300018787384,-0.551246702671051,0,12.785021781921387
14741,536346111,641202686,0,-0.35917308926582336,-0.5521562695503235,0,12.78528118133545
14751,536346111,641202686,0,-0.35868752002716064,-0.5523176789283752,0,12.784906387329102
14761,536346111,641202687,0,-0.3577464520931244,-0.5525463819503784,0,12.784625053405762
14771,536346111,641202686,0,-0.3576541543006897,-0.5530077219009399,0,12.785698890686035
14781,536346111,642251262,0,-0.3577745854854584,-0.5537907481193542,0,12.786230087280273
14791,536346111,641202686,0,-0.35741016268730164,-0.5533178448677063,0,12.785341262817383
14801,536346111,641202686,0,-0.35761237144470215,-0.552922785282135,0,12.785687446594238
14811,536346111,641202687,0,-0.3575081527233124,-0.5527793169021606,0,12.78564739227295
14821,536346111,641202687,0,-0.35673218965530396,-0.5524927973747253,0,12.78577995300293
14831,536346111,641202686,0,-0.3568829894065857,-0.5526703596115112,0,12.786099433898926
14841,536346111,641202686,0,-0.35754427313804626,-0.5524709820747375,0,12.78635025024414
14851,536346111,641202686,0,-0.3579152226448059,-0.5532426834106445,0,12.786371231079102
14861,536346111,641202686,0,-0.35818302631378174,-0.5539492964744568,0,12.786428451538086
14871,536346111,641202686,0,-0.3587374985218048,-0.5539556741714478,0,12.786894798278809
14881,536346111,641202686,0,-0.3590005338191986,-0.5536960363388062,0,12.78719711303711
14891,536346111,641202686,0,-0.35891222953796387,-0.5531402826309204,0,12.787576675415039
14901,536346111,641202686,0,-0.35873252153396606,-0.5535383820533752,0,12.788030624389648
14911,536346111,641202686,0,-0.35901331901550293,-0.5543777346611023,0,12.788970947265625
14921,536346111,641202686,0,-0.35900646448135376,-0.5545887351036072,0,12.788949012756348
14931,536346111,642251262,0,-0.35972464084625244,-0.5549354553222656,0,12.789088249206543
14941,536346111,641202686,0,-0.35969722270965576,-0.5550722479820251,0,12.789220809936523
14951,536346111,641202686,0,-0.3595236539840698,-0.5554248690605164,0,12.789637565612793
14961,536346111,641202686,0,-0.3598479628562927,-0.5558847784996033,0,12.790107727050781
14971,536346111,641202686,0,-0.3599936366081238,-0.5562107563018799,0,12.79128646850586
14981,536346111,641202686,0,-0.3595859706401825,-0.5563820600509644,0,12.791563034057617
14991,536346111,641202686,0,-0.35917943716049194,-0.5571310520172119,0,12.791428565979004
15001,536346111,641202686,0,-0.3595926761627197,-0.5574424862861633,0,12.790467262268066
15011,536346111,641202686,0,-0.3591250479221344,-0.5577751398086548,0,12.790125846862793
15021,536346111,641202686,0,-0.3597491681575775,-0.5578166246414185,0,12.789534568786621
15031,536346111,641202686,0,-0.3602609634399414,-0.5579361915588379,0,12.789082527160645
15041,536346111,641202686,0,-0.3600262403488159,-0.5587504506111145,0,12.788951873779297
15051,536346111,641202686,0,-0.3595927953720093,-0.5582464337348938,0,12.789153099060059
15061,536346111,641202686,0,-0.35967546701431274,-0.5582061409950256,0,12.789034843444824
15071,536346111,641202686,0,-0.35949721932411194,-0.5589582920074463,0,12.789681434631348
15081,536346111,641202686,0,-0.35957831144332886,-0.559971034526825,0,12.789998054504395
15091,536346111,641202686,0,-0.35913991928100586,-0.5601774454116821,0,12.789738655090332
15101,536346111,641202686,0,-0.35895758867263794,-0.5595993399620056,0,12.790839195251465
15111,536346111,641202686,0,-0.3593268394470215,-0.5603269934654236,0,12.790047645568848
15121,536346111,641202686,0,-0.3592071533203125,-0.560880184173584,0,12.790326118469238
15131,536346111,642251263,0,-0.3588818907737732,-0.5607796907424927,0,12.79041576385498
15141,536346111,641202686,0,-0.3587513267993927,-0.5609080791473389,0,12.790545463562012
15151,536346111,641202686,0,-0.3584982454776764,-0.5610729455947876,0,12.789348602294922
15161,536346111,641202686,0,-0.3579314947128296,-0.5610971450805664,0,12.78958797454834
15171,536346111,641202686,0,-0.358756422996521,-0.5608558654785156,0,12.78991413116455
15181,536346111,641202686,0,-0.3590141534805298,-0.561168909072876,0,12.789538383483887
15191,536346111,641202686,0,-0.3582455515861511,-0.5609628558158875,0,12.789588928222656
15201,536346111,641202686,0,-0.3587026000022888,-0.5606464743614197,0,12.789907455444336
15211,536346111,641202686,0,-0.358388215303421,-0.5600497722625732,0,12.789347648620605
15221,536346111,641202687,0,-0.3583129942417145,-0.5602405667304993,0,12.79056167602539
15231,536346111,641202686,0,-0.35897597670555115,-0.5598782300949097,0,12.790685653686523
15241,536346111,641202686,0,-0.3585512936115265,-0.560104489326477,0,12.790962219238281
15251,536346111,641202686,0,-0.35867276787757874,-0.5596282482147217,0,12.790785789489746
15261,536346111,641202686,0,-0.3589506447315216,-0.5600054860115051,0,12.791130065917969
15271,536346111,641202686,0,-0.3591330051422119,-0.5614205598831177,0,12.791705131530762
15281,536346111,641202686,0,-0.35885030031204224,-0.5622244477272034,0,12.791729927062988
15291,536346111,641202686,0,-0.3590058386325836,-0.5628693699836731,0,12.792664527893066
15301,536346111,641202686,0,-0.3590538203716278,-0.5632261633872986,0,12.79316520690918
15311,536346111,641202686,0,-0.3591567873954773,-0.5638997554779053,0,12.793680191040039
15321,536346111,641202686,0,-0.35914933681488037,-0.5637270212173462,0,12.79317569732666
15331,536346111,641202687,0,-0.358278751373291,-0.5621736645698547,0,12.793726921081543
15341,536346111,641202686,0,-0.35893842577934265,-0.5616896152496338,0,12.794329643249512
15351,536346111,641202687,0,-0.3587324619293213,-0.5615970492362976,0,12.794535636901855
15361,535297535,641202686,0,-0.35807400941848755,-0.5616214871406555,0,12.794153213500977
15371,536346111,641202686,0,-0.3572651147842407,-0.5617182850837708,0,12.793063163757324
15381,536346111,641202686,0,-0.3575347661972046,-0.5620990991592407,0,12.792539596557617
15391,536346111,641202687,0,-0.3567906618118286,-0.5621930956840515,0,12.792325019836426
15401,536346111,641202686,0,-0.3562498390674591,-0.5627361536026001,0,12.792539596557617
15411,536346111,641202686,0,-0.35671859979629517,-0.5632847547531128,0,12.792255401611328
15421,536346111,641202686,0,-0.3565036356449127,-0.5636366605758667,0,12.793037414550781
15431,536346111,641202686,0,-0.35640814900398254,-0.5650074481964111,0,12.793028831481934
15441,536346111,641202686,0,-0.3571690618991852,-0.5651005506515503,0,12.793351173400879
15451,536346111,641202686,0,-0.35812830924987793,-0.565686821937561,0,12.794024467468262
15461,536346111,641202686,0,-0.3587211072444916,-0.5659093856811523,0,12.793431282043457
15471,536346111,641202686,0,-0.35860931873321533,-0.5656154751777649,0,12.793253898620605
15481,536346111,641202686,0,-0.358611136674881,-0.5655482411384583,0,12.793740272521973
15491,536346111,641202686,0,-0.3589611053466797,-0.5663788318634033,0,12.793594360351562
15501,536346111,641202686,0,-0.3593284487724304,-0.5663678646087646,0,12.792874336242676
15511,536346111,641202687,0,-0.3593166172504425,-0.5657625198364258,0,12.792076110839844
15521,536346111,641202686,0,-0.35936295986175537,-0.5650092959403992,0,12.792243003845215
15531,536346111,641202686,0,-0.3596345782279968,-0.5653904676437378,0,12.79234790802002
15541,536346111,641202686,0,-0.35953211784362793,-0.5660567879676819,0,12.792462348937988
15551,536346111,641202686,0,-0.35926705598831177,-0.5671343207359314,0,12.792960166931152
15561,536346111,641202686,0,-0.359049528837204,-0.5677273273468018,0,12.793222427368164
15571,536346111,641202686,0,-0.3588449954986572,-0.5674926042556763,0,12.793285369873047
15581,536346111,641202686,0,-0.3588181734085083,-0.5684256553649902,0,12.793798446655273
15591,536346111,642251262,0,-0.3590448200702667,-0.5687945485115051,0,12.794191360473633
15601,536346111,641202686,0,-0.3590209484100342,-0.5688738226890564,0,12.794173240661621
15611,536346111,641202686,0,-0.3585209846496582,-0.5696023106575012,0,12.793680191040039
15621,536346111,641202686,0,-0.35873329639434814,-0.5698472261428833,0,12.793702125549316
15631,536346111,641202686,0,-0.35999441146850586,-0.5702176690101624,0,12.794069290161133
15641,536346111,641202686,0,-0.36030635237693787,-0.5701491236686707,0,12.793508529663086
15651,536346111,641202686,0,-0.36096620559692383,-0.5706117153167725,0,12.794245719909668
15661,536346111,641202686,0,-0.3612128496170044,-0.5711900591850281,0,12.79469108581543
15671,536346111,641202686,0,-0.36052465438842773,-0.5709336400032043,0,12.79507827758789
15681,536346111,641202687,0,-0.3611149489879608,-0.5709763765335083,0,12.795389175415039
15691,535297535,641202686,0,-0.36209335923194885,-0.5704284906387329,0,12.793606758117676
15701,536346111,641202686,0,-0.36251020431518555,-0.5708522200584412,0,12.792993545532227
15711,536346111,641202686,0,-0.3628823161125183,-0.5689241290092468,0,12.792717933654785
15721,536346111,641202686,0,-0.36317178606987,-0.5689634084701538,0,12.793347358703613
15731,535297535,641202686,0,-0.36310943961143494,-0.5678194761276245,0,12.792991638183594
15741,536346111,641202686,0,-0.3624059557914734,-0.5674026012420654,0,12.792655944824219
15751,536346111,641202686,0,-0.36162295937538147,-0.5691828727722168,0,12.79313850402832
15761,536346111,641202686,0,-0.3614388406276703,-0.5691605806350708,0,12.793232917785645
15771,535297535,641202686,0,-0.3617195188999176,-0.5694243311882019,0,12.792819023132324
15781,536346111,641202686,0,-0.36228370666503906,-0.5694008469581604,0,12.791900634765625
15791,535297535,641202686,0,-0.36271435022354126,-0.5694898962974548,0,12.790584564208984
15801,536346111,641202687,0,-0.36250969767570496,-0.5697939991950989,0,12.790379524230957
15811,536346111,641202686,0,-0.3625212013721466,-0.5706305503845215,0,12.79072093963623
15821,536346111,641202686,0,-0.36198338866233826,-0.570248544216156,0,12.790507316589355
15831,536346111,641202686,0,-0.3619512617588043,-0.5706263184547424,0,12.789350509643555
15841,536346111,641202686,0,-0.3619077801704407,-0.570183515548706,0,12.789015769958496
15851,536346111,641202686,0,-0.3620459735393524,-0.5702622532844543,0,12.788298606872559
15861,536346111,641202686,0,-0.36232730746269226,-0.570742130279541,0,12.788274765014648
15871,536346111,642251262,0,-0.36174023151397705,-0.5710044503211975,0,12.787959098815918
15881,536346111,641202686,0,-0.3617806136608124,-0.5709080100059509,0,12.788063049316406
15891,536346111,641202686,0,-0.36261630058288574,-0.5706437230110168,0,12.787149429321289
15901,536346111,641202686,0,-0.36312708258628845,-0.5705295205116272,0,12.786260604858398
15911,536346111,641202686,0,-0.3631260097026825,-0.570717990398407,0,12.786030769348145
15921,536346111,641202686,0,-0.36308810114860535,-0.5708605647087097,0,12.786651611328125
15931,536346111,642251263,0,-0.3623173236846924,-0.5710468888282776,0,12.787317276000977
15941,536346111,641202686,0,-0.36246758699417114,-0.5715746283531189,0,12.786803245544434
15951,536346111,641202686,0,-0.36295825242996216,-0.5723268389701843,0,12.786971092224121
15961,536346111,641202686,0,-0.36301395297050476,-0.572863757610321,0,12.786392211914062
15971,536346111,641202686,0,-0.36287468671798706,-0.5725277066230774,0,12.78729248046875
15981,536346111,641202686,0,-0.36356469988822937,-0.5733731389045715,0,12.787070274353027
15991,536346111,641202686,0,-0.3624100983142853,-0.5727046132087708,0,12.788056373596191
16001,536346111,641202686,0,-0.3618393540382385,-0.5721020698547363,0,12.788558959960938
16011,536346111,641202686,0,-0.36178672313690186,-0.5719450116157532,0,12.788250923156738
16021,536346111,641202686,0,-0.3623228967189789,-0.5711279511451721,0,12.788309097290039
16031,536346111,641202686,0,-0.36187127232551575,-0.5714295506477356,0,12.78826904296875
16041,536346111,641202686,0,-0.3616654872894287,-0.5714357495307922,0,12.788579940795898
16051,536346111,641202686,0,-0.36202362179756165,-0.5719910264015198,0,12.789229393005371
16061,536346111,641202686,0,-0.3619828224182129,-0.5726940631866455,0,12.789491653442383
16071,536346111,641202686,0,-0.36289021372795105,-0.572504460811615,0,12.789077758789062
16081,536346111,641202686,0,-0.36246219277381897,-0.572047770023346,0,12.788938522338867
16091,536346111,641202686,0,-0.3623024821281433,-0.5723418593406677,0,12.78933048248291
16101,536346111,641202686,0,-0.3624784052371979,-0.5721240043640137,0,12.7898588180542
16111,536346111,641202686,0,-0.36243271827697754,-0.5716642141342163,0,12.789252281188965
16121,536346111,641202686,0,-0.36241722106933594,-0.5715571641921997,0,12.7893705368042
16131,536346111,641202686,0,-0.362665057182312,-0.5716660618782043,0,12.79021167755127
16141,536346111,641202686,0,-0.3633519113063812,-0.5709827542304993,0,12.790285110473633
16151,536346111,641202686,0,-0.3630515933036804,-0.5708704590797424,0,12.7896728515625
16161,536346111,641202686,0,-0.3623400330543518,-0.5710066556930542,0,12.789292335510254
16171,536346111,642251262,0,-0.3630305528640747,-0.5703850388526917,0,12.788738250732422
16181,536346111,642251262,0,-0.36367103457450867,-0.570393443107605,0,12.789348602294922
16191,536346111,641202686,0,-0.36406952142715454,-0.5715019702911377,0,12.789356231689453
16201,536346111,641202686,0,-0.3638592064380646,-0.5717504024505615,0,12.789468765258789
16211,536346111,641202686,0,-0.3637339472770691,-0.5714755058288574,0,12.788764953613281
16221,535297535,641202686,0,-0.3628808856010437,-0.5711201429367065,0,12.787867546081543
16231,536346111,641202686,0,-0.3627055883407593,-0.5700968503952026,0,12.786690711975098
16241,536346111,641202686,0,-0.3627358078956604,-0.5704512596130371,0,12.78662395477295
16251,536346111,641202686,0,-0.36202847957611084,-0.5704430341720581,0,12.786539077758789
16261,536346111,641202686,0,-0.36232203245162964,-0.5700273513793945,0,12.786739349365234
16271,536346111,641202686,0,-0.36299416422843933,-0.5703719854354858,0,12.787322044372559
16281,536346111,641202686,0,-0.36303824186325073,-0.5699409246444702,0,12.786421775817871
16291,536346111,641202686,0,-0.3631381094455719,-0.5694970488548279,0,12.786417007446289
16301,536346111,641202686,0,-0.36299917101860046,-0.5693084597587585,0,12.78670883178711
16311,536346111,641202686,0,-0.3637857437133789,-0.5693122744560242,0,12.787130355834961
16321,536346111,641202686,0,-0.3642622232437134,-0.5684852004051208,0,12.787063598632812
16331,536346111,641202686,0,-0.364688903093338,-0.5691283941268921,0,12.78751277923584
16341,536346111,641202686,0,-0.3648613691329956,-0.5692869424819946,0,12.786599159240723
16351,536346111,641202686,0,-0.36568546295166016,-0.5692238807678223,0,12.78593921661377
16361,536346111,641202686,0,-0.3658166825771332,-0.5692920088768005,0,12.78573226928711
16371,536346110,641202686,0,-0.36573877930641174,-0.570289671421051,0,12.784614562988281
16381,536346111,641202686,0,-0.36572301387786865,-0.5706530213356018,0,12.783833503723145
16391,536346111,641202686,0,-0.3657183349132538,-0.5711627006530762,0,12.783246994018555
16401,536346111,641202686,0,-0.3661608099937439,-0.5715895295143127,0,12.783233642578125
16411,536346111,641202686,0,-0.36625492572784424,-0.5707058906555176,0,12.784127235412598
16421,536346111,641202686,0,-0.3659798800945282,-0.570948600769043,0,12.784096717834473
16431,536346111,641202686,0,-0.3654363453388214,-0.5700404644012451,0,12.78394889831543
16441,536346111,641202686,0,-0.36529967188835144,-0.570335328578949,0,12.783867835998535
16451,536346111,641202686,0,-0.3651371896266937,-0.5707803964614868,0,12.784164428710938
16461,536346111,641202686,0,-0.3648242652416229,-0.5707280039787292,0,12.784754753112793
16471,536346111,641202686,0,-0.36540019512176514,-0.5695681571960449,0,12.785527229309082
16481,536346111,641202686,0,-0.36560434103012085,-0.5692169070243835,0,12.785189628601074
16491,536346111,641202687,0,-0.36563920974731445,-0.5682389140129089,0,12.785083770751953
16501,536346111,641202686,0,-0.36568278074264526,-0.568615734577179,0,12.785109519958496
16511,536346111,641202686,0,-0.3654271364212036,-0.5687730312347412,0,12.78520393371582
16521,536346111,641202686,0,-0.36477234959602356,-0.568289041519165,0,12.785945892333984
16531,536346111,641202686,0,-0.3644571006298065,-0.5676758885383606,0,12.785407066345215
16541,536346111,641202686,0,-0.3639141023159027,-0.5676547288894653,0,12.786030769348145
16551,536346111,641202686,0,-0.36379122734069824,-0.5669641494750977,0,12.786236763000488
16561,536346111,641202686,0,-0.36408334970474243,-0.5664941668510437,0,12.786270141601562
16571,536346111,641202686,0,-0.3640596270561218,-0.5653517246246338,0,12.785750389099121
16581,536346111,641202686,0,-0.36395081877708435,-0.564975380897522,0,12.78642463684082
16591,536346111,641202686,0,-0.36514705419540405,-0.5645800232887268,0,12.786734580993652
16601,536346111,641202686,0,-0.3659919500350952,-0.5643386244773865,0,12.787544250488281
16611,536346111,641202686,0,-0.3652196228504181,-0.5631567239761353,0,12.788352012634277
16621,536346111,641202687,0,-0.3644377887248993,-0.5622161626815796,0,12.788485527038574
16631,536346111,641202686,0,-0.3638797104358673,-0.5634621381759644,0,12.788300514221191
16641,536346111,641202686,0,-0.3638252317905426,-0.5646699070930481,0,12.788189888000488
16651,536346111,641202686,0,-0.36415138840675354,-0.5650084018707275,0,12.788341522216797
16661,536346111,641202686,0,-0.36420243978500366,-0.564885675907135,0,12.787774085998535
16671,536346111,641202686,0,-0.3643043339252472,-0.5653114914894104,0,12.787800788879395
16681,536346111,641202687,0,-0.3633747398853302,-0.5658530592918396,0,12.787739753723145
16691,536346111,641202686,0,-0.36295339465141296,-0.5656590461730957,0,12.787740707397461
16701,536346111,641202686,0,-0.36346545815467834,-0.5662639141082764,0,12.78772258758545
16711,536346111,641202686,0,-0.36374109983444214,-0.5670372843742371,0,12.787429809570312
16721,536346111,641202686,0,-0.3644510805606842,-0.5668859481811523,0,12.786739349365234
16731,536346111,641202686,0,-0.3653315305709839,-0.5663163065910339,0,12.786049842834473
16741,535297535,641202686,0,-0.3655892312526703,-0.5647860765457153,0,12.785367012023926
16751,536346111,641202686,0,-0.36511456966400146,-0.564231276512146,0,12.784272193908691
16761,536346111,641202686,0,-0.3649232089519501,-0.5643545985221863,0,12.784355163574219
16771,536346111,642251262,0,-0.3658464252948761,-0.5640429854393005,0,12.783733367919922
16781,536346111,641202686,0,-0.3659329116344452,-0.5639433860778809,0,12.78330135345459
16791,536346111,641202686,0,-0.3663250505924225,-0.5648517608642578,0,12.783086776733398
16801,536346111,641202686,0,-0.3666301965713501,-0.5651780366897583,0,12.782415390014648
16811,536346111,641202686,0,-0.3663904368877411,-0.565250039100647,0,12.783080101013184
16821,536346111,642251262,0,-0.3666418194770813,-0.5648361444473267,0,12.783801078796387
16831,536346111,641202686,0,-0.3668544590473175,-0.5642157793045044,0,12.783344268798828
16841,536346111,641202686,0,-0.36579546332359314,-0.5640753507614136,0,12.783535957336426
16851,536346111,641202686,0,-0.36556902527809143,-0.5634356737136841,0,12.784796714782715
16861,536346111,641202686,0,-0.36535215377807617,-0.5635823607444763,0,12.784859657287598
16871,536346111,641202686,0,-0.3649055063724518,-0.5632643699645996,0,12.785277366638184
16881,536346111,641202687,0,-0.36450833082199097,-0.5628283023834229,0,12.784758567810059
16891,536346111,641202686,0,-0.364351749420166,-0.5627785325050354,0,12.78540325164795
16901,536346111,641202686,0,-0.3637062609195709,-0.5625207424163818,0,12.785125732421875
16911,536346111,641202686,0,-0.36384689807891846,-0.5617650747299194,0,12.78559398651123
16921,536346111,641202686,0,-0.36373260617256165,-0.5615667700767517,0,12.785372734069824
16931,536346111,641202686,0,-0.3638121783733368,-0.5622074007987976,0,12.785439491271973
16941,536346111,641202686,0,-0.364519327878952,-0.5627993941307068,0,12.785426139831543
16951,536346111,641202686,0,-0.36485111713409424,-0.5630537867546082,0,12.784914016723633
16961,536346111,641202686,0,-0.3645781874656677,-0.5633744597434998,0,12.784971237182617
16971,536346111,641202686,0,-0.3638768792152405,-0.5631670951843262,0,12.785202980041504
16981,536346111,641202686,0,-0.36421042680740356,-0.5627357363700867,0,12.784941673278809
16991,536346111,641202686,0,-0.3640214502811432,-0.5614974498748779,0,12.785444259643555
17001,536346111,641202686,0,-0.3642776310443878,-0.5603575110435486,0,12.785738945007324
17011,536346111,641202686,0,-0.36364471912384033,-0.5597118139266968,0,12.785632133483887
17021,536346111,641202686,0,-0.36352384090423584,-0.5598973631858826,0,12.78506851196289
17031,536346111,641202686,0,-0.3636692464351654,-0.5594465732574463,0,12.783646583557129
17041,536346111,641202686,0,-0.363416850566864,-0.5594845414161682,0,12.78329086303711
17051,536346111,641202686,0,-0.3646421730518341,-0.5598087906837463,0,12.784099578857422
17061,536346111,641202686,0,-0.36457958817481995,-0.5598700642585754,0,12.783992767333984
17071,536346111,641202686,0,-0.36465251445770264,-0.5600184798240662,0,12.78385066986084
17081,536346111,641202686,0,-0.364753782749176,-0.5605250000953674,0,12.782630920410156
17091,536346111,641202686,0,-0.36580565571784973,-0.5620359182357788,0,12.782700538635254
17101,536346111,641202686,0,-0.3661031723022461,-0.563197672367096,0,12.782748222351074
17111,536346111,641202686,0,-0.36578282713890076,-0.5633847117424011,0,12.782553672790527
17121,536346111,641202687,0,-0.3655552864074707,-0.5642780065536499,0,12.7827730178833
17131,536346111,641202687,0,-0.36442020535469055,-0.5644236207008362,0,12.782905578613281
17141,536346111,641202687,0,-0.36365577578544617,-0.5644199252128601,0,12.78299331665039
17151,536346111,641202686,0,-0.36319610476493835,-0.5645764470100403,0,12.783926963806152
17161,536346111,641202686,0,-0.3632458448410034,-0.5641964673995972,0,12.784345626831055
17171,536346111,641202686,0,-0.3632604479789734,-0.5644341707229614,0,12.784021377563477
17181,536346110,641202686,0,-0.3623919188976288,-0.5653771758079529,0,12.78425121307373
17191,536346111,641202686,0,-0.36232104897499084,-0.5656566023826599,0,12.784981727600098
17201,536346111,641202686,0,-0.3617299199104309,-0.5655219554901123,0,12.785238265991211
17211,536346111,641202687,0,-0.3610222637653351,-0.5665514469146729,0,12.785128593444824
17221,536346111,641202686,0,-0.3602241277694702,-0.5678654909133911,0,12.785605430603027
17231,536346111,641202686,0,-0.35966527462005615,-0.5683014392852783,0,12.785625457763672
17241,536346111,641202686,0,-0.3601175844669342,-0.5683009028434753,0,12.785313606262207
17251,536346111,641202686,0,-0.3603452742099762,-0.568300724029541,0,12.784562110900879
17261,536346111,641202686,0,-0.3605108857154846,-0.5687271356582642,0,12.784014701843262
17271,536346111,641202686,0,-0.3609733283519745,-0.5686585307121277,0,12.783232688903809
17281,536346111,641202686,0,-0.36049744486808777,-0.5682796835899353,0,12.782670021057129
17291,536346111,641202686,0,-0.3601595461368561,-0.5682007670402527,0,12.782100677490234
17301,536346111,641202686,0,-0.3597673177719116,-0.5680304169654846,0,12.782259941101074
17311,536346111,641202686,0,-0.36024010181427,-0.5685228705406189,0,12.783075332641602
17321,536346111,641202686,0,-0.3602456748485565,-0.568274736404419,0,12.782759666442871
17331,536346111,641202686,0,-0.36075490713119507,-0.5680087208747864,0,12.78264331817627
17341,536346111,641202687,0,-0.36048588156700134,-0.5676154494285583,0,12.782259941101074
17351,536346111,641202686,0,-0.3604443669319153,-0.566526472568512,0,12.782759666442871
17361,536346111,641202686,0,-0.3602249026298523,-0.5654449462890625,0,12.783195495605469
17371,536346111,641202686,0,-0.36037230491638184,-0.5664187669754028,0,12.783814430236816
17381,536346111,641202686,0,-0.3606667220592499,-0.5670694708824158,0,12.78386116027832
17391,536346111,641202687,0,-0.361500084400177,-0.5668871402740479,0,12.783612251281738
17401,536346111,641202686,0,-0.3615280091762543,-0.5670077204704285,0,12.783661842346191
17411,536346111,641202686,0,-0.36259421706199646,-0.5674283504486084,0,12.783665657043457
17421,535297535,641202686,0,-0.362777441740036,-0.5680463314056396,0,12.783222198486328
17431,536346111,641202686,0,-0.3623296916484833,-0.5680312514305115,0,12.782710075378418
17441,536346111,641202686,0,-0.36222583055496216,-0.567947506904602,0,12.781835556030273
17451,536346111,641202687,0,-0.3617634177207947,-0.5683203935623169,0,12.781366348266602
17461,536346111,641202686,0,-0.3618011772632599,-0.5680001974105835,0,12.781123161315918
17471,536346111,641202686,0,-0.3625253438949585,-0.5673903822898865,0,12.780739784240723
17481,536346111,641202686,0,-0.36255860328674316,-0.5682548880577087,0,12.780389785766602
17491,536346111,641202686,0,-0.3619794547557831,-0.5689107775688171,0,12.781826972961426
17501,536346111,641202686,0,-0.3622564375400543,-0.5685542225837708,0,12.781859397888184
17511,536346111,641202686,0,-0.36260122060775757,-0.5677347779273987,0,12.781421661376953
17521,536346111,641202686,0,-0.362569123506546,-0.5674018263816833,0,12.780592918395996
17531,536346111,641202686,0,-0.3627950847148895,-0.567331075668335,0,12.780055046081543
17541,536346111,642251262,0,-0.3627396523952484,-0.5676721334457397,0,12.779719352722168
17551,536346111,641202686,0,-0.36175280809402466,-0.5684037208557129,0,12.778980255126953
17561,536346111,641202686,0,-0.3617114722728729,-0.568265974521637,0,12.778336524963379
17571,536346111,641202686,0,-0.36207249760627747,-0.568384051322937,0,12.778034210205078
17581,536346111,641202686,0,-0.36264991760253906,-0.5673376321792603,0,12.777458190917969
17591,536346111,641202686,0,-0.36322274804115295,-0.5660557150840759,0,12.777803421020508
17601,536346111,641202686,0,-0.3634021282196045,-0.5661818385124207,0,12.777709007263184
17611,536346111,641202686,0,-0.36357104778289795,-0.566225528717041,0,12.77739429473877
17621,536346111,641202686,0,-0.36363956332206726,-0.5674117803573608,0,12.777799606323242
17631,536346111,641202686,0,-0.3636668920516968,-0.5675864219665527,0,12.778008460998535
17641,536346111,641202686,0,-0.36346349120140076,-0.5670731663703918,0,12.77820873260498
17651,536346111,641202686,0,-0.3639433681964874,-0.5668133497238159,0,12.777142524719238
17661,536346111,641202686,0,-0.3639364540576935,-0.5656006932258606,0,12.777092933654785
17671,536346111,641202686,0,-0.36423352360725403,-0.5645681023597717,0,12.777060508728027
17681,536346111,641202686,0,-0.3641520142555237,-0.5637460350990295,0,12.777151107788086
17691,536346111,641202686,0,-0.36431002616882324,-0.5629929900169373,0,12.776440620422363
17701,536346111,641202686,0,-0.3647893965244293,-0.5638632774353027,0,12.776291847229004
17711,536346111,641202686,0,-0.36438146233558655,-0.5632845163345337,0,12.776296615600586
17721,536346111,641202686,0,-0.36496496200561523,-0.5633059144020081,0,12.776651382446289
17731,536346111,641202686,0,-0.3652896583080292,-0.5629186630249023,0,12.775707244873047
17741,536346111,641202686,0,-0.36489957571029663,-0.5625887513160706,0,12.776280403137207
17751,536346111,641202686,0,-0.36501288414001465,-0.5628482699394226,0,12.777251243591309
17761,536346111,641202686,0,-0.36541101336479187,-0.5625783801078796,0,12.777056694030762
17771,536346111,641202686,0,-0.3651657700538635,-0.5630812048912048,0,12.776169776916504
17781,536346111,641202686,0,-0.3652479946613312,-0.5630775094032288,0,12.776571273803711
17791,536346111,641202686,0,-0.36575552821159363,-0.5634658932685852,0,12.776080131530762
17801,536346111,641202686,0,-0.365662544965744,-0.5640268921852112,0,12.776658058166504
17811,536346111,641202686,0,-0.36531946063041687,-0.5640895366668701,0,12.77682876586914
17821,536346111,641202686,0,-0.36505061388015747,-0.5635203123092651,0,12.776127815246582
17831,536346111,642251262,0,-0.36384519934654236,-0.5631837844848633,0,12.77600383758545
17841,536346111,641202686,0,-0.3640311360359192,-0.5627775192260742,0,12.775399208068848
17851,536346111,641202686,0,-0.3637790381908417,-0.5631493926048279,0,12.775857925415039
17861,536346111,641202686,0,-0.36394160985946655,-0.5635602474212646,0,12.77468490600586
17871,536346110,641202686,0,-0.364122599363327,-0.5646181106567383,0,12.77386474609375
17881,536346111,641202686,0,-0.3641113340854645,-0.5648849010467529,0,12.77401351928711
17891,536346111,641202687,0,-0.3631224036216736,-0.5646241307258606,0,12.775094032287598
17901,536346111,641202687,0,-0.36251387000083923,-0.5651695132255554,0,12.774861335754395
17911,536346111,641202687,0,-0.36234286427497864,-0.565499484539032,0,12.77391529083252
17921,536346111,641202686,0,-0.3626839518547058,-0.5650192499160767,0,12.77419376373291
17931,536346111,641202686,0,-0.36265039443969727,-0.5658387541770935,0,12.774023056030273
17941,536346111,641202686,0,-0.36365288496017456,-0.5655296444892883,0,12.774701118469238
17951,536346111,641202686,0,-0.363214373588562,-0.5664023756980896,0,12.774147033691406
17961,536346111,641202686,0,-0.363229900598526,-0.5662841200828552,0,12.775142669677734
17971,536346111,641202686,0,-0.36404183506965637,-0.5669437646865845,0,12.774883270263672
17981,536346111,641202686,0,-0.3638467490673065,-0.5665968656539917,0,12.77503776550293
17991,536346111,641202686,0,-0.3639734387397766,-0.5660524964332581,0,12.775932312011719
18001,536346111,641202686,0,-0.36405640840530396,-0.5666241645812988,0,12.776418685913086
18011,536346111,641202686,0,-0.3637698292732239,-0.5671916007995605,0,12.775262832641602
18021,536346111,641202686,0,-0.36441946029663086,-0.5675309300422668,0,12.775031089782715
18031,536346111,641202686,0,-0.36533671617507935,-0.567650556564331,0,12.775799751281738
18041,536346111,641202686,0,-0.36560338735580444,-0.5674827694892883,0,12.775843620300293
18051,536346111,641202686,0,-0.3666479289531708,-0.5671694278717041,0,12.775291442871094
18061,536346111,641202686,0,-0.3667092025279999,-0.5668572783470154,0,12.775461196899414
18071,536346111,641202686,0,-0.366250604391098,-0.5673069953918457,0,12.774422645568848
18081,536346111,641202686,0,-0.36597245931625366,-0.5672929286956787,0,12.774358749389648
18091,536346111,641202686,0,-0.3662220537662506,-0.567863941192627,0,12.775435447692871
18101,536346111,641202686,0,-0.3659623861312866,-0.5669772624969482,0,12.775471687316895
18111,536346111,641202686,0,-0.3663240075111389,-0.5672774910926819,0,12.775588989257812
18121,536346111,641202686,0,-0.366441011428833,-0.5676506757736206,0,12.774834632873535
18131,536346111,641202686,0,-0.36763232946395874,-0.567714512348175,0,12.774598121643066
18141,536346111,641202686,0,-0.36740508675575256,-0.5671557784080505,0,12.774185180664062
18151,536346111,641202686,0,-0.3657703697681427,-0.5661336183547974,0,12.774102210998535
18161,536346111,641202686,0,-0.36487090587615967,-0.56617271900177,0,12.773826599121094
18171,536346111,641202686,0,-0.3645003139972687,-0.5666964650154114,0,12.774022102355957
18181,536346111,641202686,0,-0.36486756801605225,-0.5669235587120056,0,12.773700714111328
18191,536346111,641202686,0,-0.3652433454990387,-0.5669034719467163,0,12.772151947021484
18201,536346111,641202687,0,-0.3652423322200775,-0.5670443773269653,0,12.772506713867188
18211,536346111,641202686,0,-0.365069717168808,-0.5674871802330017,0,12.77280330657959
18221,536346111,641202686,0,-0.3646571636199951,-0.5678596496582031,0,12.772817611694336
18231,536346111,641202686,0,-0.3652004897594452,-0.5678288340568542,0,12.77294635772705
18241,536346111,641202686,0,-0.3653232157230377,-0.5674842596054077,0,12.772954940795898
18251,536346111,641202687,0,-0.3642042577266693,-0.5679802894592285,0,12.772869110107422
18261,535297535,641202687,0,-0.3632256090641022,-0.5687341094017029,0,12.77182674407959
18271,536346111,641202686,0,-0.36316978931427,-0.5688568949699402,0,12.770480155944824
18281,536346111,641202686,0,-0.36336222290992737,-0.5693895816802979,0,12.770121574401855
18291,536346111,641202686,0,-0.3640040457248688,-0.5688838362693787,0,12.76965618133545
18301,536346111,641202686,0,-0.36398762464523315,-0.56902676820755,0,12.77028751373291
18311,536346111,641202686,0,-0.36329177021980286,-0.5680749416351318,0,12.770249366760254
18321,536346111,641202686,0,-0.36368274688720703,-0.5677564144134521,0,12.77005672454834
18331,536346111,641202686,0,-0.36314716935157776,-0.5671447515487671,0,12.770934104919434
18341,536346111,641202686,0,-0.36310213804244995,-0.5671678781509399,0,12.7706937789917
18351,536346111,641202686,0,-0.3638666272163391,-0.5663727521896362,0,12.771321296691895
18361,536346111,641202686,0,-0.362985759973526,-0.5655868649482727,0,12.77054214477539
18371,536346111,641202686,0,-0.36293327808380127,-0.5652395486831665,0,12.771355628967285
18381,536346111,641202686,0,-0.3631591498851776,-0.5648477673530579,0,12.771599769592285
18391,536346111,641202686,0,-0.3632853925228119,-0.5646103620529175,0,12.772065162658691
18401,536346111,641202686,0,-0.3628886342048645,-0.563704252243042,0,12.772405624389648
18411,536346111,641202686,0,-0.3634067177772522,-0.5635725259780884,0,12.772216796875
18421,536346111,641202686,0,-0.3631395995616913,-0.563554048538208,0,12.772658348083496
18431,536346111,641202686,0,-0.36386170983314514,-0.5643503069877625,0,12.77342700958252
18441,536346110,641202686,0,-0.36411038041114807,-0.5644015669822693,0,12.773785591125488
18451,536346111,641202686,0,-0.36406370997428894,-0.565716564655304,0,12.774261474609375
18461,536346111,641202686,0,-0.3633531630039215,-0.565092146396637,0,12.774043083190918
18471,536346111,641202686,0,-0.36247846484184265,-0.5647616982460022,0,12.774333000183105
18481,536346111,641202686,0,-0.3632826805114746,-0.56442791223526,0,12.7741060256958
18491,536346111,641202686,0,-0.36418259143829346,-0.5637802481651306,0,12.774033546447754
18501,536346111,641202686,0,-0.36403441429138184,-0.5631871223449707,0,12.773826599121094
18511,536346111,641202687,0,-0.36363399028778076,-0.5635700821876526,0,12.773710250854492
18521,536346111,641202686,0,-0.3637756407260895,-0.5630239844322205,0,12.773906707763672
18531,536346111,641202686,0,-0.362729549407959,-0.5633165836334229,0,12.774869918823242
18541,536346111,641202686,0,-0.3623839020729065,-0.5632940530776978,0,12.775607109069824
18551,536346111,641202686,0,-0.36221054196357727,-0.5630428194999695,0,12.775887489318848
18561,536346111,641202686,0,-0.36218878626823425,-0.5625802874565125,0,12.776230812072754
18571,536346111,641202686,0,-0.3613753616809845,-0.5630581974983215,0,12.775993347167969
18581,536346111,641202686,0,-0.3618106245994568,-0.5625587105751038,0,12.775866508483887
18591,536346111,641202686,0,-0.36251917481422424,-0.5627400875091553,0,12.775647163391113
18601,536346111,641202686,0,-0.3622809946537018,-0.5628147721290588,0,12.77509593963623
18611,536346111,641202686,0,-0.3625606298446655,-0.5631690621376038,0,12.77561092376709
18621,536346111,641202686,0,-0.36231252551078796,-0.563084602355957,0,12.775629997253418
18631,536346111,641202686,0,-0.3626538813114166,-0.563198447227478,0,12.775972366333008
18641,536346111,641202686,0,-0.36300432682037354,-0.5629805326461792,0,12.776211738586426
18651,536346111,641202686,0,-0.36256301403045654,-0.562313973903656,0,12.77628231048584
18661,536346111,641202686,0,-0.3627237379550934,-0.5632314682006836,0,12.776793479919434
18671,536346111,641202686,0,-0.3624488115310669,-0.5644621253013611,0,12.776984214782715
18681,536346111,641202686,0,-0.3623974621295929,-0.564190685749054,0,12.777128219604492
18691,536346111,641202686,0,-0.3626733720302582,-0.5628846883773804,0,12.77607536315918
18701,536346111,641202686,0,-0.36272892355918884,-0.5631417632102966,0,12.774871826171875
18711,536346111,641202686,0,-0.3631657660007477,-0.5639886260032654,0,12.773423194885254
18721,536346111,641202686,0,-0.36270177364349365,-0.5637555122375488,0,12.772528648376465
18731,536346111,641202686,0,-0.36207735538482666,-0.564113438129425,0,12.773845672607422
18741,536346111,641202686,0,-0.36209601163864136,-0.5648894309997559,0,12.774270057678223
18751,536346111,641202686,0,-0.3628586232662201,-0.5650758147239685,0,12.774456977844238
18761,536346111,641202686,0,-0.36273935437202454,-0.5649973154067993,0,12.775270462036133
18771,536346111,641202686,0,-0.3632555305957794,-0.5657024383544922,0,12.77584457397461
18781,536346111,641202686,0,-0.36387699842453003,-0.5659170150756836,0,12.775877952575684
18791,536346111,641202686,0,-0.3648577332496643,-0.565885603427887,0,12.776788711547852
18801,536346111,641202686,0,-0.36615467071533203,-0.5658605098724365,0,12.77714729309082
18811,536346111,641202686,0,-0.36654070019721985,-0.566107988357544,0,12.777629852294922
18821,536346111,641202686,0,-0.3661613464355469,-0.5664153099060059,0,12.777251243591309
18831,536346111,641202686,0,-0.3659648597240448,-0.5661256909370422,0,12.776935577392578
18841,536346111,641202686,0,-0.365929514169693,-0.5657551288604736,0,12.776824951171875
18851,536346111,641202686,0,-0.3653775155544281,-0.5663695335388184,0,12.777727127075195
