Timestamp,compactImu.a_xyz,compactImu.l_xyz,motorCompact.pwms,stabilizer.pitch,stabilizer.roll,stabilizer.thrust,stabilizer.yaw
129681,536346111,641203711,0,-0.30795395374298096,0.183646559715271,0,14.407453536987305
129691,536346111,641203711,0,-0.30714747309684753,0.18404808640480042,0,14.406681060791016
129701,536346111,641203711,0,-0.30652838945388794,0.18343238532543182,0,14.405733108520508
129711,536346111,641203711,0,-0.3062935173511505,0.1827310472726822,0,14.406335830688477
129721,536346111,641203711,0,-0.30566906929016113,0.1823122650384903,0,14.40562915802002
129731,536346111,641203711,0,-0.3047013282775879,0.18247072398662567,0,14.406014442443848
129741,536346111,641203711,0,-0.3036278486251831,0.18223975598812103,0,14.405861854553223
129751,536346111,641203711,0,-0.3035467267036438,0.18222591280937195,0,14.405701637268066
129761,536346111,641203711,0,-0.3037589192390442,0.18201515078544617,0,14.407095909118652
129771,536346111,641203711,0,-0.3036254942417145,0.18251071870326996,0,14.40675163269043
129781,536346111,641203711,0,-0.3047657907009125,0.18387949466705322,0,14.406684875488281
129791,536346111,641203711,0,-0.3051655888557434,0.1849421113729477,0,14.406540870666504
129801,536346111,641203711,0,-0.30465129017829895,0.18629828095436096,0,14.40602970123291
129811,536346111,641203711,0,-0.30512407422065735,0.18843857944011688,0,14.406431198120117
129821,536346111,641202687,0,-0.3063706159591675,0.19065536558628082,0,14.405531883239746
129831,536346111,642251263,0,-0.30662426352500916,0.191691592335701,0,14.405488014221191
129841,536346111,642252287,0,-0.3078779876232147,0.1925075799226761,0,14.40570068359375
129851,536346111,642252287,0,-0.3089737594127655,0.1940058320760727,0,14.405427932739258
129861,536346111,641202687,0,-0.30957916378974915,0.19522735476493835,0,14.406352043151855
129871,536346111,641203711,0,-0.3102750778198242,0.19614499807357788,0,14.406142234802246
129881,536346111,640155135,0,-0.31104886531829834,0.19832798838615417,0,14.40600299835205
129891,536346111,640155135,0,-0.31188011169433594,0.20091533660888672,0,14.405256271362305
129901,536346111,640155135,0,-0.313245952129364,0.2038426250219345,0,14.40568733215332
129911,536346111,641203711,0,-0.31420838832855225,0.20504948496818542,0,14.405159950256348
129921,536346111,641203711,0,-0.31511935591697693,0.20558513700962067,0,14.403730392456055
129931,536346111,641203711,0,-0.3153699040412903,0.20614033937454224,0,14.403825759887695
129941,536346111,641203711,0,-0.31527894735336304,0.2060701549053192,0,14.402778625488281
129951,536346111,641203711,0,-0.31492534279823303,0.2059759944677353,0,14.402892112731934
129961,536346111,640155135,0,-0.3153226673603058,0.20740491151809692,0,14.403658866882324
129971,536346111,640155135,0,-0.31517186760902405,0.20815415680408478,0,14.404335975646973
129981,536346111,640155135,0,-0.3150325119495392,0.20798566937446594,0,14.404952049255371
129991,536346111,641203711,0,-0.31506237387657166,0.20728027820587158,0,14.405183792114258
130001,536346111,641203711,0,-0.31502822041511536,0.2061164379119873,0,14.405057907104492
130011,536346111,641203711,0,-0.3153357207775116,0.20579731464385986,0,14.405389785766602
130021,536346111,642252287,0,-0.31483426690101624,0.20587153732776642,0,14.404691696166992
130031,536346111,641203711,0,-0.3141310513019562,0.20629918575286865,0,14.403688430786133
130041,536346111,641203711,0,-0.31319332122802734,0.2058941125869751,0,14.405040740966797
130051,536346111,641203711,0,-0.31305086612701416,0.20569942891597748,0,14.404800415039062
130061,536346111,641203711,0,-0.3130173087120056,0.20531976222991943,0,14.404498100280762
130071,536346111,641203711,0,-0.3119741678237915,0.2057632952928543,0,14.4044189453125
130081,536346111,641203711,0,-0.31138044595718384,0.20630505681037903,0,14.404070854187012
130091,536346111,641203711,0,-0.3108745813369751,0.20659159123897552,0,14.404680252075195
130101,536346111,642252287,0,-0.31109145283699036,0.20616954565048218,0,14.403825759887695
130111,536346111,642251263,0,-0.3108426034450531,0.2062232345342636,0,14.403656959533691
130121,536346111,641203711,0,-0.3105008602142334,0.20629769563674927,0,14.403199195861816
130131,535297535,641203711,0,-0.3105776309967041,0.2061905860900879,0,14.402493476867676
130141,536346111,641203711,0,-0.31020045280456543,0.20686587691307068,0,14.401290893554688
130151,536346111,640155135,0,-0.31059473752975464,0.20725740492343903,0,14.40015697479248
130161,536346111,640155135,0,-0.3109630048274994,0.20666532218456268,0,14.39959716796875
130171,536346111,641203711,0,-0.3111706078052521,0.20643728971481323,0,14.399954795837402
130181,536346111,641203711,0,-0.31076961755752563,0.20602236688137054,0,14.400254249572754
130191,536346111,642252287,0,-0.3104599714279175,0.2055855244398117,0,14.399892807006836
130201,536346111,642252287,0,-0.30944186449050903,0.2046634405851364,0,14.40029525756836
130211,536346111,642252287,0,-0.30900079011917114,0.20395740866661072,0,14.400151252746582
130221,536346111,641203711,0,-0.30785849690437317,0.20393119752407074,0,14.399446487426758
130231,536346111,641203711,0,-0.30740612745285034,0.20433270931243896,0,14.399653434753418
130241,536346111,641203711,0,-0.3061923682689667,0.2040695995092392,0,14.398659706115723
130251,536346111,641203711,0,-0.3058011531829834,0.20350322127342224,0,14.397916793823242
130261,536346111,641203711,0,-0.3059734106063843,0.20285135507583618,0,14.398422241210938
130271,536346111,641203711,0,-0.30675435066223145,0.20256608724594116,0,14.398093223571777
130281,536346111,641203711,0,-0.30704355239868164,0.20235638320446014,0,14.39785385131836
130291,536346111,641203711,0,-0.30673590302467346,0.20246188342571259,0,14.397201538085938
130301,536346111,641203711,0,-0.30740106105804443,0.2028292864561081,0,14.398594856262207
130311,536346111,641203711,0,-0.3076421618461609,0.20238085091114044,0,14.398892402648926
130321,536346111,641203711,0,-0.3070162236690521,0.2019595056772232,0,14.39968490600586
130331,535297535,641203711,0,-0.30649369955062866,0.20174232125282288,0,14.399436950683594
130341,536346111,641203711,0,-0.30539876222610474,0.20232291519641876,0,14.398422241210938
130351,535297535,641203711,0,-0.3054552376270294,0.20227587223052979,0,14.397786140441895
130361,536346111,641203711,0,-0.3054068982601166,0.20334038138389587,0,14.397256851196289
130371,536346111,641203711,0,-0.3048611581325531,0.20278221368789673,0,14.39672565460205
130381,536346111,641203711,0,-0.30441462993621826,0.20141638815402985,0,14.396631240844727
130391,536346111,641203711,0,-0.3045026957988739,0.20110133290290833,0,14.396892547607422
130401,536346111,641203711,0,-0.3052440583705902,0.20147116482257843,0,14.397223472595215
130411,536346111,641203711,0,-0.30520087480545044,0.20223988592624664,0,14.396790504455566
130421,536346111,641203711,0,-0.3051893413066864,0.201587975025177,0,14.39659309387207
130431,536346111,641203711,0,-0.3049970269203186,0.20125597715377808,0,14.396571159362793
130441,536346111,641203711,0,-0.3043423891067505,0.2011203020811081,0,14.39505386352539
130451,536346111,641203711,0,-0.3043138384819031,0.20182520151138306,0,14.395525932312012
130461,536346111,641203711,0,-0.3044142723083496,0.2024642378091812,0,14.395454406738281
130471,536346111,640155135,0,-0.30362454056739807,0.20220394432544708,0,14.395773887634277
130481,536346111,640155135,0,-0.30188167095184326,0.19880534708499908,0,14.396744728088379
130491,536346111,640154111,0,-0.3012446463108063,0.19595639407634735,0,14.397200584411621
130501,536346111,642252287,0,-0.30144447088241577,0.1936609447002411,0,14.396635055541992
130511,536346111,643300864,0,-0.3014320731163025,0.19384711980819702,0,14.396066665649414
130521,536346111,643300864,0,-0.30135220289230347,0.19625355303287506,0,14.39580249786377
130531,536346111,643300863,0,-0.3007456362247467,0.1975439041852951,0,14.394708633422852
130541,536346111,642251263,0,-0.2997997999191284,0.19861441850662231,0,14.394373893737793
130551,536346111,641202687,0,-0.2995637059211731,0.1985502690076828,0,14.394028663635254
130561,536346111,639106559,0,-0.29982373118400574,0.20089058578014374,0,14.392898559570312
130571,536346111,638057983,0,-0.300431489944458,0.20247028768062592,0,14.39278793334961
130581,536346111,639106559,0,-0.30230432748794556,0.20401830971240997,0,14.392411231994629
130591,536346111,640155135,0,-0.3029971718788147,0.20415230095386505,0,14.392192840576172
130601,536346111,642252287,0,-0.3030857741832733,0.20384983718395233,0,14.393077850341797
130611,536346111,643299840,0,-0.30277323722839355,0.20332102477550507,0,14.393091201782227
130621,536346111,643299840,0,-0.3011681139469147,0.20173823833465576,0,14.391891479492188
130631,536346111,642251263,0,-0.2997417747974396,0.2008766382932663,0,14.39064884185791
130641,536346111,641203711,0,-0.2993251085281372,0.20024368166923523,0,14.390913963317871
130651,536346111,640155135,0,-0.2997420132160187,0.20012520253658295,0,14.390456199645996
130661,536346111,639106559,0,-0.2997690439224243,0.20112521946430206,0,14.390584945678711
130671,536346111,639106559,0,-0.3006058633327484,0.2005501389503479,0,14.390597343444824
130681,536346111,640155135,0,-0.30046671628952026,0.19957531988620758,0,14.390220642089844
130691,536346111,642252287,0,-0.29997316002845764,0.19860093295574188,0,14.389742851257324
130701,536346111,643299839,0,-0.29846611618995667,0.19744883477687836,0,14.38891315460205
130711,536346111,643299839,0,-0.297720730304718,0.1959618628025055,0,14.389095306396484
130721,536346111,642252287,0,-0.2954470217227936,0.19598707556724548,0,14.38900089263916
130731,536346111,641203711,0,-0.2947743535041809,0.1960945725440979,0,14.388643264770508
130741,535297535,640155135,0,-0.2954765260219574,0.19625571370124817,0,14.388229370117188
130751,536346111,640155135,0,-0.2953161895275116,0.19630038738250732,0,14.387237548828125
130761,536346111,639106559,0,-0.2959548532962799,0.19700200855731964,0,14.388143539428711
130771,536346111,640155135,0,-0.29582521319389343,0.1970258504152298,0,14.38736629486084
130781,536346111,641203711,0,-0.29597318172454834,0.19508716464042664,0,14.387136459350586
130791,536346111,642251263,0,-0.29511308670043945,0.19359764456748962,0,14.386651992797852
130801,536346111,642251263,0,-0.2935722768306732,0.19258742034435272,0,14.386631965637207
130811,536346111,642251263,0,-0.2926730215549469,0.19180193543434143,0,14.386570930480957
130821,536346111,641203711,0,-0.29204463958740234,0.19159150123596191,0,14.385629653930664
130831,536346111,641203711,0,-0.2921294867992401,0.19106315076351166,0,14.38540267944336
130841,536346111,640155135,0,-0.2924395501613617,0.19172975420951843,0,14.384953498840332
130851,536346111,640155135,0,-0.29232585430145264,0.19240647554397583,0,14.383625030517578
130861,536346111,640155135,0,-0.29165583848953247,0.19266892969608307,0,14.38218879699707
130871,536346111,641203711,0,-0.2919332981109619,0.19133992493152618,0,14.38236141204834
130881,536346111,642251263,0,-0.29192036390304565,0.18994632363319397,0,14.382566452026367
130891,536346111,642252287,0,-0.2904742658138275,0.18937857449054718,0,14.38206958770752
130901,536346111,642252287,0,-0.29029279947280884,0.19038039445877075,0,14.38167953491211
130911,536346111,641203711,0,-0.290009081363678,0.190309539437294,0,14.381823539733887
130921,536346111,641203711,0,-0.28917592763900757,0.19107072055339813,0,14.38237476348877
130931,536346111,640155135,0,-0.2886230945587158,0.19247473776340485,0,14.381709098815918
130941,536346111,640155135,0,-0.2889423370361328,0.19329896569252014,0,14.381486892700195
130951,536346111,640155135,0,-0.2886664867401123,0.19377847015857697,0,14.381150245666504
130961,536346111,641203711,0,-0.2884546220302582,0.19384565949440002,0,14.381264686584473
130971,536346111,641203711,0,-0.28744956851005554,0.19359682500362396,0,14.381692886352539
130981,536346111,642252287,0,-0.2870997190475464,0.19313332438468933,0,14.381119728088379
130991,536346111,641203711,0,-0.28683778643608093,0.19261831045150757,0,14.381291389465332
131001,536346111,641203711,0,-0.2875228524208069,0.19193135201931,0,14.381948471069336
131011,536346111,641203711,0,-0.2874315083026886,0.19241449236869812,0,14.381394386291504
131021,536346111,641203711,0,-0.2865619361400604,0.19230937957763672,0,14.381616592407227
131031,536346111,641203711,0,-0.28625577688217163,0.19297516345977783,0,14.381592750549316
131041,536346111,641203711,0,-0.2862776517868042,0.19367213547229767,0,14.381019592285156
131051,536346111,641202687,0,-0.28594133257865906,0.19307760894298553,0,14.380802154541016
131061,536346111,641203711,0,-0.28541848063468933,0.19218453764915466,0,14.381095886230469
131071,536346111,641203711,0,-0.28586816787719727,0.19214828312397003,0,14.381357192993164
131081,536346111,641203711,0,-0.2862088084220886,0.19124369323253632,0,14.38194751739502
131091,536346111,641203711,0,-0.286212682723999,0.19176147878170013,0,14.381532669067383
131101,536346111,640155135,0,-0.2854244112968445,0.19213566184043884,0,14.382386207580566
131111,536346111,640155135,0,-0.28538981080055237,0.19226916134357452,0,14.381869316101074
131121,536346111,641203711,0,-0.28575724363327026,0.19306492805480957,0,14.380897521972656
131131,536346111,641203711,0,-0.2854597866535187,0.19385050237178802,0,14.381133079528809
131141,536346111,641203711,0,-0.28512951731681824,0.193479523062706,0,14.38154411315918
131151,536346111,641202687,0,-0.284686803817749,0.19333282113075256,0,14.381624221801758
131161,536346111,642251263,0,-0.2843303680419922,0.19296249747276306,0,14.381044387817383
131171,536346111,641203711,0,-0.2839886248111725,0.1931484341621399,0,14.382174491882324
131181,536346111,641203711,0,-0.28373461961746216,0.19237090647220612,0,14.382802963256836
131191,536346111,641203711,0,-0.28374695777893066,0.19280321896076202,0,14.381771087646484
131201,536346111,640155135,0,-0.28396692872047424,0.19377830624580383,0,14.382170677185059
131211,536346111,640155135,0,-0.28379026055336,0.19358988106250763,0,14.382645606994629
131221,536346111,641203711,0,-0.2843494415283203,0.19366317987442017,0,14.381452560424805
131231,536346111,641202687,0,-0.28474655747413635,0.19294993579387665,0,14.380367279052734
131241,536346111,641203711,0,-0.28479063510894775,0.19234605133533478,0,14.38037109375
131251,536346111,642251263,0,-0.28425395488739014,0.19143164157867432,0,14.380207061767578
131261,536346111,642252287,0,-0.2838612198829651,0.18991202116012573,0,14.379371643066406
131271,536346111,641203711,0,-0.2835847735404968,0.18983572721481323,0,14.379406929016113
131281,536346111,641203711,0,-0.28381824493408203,0.19008924067020416,0,14.37889575958252
131291,536346111,641203711,0,-0.2834663987159729,0.19123870134353638,0,14.378539085388184
131301,536346111,640155135,0,-0.2831694781780243,0.19109070301055908,0,14.37718391418457
131311,535297535,641203711,0,-0.28279268741607666,0.19024108350276947,0,14.376941680908203
131321,536346111,641203711,0,-0.28229236602783203,0.18922431766986847,0,14.375524520874023
131331,536346111,641203711,0,-0.2816327214241028,0.1886386126279831,0,14.375892639160156
131341,536346111,641203711,0,-0.2805718779563904,0.18827013671398163,0,14.375593185424805
131351,536346111,641203711,0,-0.2813587486743927,0.18867087364196777,0,14.37546157836914
131361,536346111,641203711,0,-0.2808975875377655,0.1891935169696808,0,14.375608444213867
131371,536346111,641203711,0,-0.2805951237678528,0.18871411681175232,0,14.375524520874023
131381,535297535,641203711,0,-0.2808133065700531,0.18903453648090363,0,14.37455940246582
131391,536346111,640155135,0,-0.28138649463653564,0.18844696879386902,0,14.373188972473145
131401,536346111,641203711,0,-0.2817809581756592,0.18845586478710175,0,14.373088836669922
131411,536346111,641203711,0,-0.2821670472621918,0.1874360889196396,0,14.37360954284668
131421,536346111,641203711,0,-0.2816493511199951,0.18772085011005402,0,14.373950958251953
131431,536346111,641203711,0,-0.281445175409317,0.1877170205116272,0,14.373651504516602
131441,536346111,641202687,0,-0.28197452425956726,0.1868705004453659,0,14.373977661132812
131451,536346111,641203711,0,-0.2819100022315979,0.1871771216392517,0,14.374105453491211
131461,536346111,641203711,0,-0.2831519842147827,0.1876969337463379,0,14.374011993408203
131471,536346111,641203711,0,-0.2840668857097626,0.18758250772953033,0,14.373764991760254
131481,536346111,641203711,0,-0.2848900854587555,0.18762297928333282,0,14.374391555786133
131491,536346111,641203711,0,-0.2848871350288391,0.18769295513629913,0,14.374874114990234
131501,536346111,641203711,0,-0.28444957733154297,0.18828105926513672,0,14.374908447265625
131511,536346111,641203711,0,-0.2841709852218628,0.18834903836250305,0,14.375300407409668
131521,536346111,641203711,0,-0.28417184948921204,0.18835394084453583,0,14.375483512878418
131531,536346111,641203711,0,-0.28442808985710144,0.18801504373550415,0,14.375046730041504
131541,536346111,641203711,0,-0.2843698561191559,0.1871100813150406,0,14.375101089477539
131551,536346111,641203711,0,-0.2847987413406372,0.18687450885772705,0,14.375964164733887
131561,536346111,641203711,0,-0.28527703881263733,0.18608686327934265,0,14.376047134399414
131571,536346111,641203711,0,-0.2856203615665436,0.18580833077430725,0,14.376319885253906
131581,536346111,641203711,0,-0.28534480929374695,0.1876750886440277,0,14.377115249633789
131591,536346111,641203711,0,-0.28479161858558655,0.18846386671066284,0,14.37768268585205
131601,536346111,641203711,0,-0.2850567698478699,0.18856747448444366,0,14.37780475616455
131611,536346111,641203711,0,-0.28494352102279663,0.18811626732349396,0,14.377863883972168
131621,536346111,642252287,0,-0.2851311266422272,0.1882520169019699,0,14.377346992492676
131631,536346111,641203711,0,-0.2856876850128174,0.18856754899024963,0,14.37710952758789
131641,535297535,641203711,0,-0.2852962613105774,0.18856051564216614,0,14.375664710998535
131651,536346111,641203711,0,-0.28466546535491943,0.18869821727275848,0,14.375127792358398
131661,536346111,641203711,0,-0.2843821346759796,0.18838824331760406,0,14.374897003173828
131671,536346111,641203711,0,-0.2849385142326355,0.18844981491565704,0,14.374551773071289
131681,536346111,641203711,0,-0.2853044867515564,0.18923461437225342,0,14.37450122833252
131691,536346111,641203711,0,-0.284732460975647,0.1893683522939682,0,14.374815940856934
131701,536346111,641203711,0,-0.284373015165329,0.18832525610923767,0,14.375386238098145
131711,536346111,641203711,0,-0.2838316857814789,0.18858206272125244,0,14.375434875488281
131721,536346111,641203711,0,-0.28212565183639526,0.18822120130062103,0,14.375602722167969
131731,536346111,641203711,0,-0.28113263845443726,0.1885276734828949,0,14.376022338867188
131741,536346111,641203711,0,-0.2813527584075928,0.18844857811927795,0,14.376174926757812
131751,536346111,641203711,0,-0.28104639053344727,0.18806834518909454,0,14.37640380859375
131761,536346111,641203711,0,-0.28072187304496765,0.1877446472644806,0,14.376646041870117
131771,536346111,641203711,0,-0.28113439679145813,0.1885916292667389,0,14.376615524291992
131781,536346111,641203711,0,-0.28153175115585327,0.1878044307231903,0,14.376815795898438
131791,536346111,641203711,0,-0.28210127353668213,0.18824245035648346,0,14.377781867980957
131801,536346111,641203711,0,-0.2818182110786438,0.18751415610313416,0,14.376766204833984
131811,536346111,641203711,0,-0.28178226947784424,0.18669645488262177,0,14.376917839050293
131821,536346111,641203711,0,-0.2807972729206085,0.18846353888511658,0,14.376626014709473
131831,536346111,641203711,0,-0.28033629059791565,0.18965274095535278,0,14.37571907043457
131841,536346111,641203711,0,-0.27943262457847595,0.1896858513355255,0,14.375162124633789
131851,536346111,641203711,0,-0.2793682813644409,0.1892695128917694,0,14.374688148498535
131861,535297535,641203711,0,-0.27986812591552734,0.1897570639848709,0,14.37299633026123
131871,536346111,641203711,0,-0.27990850806236267,0.1902640461921692,0,14.371949195861816
131881,536346111,641203711,0,-0.28047433495521545,0.19091850519180298,0,14.370821952819824
131891,536346111,641203711,0,-0.28102508187294006,0.19132928550243378,0,14.370736122131348
131901,536346111,641203711,0,-0.28066495060920715,0.19088822603225708,0,14.371055603027344
131911,536346111,641203711,0,-0.2799835503101349,0.190124973654747,0,14.371880531311035
131921,535297535,641203711,0,-0.2791329324245453,0.1890696883201599,0,14.371158599853516
131931,536346111,641203711,0,-0.27926674485206604,0.1892920881509781,0,14.370565414428711
131941,536346111,641203711,0,-0.27847161889076233,0.18888001143932343,0,14.370166778564453
131951,536346111,641203711,0,-0.2784940004348755,0.1895313262939453,0,14.370201110839844
131961,536346111,641203711,0,-0.2780868113040924,0.18892227113246918,0,14.369795799255371
131971,536346111,641203711,0,-0.277314692735672,0.18842542171478271,0,14.369524002075195
131981,536346111,641203711,0,-0.27736032009124756,0.1883438527584076,0,14.370016098022461
131991,536346111,641203711,0,-0.27701535820961,0.18765242397785187,0,14.369707107543945
132001,536346111,641203711,0,-0.27626916766166687,0.18673941493034363,0,14.369542121887207
132011,536346111,641203711,0,-0.2757507562637329,0.18616068363189697,0,14.369260787963867
132021,536346111,641203711,0,-0.275701642036438,0.187043696641922,0,14.369296073913574
132031,536346111,641203711,0,-0.2751980721950531,0.1874723881483078,0,14.368913650512695
132041,536346111,641203711,0,-0.275225430727005,0.18860386312007904,0,14.368968963623047
132051,536346111,641203711,0,-0.2754055857658386,0.189088836312294,0,14.368760108947754
132061,536346111,641203711,0,-0.27585452795028687,0.1881544589996338,0,14.369112014770508
132071,536346111,641203711,0,-0.2758627235889435,0.18808364868164062,0,14.369623184204102
132081,536346111,641203711,0,-0.2751723527908325,0.18766020238399506,0,14.369216918945312
132091,536346111,641203711,0,-0.275093674659729,0.18825660645961761,0,14.368880271911621
132101,536346111,641202687,0,-0.2748013734817505,0.1882285326719284,0,14.369595527648926
132111,536346111,641202687,0,-0.27448299527168274,0.1874525249004364,0,14.369793891906738
132121,536346111,641203711,0,-0.273779958486557,0.18581527471542358,0,14.369771957397461
132131,536346111,641203711,0,-0.27371782064437866,0.18501734733581543,0,14.369614601135254
132141,536346111,641203711,0,-0.2733613848686218,0.18424706161022186,0,14.369833946228027
132151,536346111,641203711,0,-0.2737131118774414,0.18506625294685364,0,14.370222091674805
132161,536346111,641203711,0,-0.27387428283691406,0.18617886304855347,0,14.36976432800293
132171,535297535,641203711,0,-0.2732425332069397,0.18665631115436554,0,14.36906909942627
132181,536346111,641203711,0,-0.2733646035194397,0.18730635941028595,0,14.368099212646484
132191,536346111,641203711,0,-0.2732754945755005,0.18692854046821594,0,14.368047714233398
132201,536346111,641203711,0,-0.27305206656455994,0.18707869946956635,0,14.367809295654297
132211,536346111,641203711,0,-0.27317899465560913,0.18724803626537323,0,14.367250442504883
132221,536346111,641203711,0,-0.2721686065196991,0.1872480809688568,0,14.366905212402344
132231,536346111,641203711,0,-0.271461546421051,0.1875293105840683,0,14.366568565368652
132241,536346111,641203711,0,-0.2715420424938202,0.18851301074028015,0,14.366817474365234
132251,536346111,641203711,0,-0.27110037207603455,0.18847914040088654,0,14.366262435913086
132261,536346111,641203711,0,-0.27088311314582825,0.1891927272081375,0,14.365711212158203
132271,535297535,641203711,0,-0.2706388533115387,0.18970143795013428,0,14.365666389465332
132281,536346111,641203711,0,-0.27045944333076477,0.19035080075263977,0,14.364437103271484
132291,535297535,641203711,0,-0.2703860402107239,0.1893099993467331,0,14.364640235900879
132301,535297535,641203711,0,-0.27033039927482605,0.1885800063610077,0,14.363428115844727
132311,536346111,641203711,0,-0.2699635922908783,0.1886865645647049,0,14.362419128417969
132321,536346111,641203711,0,-0.26890769600868225,0.18981753289699554,0,14.360773086547852
132331,536346111,641203711,0,-0.26967543363571167,0.1903035193681717,0,14.360889434814453
132341,536346111,641203711,0,-0.2705257534980774,0.18927612900733948,0,14.36113452911377
132351,536346111,641203711,0,-0.2703043818473816,0.189216747879982,0,14.360639572143555
132361,536346111,641203711,0,-0.27003979682922363,0.18957096338272095,0,14.359882354736328
132371,536346111,641203711,0,-0.2700675427913666,0.18901440501213074,0,14.36056137084961
132381,536346111,641203711,0,-0.27058547735214233,0.1888917237520218,0,14.360236167907715
132391,536346111,641203711,0,-0.2701609134674072,0.18863032758235931,0,14.359319686889648
132401,536346111,641203711,0,-0.26966941356658936,0.18876579403877258,0,14.359376907348633
132411,536346111,641203711,0,-0.2697513699531555,0.18791913986206055,0,14.360153198242188
132421,536346111,641203711,0,-0.2703786790370941,0.18798330426216125,0,14.360153198242188
132431,536346111,641203711,0,-0.2702186107635498,0.18788482248783112,0,14.360515594482422
132441,536346111,641203711,0,-0.27063581347465515,0.18735259771347046,0,14.359541893005371
132451,536346111,641203711,0,-0.2704244554042816,0.1870579868555069,0,14.359124183654785
132461,536346111,641203711,0,-0.27058443427085876,0.18639257550239563,0,14.359293937683105
132471,536346111,641203711,0,-0.2711251974105835,0.18589596450328827,0,14.359550476074219
132481,536346111,641203711,0,-0.27054738998413086,0.18576398491859436,0,14.358986854553223
132491,536346111,641203711,0,-0.2699226438999176,0.18479132652282715,0,14.359015464782715
132501,536346111,641203711,0,-0.2697173058986664,0.185611754655838,0,14.358901977539062
132511,536346111,641203711,0,-0.26929256319999695,0.18510624766349792,0,14.35832405090332
132521,536346111,641203711,0,-0.2702154219150543,0.18448486924171448,0,14.35925006866455
132531,536346111,641203711,0,-0.27023205161094666,0.18431870639324188,0,14.359368324279785
132541,536346111,641203711,0,-0.27043384313583374,0.18439628183841705,0,14.35921859741211
132551,536346111,641203711,0,-0.27047306299209595,0.18453362584114075,0,14.359386444091797
132561,536346111,641203711,0,-0.2699824869632721,0.18424482643604279,0,14.359670639038086
132571,536346111,641203711,0,-0.26944878697395325,0.18512415885925293,0,14.359908103942871
132581,536346111,641203711,0,-0.2689143121242523,0.18517249822616577,0,14.360045433044434
132591,536346111,641203711,0,-0.2683485150337219,0.1851384937763214,0,14.36003303527832
132601,536346111,641203711,0,-0.2682248651981354,0.1859428882598877,0,14.36017894744873
132611,536346111,641203711,0,-0.26853424310684204,0.1851365566253662,0,14.36063003540039
132621,536346111,641202687,0,-0.2676924765110016,0.18451735377311707,0,14.360547065734863
132631,536346111,641203711,0,-0.2675267457962036,0.18423569202423096,0,14.360986709594727
132641,536346111,641203711,0,-0.267902672290802,0.18290840089321136,0,14.361289024353027
132651,536346111,641203711,0,-0.26853111386299133,0.1826842874288559,0,14.361735343933105
132661,536346111,641203711,0,-0.26739057898521423,0.1820615828037262,0,14.36201286315918
132671,536346111,641203711,0,-0.26723673939704895,0.18179039657115936,0,14.361437797546387
132681,536346111,641203711,0,-0.2676621675491333,0.18274466693401337,0,14.361234664916992
132691,536346111,641203711,0,-0.26876890659332275,0.18222272396087646,0,14.361440658569336
132701,536346111,641203711,0,-0.2686076760292053,0.1819581687450409,0,14.361559867858887
132711,536346111,641203711,0,-0.26852279901504517,0.18160010874271393,0,14.3612699508667
132721,536346111,641203711,0,-0.26894694566726685,0.1814405769109726,0,14.362024307250977
132731,536346111,641203711,0,-0.26920440793037415,0.1815991997718811,0,14.361626625061035
132741,536346111,641203711,0,-0.26986706256866455,0.18247859179973602,0,14.361013412475586
132751,536346111,641203711,0,-0.2697303593158722,0.18240250647068024,0,14.36131477355957
132761,536346111,641203711,0,-0.2693973779678345,0.18200834095478058,0,14.361272811889648
132771,536346111,641203711,0,-0.26891207695007324,0.18241482973098755,0,14.361559867858887
132781,536346111,641203711,0,-0.2691691517829895,0.18224461376667023,0,14.361954689025879
132791,536346111,641203711,0,-0.2687358260154724,0.1816924810409546,0,14.362075805664062
132801,536346111,641203711,0,-0.2692127823829651,0.1818365603685379,0,14.362517356872559
132811,536346111,641203711,0,-0.26956719160079956,0.18171410262584686,0,14.362337112426758
132821,536346111,641203711,0,-0.26805979013442993,0.18211522698402405,0,14.362554550170898
132831,536346111,641203711,0,-0.2680879533290863,0.18180400133132935,0,14.362736701965332
132841,536346111,641203711,0,-0.2683297097682953,0.18210342526435852,0,14.363141059875488
132851,536346111,641203711,0,-0.2680712640285492,0.1831645667552948,0,14.363492012023926
132861,536346111,641203711,0,-0.26859351992607117,0.18335749208927155,0,14.362467765808105
132871,535297535,641203711,0,-0.2692045569419861,0.18350167572498322,0,14.362205505371094
132881,536346111,641203711,0,-0.26905739307403564,0.1840379685163498,0,14.361154556274414
132891,536346111,641203711,0,-0.2688349187374115,0.18451601266860962,0,14.361108779907227
132901,536346111,641203711,0,-0.26847147941589355,0.18499526381492615,0,14.361082077026367
132911,536346111,641203711,0,-0.2682666480541229,0.18528403341770172,0,14.360915184020996
132921,536346111,641203711,0,-0.2669258415699005,0.18535256385803223,0,14.361433029174805
132931,536346111,641203711,0,-0.26620256900787354,0.18571056425571442,0,14.361164093017578
132941,536346111,641203711,0,-0.26585033535957336,0.1857965886592865,0,14.359633445739746
132951,536346111,641203711,0,-0.266480416059494,0.1858893632888794,0,14.358920097351074
132961,536346111,641203711,0,-0.26647332310676575,0.18665915727615356,0,14.357917785644531
132971,536346111,641203711,0,-0.2660820484161377,0.18728205561637878,0,14.35731315612793
132981,536346111,641203711,0,-0.2665983736515045,0.188116654753685,0,14.357548713684082
132991,536346111,641203711,0,-0.26582416892051697,0.18809865415096283,0,14.357818603515625
133001,536346111,641203711,0,-0.26622000336647034,0.1884719878435135,0,14.357600212097168
133011,536346111,641203711,0,-0.26701849699020386,0.18904714286327362,0,14.357438087463379
133021,536346111,641203711,0,-0.2673781216144562,0.18897651135921478,0,14.35726261138916
133031,536346111,641203711,0,-0.26733559370040894,0.18888261914253235,0,14.357443809509277
133041,536346111,641203711,0,-0.26810118556022644,0.18926365673542023,0,14.358771324157715
133051,536346111,641202687,0,-0.2682666480541229,0.1890854388475418,0,14.359272003173828
133061,536346111,641203711,0,-0.26721858978271484,0.1887727975845337,0,14.359642028808594
133071,536346111,641203711,0,-0.2665300667285919,0.18847836554050446,0,14.359747886657715
133081,535297535,641203711,0,-0.2665528655052185,0.18865633010864258,0,14.358108520507812
133091,536346111,641203711,0,-0.26687952876091003,0.1889186054468155,0,14.358850479125977
133101,536346111,641203711,0,-0.26706159114837646,0.18863913416862488,0,14.35897445678711
133111,536346111,641203711,0,-0.2674463093280792,0.1876429170370102,0,14.358948707580566
133121,536346111,641203711,0,-0.2667199671268463,0.1871165931224823,0,14.35910415649414
133131,536346111,641203711,0,-0.2662382125854492,0.1868657022714615,0,14.358781814575195
133141,536346111,641203711,0,-0.2657473683357239,0.18730540573596954,0,14.358277320861816
133151,536346111,641203711,0,-0.26572099328041077,0.18805913627147675,0,14.358111381530762
133161,536346111,641203711,0,-0.26567313075065613,0.18874485790729523,0,14.358855247497559
133171,536346111,641203711,0,-0.26586923003196716,0.18936946988105774,0,14.35828971862793
133181,536346111,641203711,0,-0.26615986227989197,0.18960586190223694,0,14.3575439453125
133191,536346111,641203711,0,-0.26614224910736084,0.18958863615989685,0,14.357585906982422
133201,536346111,641203711,0,-0.2665587067604065,0.18977570533752441,0,14.35713005065918
133211,536346111,641203711,0,-0.2665363550186157,0.18952186405658722,0,14.35720443725586
133221,536346111,641202687,0,-0.26536038517951965,0.18883201479911804,0,14.357004165649414
133231,536346111,641203711,0,-0.26546886563301086,0.18913114070892334,0,14.35641098022461
133241,536346111,641203711,0,-0.2652950584888458,0.19001048803329468,0,14.35545539855957
133251,536346111,641203711,0,-0.26573389768600464,0.1900627166032791,0,14.356302261352539
133261,536346111,641203711,0,-0.2662811577320099,0.19115151464939117,0,14.356183052062988
133271,536346111,641203711,0,-0.2658090889453888,0.19070640206336975,0,14.356690406799316
133281,536346111,641203711,0,-0.265470951795578,0.18932312726974487,0,14.357464790344238
133291,535297535,641203711,0,-0.2651069462299347,0.18937909603118896,0,14.356306076049805
133301,536346111,641203711,0,-0.2653621733188629,0.19039741158485413,0,14.354728698730469
133311,536346111,641203711,0,-0.2657974660396576,0.19097745418548584,0,14.354291915893555
133321,536346111,641203711,0,-0.2665848135948181,0.19108808040618896,0,14.354023933410645
133331,536346111,641203711,0,-0.26658895611763,0.19086220860481262,0,14.353455543518066
133341,536346111,641203711,0,-0.2669026851654053,0.18987736105918884,0,14.352921485900879
133351,536346111,641203711,0,-0.26730668544769287,0.18974362313747406,0,14.35318660736084
133361,535297535,641203711,0,-0.2667360007762909,0.18921101093292236,0,14.35276985168457
133371,536346111,641203711,0,-0.26631590723991394,0.18961042165756226,0,14.35169792175293
133381,536346111,641203711,0,-0.26669538021087646,0.1888749748468399,0,14.350903511047363
133391,536346111,641203711,0,-0.26728349924087524,0.18967334926128387,0,14.350693702697754
133401,536346111,641203711,0,-0.26683932542800903,0.18992426991462708,0,14.349781036376953
133411,536346111,641203711,0,-0.2671230137348175,0.19118091464042664,0,14.349492073059082
133421,536346111,641203711,0,-0.26731640100479126,0.19144262373447418,0,14.349055290222168
133431,536346111,641203711,0,-0.26734423637390137,0.19048111140727997,0,14.349885940551758
133441,536346111,641203711,0,-0.2668965756893158,0.19032059609889984,0,14.350046157836914
133451,535297535,641203711,0,-0.2675068974494934,0.19024470448493958,0,14.349154472351074
133461,536346111,641203711,0,-0.26805731654167175,0.18963351845741272,0,14.347692489624023
133471,536346111,641203711,0,-0.268474817276001,0.19002661108970642,0,14.34671688079834
133481,536346111,641203711,0,-0.26910877227783203,0.19088733196258545,0,14.346123695373535
133491,536346111,641203711,0,-0.2698621451854706,0.19125285744667053,0,14.346123695373535
133501,536346111,641203711,0,-0.2706146240234375,0.19111616909503937,0,14.345952987670898
133511,536346111,641203711,0,-0.27070263028144836,0.19095535576343536,0,14.346023559570312
133521,536346111,641202687,0,-0.2702493369579315,0.19051030278205872,0,14.345888137817383
133531,536346111,641203711,0,-0.2700046896934509,0.19044587016105652,0,14.345192909240723
133541,535297535,641203711,0,-0.26984140276908875,0.19093947112560272,0,14.344625473022461
133551,536346111,641203711,0,-0.26996928453445435,0.19008854031562805,0,14.343761444091797
133561,536346111,641203711,0,-0.2699635922908783,0.18957236409187317,0,14.34390926361084
133571,536346111,641203711,911562551,-0.27027177810668945,0.18983452022075653,22528,14.344085693359375
133581,536346111,641203711,1128876355,-0.2708814740180969,0.1900433897972107,22528,14.342727661132812
133591,536346111,641203711,1229934409,-0.2704358994960785,0.19027024507522583,22528,14.342727661132812
133601,535297535,641203711,1229868873,-0.2709721326828003,0.19103357195854187,22528,14.342732429504395
133611,536346111,641202687,1229934153,-0.27180910110473633,0.1913711428642273,22528,14.342914581298828
133621,536346111,641203711,1213091658,-0.2716910243034363,0.19135618209838867,22528,14.34266185760498
133631,535297534,641202687,1246776903,-0.27218881249427795,0.19129177927970886,22528,14.344232559204102
133641,538443264,640154111,1213222218,-0.27177926898002625,0.19413471221923828,22528,14.347248077392578
133651,535297536,640158206,1196118347,-0.2706085443496704,0.19002443552017212,22528,14.337675094604492
133661,531103230,641201664,1280135493,-0.2708556056022644,0.19317759573459625,22528,14.336323738098145
133671,536346111,643300862,1196118093,-0.269180566072464,0.19178108870983124,22528,14.333805084228516
133681,536347135,644346366,1212895052,-0.27431774139404297,0.1921452432870865,22528,14.33691120147705
133691,535298560,641202685,1196249417,-0.2778250575065613,0.19112898409366608,22528,14.335237503051758
133701,534246912,631765503,1179735108,-0.28042203187942505,0.19463439285755157,22528,14.327302932739258
133711,535297535,631766528,1246645833,-0.2727079689502716,0.19336052238941193,22528,14.319692611694336
133721,533202431,645400063,1279938378,-0.2768484354019165,0.19533641636371613,22528,14.300490379333496
133731,534246910,639106559,1196577347,-0.27779871225357056,0.19840413331985474,22528,14.287884712219238
133741,532152832,642251262,1246450248,-0.2752973735332489,0.19017156958580017,22528,14.262564659118652
133751,530053630,640153087,1263620419,-0.27638840675354004,0.19291619956493378,22528,14.237598419189453
133761,534248960,639105537,1229673033,-0.27230721712112427,0.18257464468479156,22528,14.200302124023438
133771,534248959,640154111,1230000453,-0.26650622487068176,0.17949186265468597,22528,14.190300941467285
133781,535295487,641204735,1146246213,-0.2714497447013855,0.18479597568511963,22528,14.184666633605957
133791,538444286,638054910,1280068169,-0.2641303241252899,0.18748091161251068,50176,14.184569358825684
133801,538445311,638056959,1196247882,-0.27389761805534363,0.1779841184616089,9216,14.208739280700684
133811,543685120,643304960,1095847751,-0.2693493068218231,0.1866125613451004,9216,14.234221458435059
133821,542636542,643300863,1079266115,-0.27021685242652893,0.1939256340265274,61952,14.293742179870605
133831,539492863,639106560,1179339081,-0.26677781343460083,0.19429369270801544,61952,14.32225513458252
133841,537395712,639108605,1128680521,-0.27452388405799866,0.19210262596607208,22016,14.337515830993652
133851,536346111,641204733,1095519043,-0.27843356132507324,0.19999632239341736,49664,14.348469734191895
133861,542638591,644349437,1061963590,-0.29312124848365784,0.20605701208114624,4096,14.368131637573242
133871,538444287,648541696,1028279362,-0.30150121450424194,0.19899581372737885,25600,14.390060424804688
133881,534247936,644349441,1045122108,-0.29678553342819214,0.2050723284482956,48128,14.391778945922852
133891,536345088,648545795,994921531,-0.28983190655708313,0.21347662806510925,6656,14.383374214172363
133901,540542460,648546821,1045250877,-0.2839057743549347,0.22058044373989105,29184,14.404301643371582
133911,544733696,647494147,944457534,-0.2786199748516083,0.21887366473674774,45568,14.438447952270508
133921,541588991,646443523,927745086,-0.26751071214675903,0.21841846406459808,2560,14.50139331817627
133931,540540414,643300868,944391227,-0.2603316009044647,0.2182694971561432,23040,14.529179573059082
133941,541590013,640154112,961167677,-0.2676561772823334,0.20492911338806152,23040,14.56554889678955
133951,545785342,639106563,0,-0.26710090041160583,0.20119333267211914,0,14.611082077026367
133961,548926978,644348419,0,-0.24836038053035736,0.2131337821483612,0,14.699196815490723
133971,548926976,647495169,0,-0.2418050616979599,0.2104242593050003,0,14.77017593383789
133981,544733694,641203713,0,-0.22289055585861206,0.21548910439014435,0,14.855833053588867
133991,541588992,634914305,0,-0.21142995357513428,0.20975276827812195,0,14.890503883361816
134001,542639616,637010430,0,-0.20961536467075348,0.222482368350029,0,14.94328784942627
134011,542636543,640157181,0,-0.21785926818847656,0.23286762833595276,0,14.981297492980957
134021,542636542,643301888,0,-0.21876779198646545,0.23552456498146057,0,15.035935401916504
134031,540541439,639104513,0,-0.21160079538822174,0.23133838176727295,0,15.065401077270508
134041,538443263,639105537,0,-0.21109260618686676,0.230838343501091,0,15.092533111572266
134051,537393663,644350463,0,-0.21709543466567993,0.23580299317836761,0,15.102509498596191
134061,537396735,637007360,0,-0.21133723855018616,0.230791836977005,0,15.113880157470703
134071,537392639,638056960,0,-0.21196945011615753,0.22915388643741608,0,15.118528366088867
134081,539492863,643301887,0,-0.21021848917007446,0.2310256063938141,0,15.135580062866211
134091,538442239,642253309,0,-0.21955594420433044,0.23670727014541626,0,15.151411056518555
134101,538443263,643301887,0,-0.2171110063791275,0.24079452455043793,0,15.166874885559082
134111,535297535,641203712,0,-0.22116206586360931,0.23960061371326447,0,15.169008255004883
134121,532149759,631764480,0,-0.21985606849193573,0.23917528986930847,0,15.150019645690918
134131,533202431,639105535,0,-0.21082346141338348,0.2344120293855667,0,15.130945205688477
134141,532150784,649593344,0,-0.22194693982601166,0.23146960139274597,0,15.103358268737793
134151,532149759,634911232,0,-0.21757225692272186,0.2361627221107483,0,15.08157730102539
134161,535298557,635958784,0,-0.2087532877922058,0.22739185392856598,0,15.059603691101074
134171,536348159,646446591,0,-0.2118549644947052,0.2231348305940628,0,15.05827522277832
134181,536346113,645398014,0,-0.2233302742242813,0.22619183361530304,0,15.064340591430664
134191,536345087,635958783,0,-0.2239987999200821,0.22896404564380646,0,15.067704200744629
134201,536345086,634909183,0,-0.2199476957321167,0.22560057044029236,0,15.071944236755371
134211,537393662,644347390,0,-0.21887309849262238,0.22063817083835602,0,15.076676368713379
134221,536346110,651688447,0,-0.21701397001743317,0.21370090544223785,0,15.082667350769043
134231,536346111,650641920,0,-0.21732084453105927,0.2139170914888382,0,15.087296485900879
134241,535298559,644350464,0,-0.21950890123844147,0.21892787516117096,0,15.089813232421875
134251,536347136,640156161,0,-0.22035261988639832,0.2214665561914444,0,15.093031883239746
134261,535298560,639107584,0,-0.2203395813703537,0.22867393493652344,0,15.09259033203125
134271,535297536,638057984,0,-0.22086109220981598,0.23027974367141724,0,15.094562530517578
134281,534248960,638057983,0,-0.22214791178703308,0.2353304773569107,0,15.090124130249023
134291,534248960,638057983,0,-0.22281254827976227,0.2356528341770172,0,15.09051513671875
134301,534249984,638056959,0,-0.22542597353458405,0.2389063686132431,0,15.081921577453613
134311,535298560,640154111,0,-0.22650280594825745,0.23884867131710052,0,15.082243919372559
134321,536347135,641203711,0,-0.2294708639383316,0.24009475111961365,0,15.080381393432617
134331,536347135,641203711,0,-0.2294699102640152,0.23907455801963806,0,15.080423355102539
134341,537394687,642252287,0,-0.23253273963928223,0.23982466757297516,0,15.081846237182617
134351,537394686,642252287,0,-0.23408888280391693,0.23908795416355133,0,15.080321311950684
134361,537394686,642251264,0,-0.23491370677947998,0.23796004056930542,0,15.082507133483887
134371,536346111,642250239,0,-0.23543989658355713,0.238138809800148,0,15.080094337463379
134381,535297535,641201663,0,-0.23432771861553192,0.23394019901752472,0,15.081465721130371
134391,535297535,641203711,0,-0.234515979886055,0.23236329853534698,0,15.082182884216309
134401,535297536,640157183,0,-0.23510421812534332,0.23285913467407227,0,15.081343650817871
134411,535297535,641204735,0,-0.23537054657936096,0.23263703286647797,0,15.081817626953125
134421,536346110,641202688,0,-0.23442186415195465,0.2344927191734314,0,15.081222534179688
134431,537394687,641201663,0,-0.23494094610214233,0.2363070845603943,0,15.08091926574707
134441,537394688,641202686,0,-0.23488977551460266,0.23399321734905243,0,15.083702087402344
134451,534248959,642253310,0,-0.2349485158920288,0.23025250434875488,0,15.081747055053711
134461,533200382,642252288,0,-0.23551733791828156,0.2308453470468521,0,15.077901840209961
134471,537394687,641201663,0,-0.2371521145105362,0.2340937852859497,0,15.080862998962402
134481,538443264,641202686,0,-0.23780962824821472,0.23436744511127472,0,15.078863143920898
134491,534248959,641203711,0,-0.23711323738098145,0.22997239232063293,0,15.075963020324707
134501,534248958,640154112,0,-0.23793743550777435,0.22889123857021332,0,15.078886985778809
134511,538443263,640154111,0,-0.2378469556570053,0.2285873144865036,0,15.074185371398926
134521,537394687,641203710,0,-0.23615510761737823,0.2262461930513382,0,15.071802139282227
134531,533200382,642252288,0,-0.23796497285366058,0.22735467553138733,0,15.078999519348145
134541,537394687,641202687,0,-0.23956885933876038,0.22884027659893036,0,15.078902244567871
134551,538443263,641203710,0,-0.23759455978870392,0.22624187171459198,0,15.070911407470703
134561,533200382,641203712,0,-0.23821327090263367,0.22629806399345398,0,15.075966835021973
134571,537394687,641202687,0,-0.239032581448555,0.22726809978485107,0,15.079440116882324
134581,537394687,641203710,0,-0.23697680234909058,0.22508729994297028,0,15.074029922485352
134591,533200383,641203711,0,-0.23803332448005676,0.22619235515594482,0,15.077840805053711
134601,537394687,641202687,0,-0.23922158777713776,0.22747333347797394,0,15.080039978027344
134611,536346111,641203711,0,-0.23796063661575317,0.22590263187885284,0,15.072785377502441
134621,534248959,641203711,0,-0.23908552527427673,0.22507821023464203,0,15.076204299926758
134631,537394687,641202687,0,-0.23892256617546082,0.22716112434864044,0,15.07481575012207
134641,535297535,641203711,0,-0.2382076233625412,0.2266250103712082,0,15.073744773864746
134651,536346111,641202687,0,-0.23914147913455963,0.2257867455482483,0,15.075569152832031
134661,536346111,641203711,0,-0.23944586515426636,0.2266043871641159,0,15.072056770324707
134671,535297535,641203711,0,-0.2396087944507599,0.2258344292640686,0,15.074236869812012
134681,536346111,641202687,0,-0.2405572086572647,0.2275373637676239,0,15.07203197479248
134691,535297535,641203711,0,-0.2407272607088089,0.2263752520084381,0,15.072911262512207
134701,536346111,641203711,0,-0.24241213500499725,0.22688959538936615,0,15.072183609008789
134711,535297535,641203711,0,-0.24229854345321655,0.2265736162662506,0,15.072364807128906
134721,536346111,641203711,0,-0.24317830801010132,0.22692547738552094,0,15.07188606262207
134731,535297535,641203711,0,-0.24277788400650024,0.22665579617023468,0,15.071378707885742
134741,536346111,641202687,0,-0.24281224608421326,0.22637762129306793,0,15.072321891784668
134751,535297535,641203711,0,-0.24295388162136078,0.22541502118110657,0,15.071229934692383
134761,536346111,641203711,0,-0.24414123594760895,0.22573617100715637,0,15.072272300720215
134771,535297535,641203711,0,-0.24421051144599915,0.22563153505325317,0,15.07128620147705
134781,536346111,641203711,0,-0.24530671536922455,0.2261318415403366,0,15.072324752807617
134791,535297535,641203711,0,-0.2453896403312683,0.22576192021369934,0,15.072247505187988
134801,536346111,641203711,0,-0.2460908740758896,0.22523179650306702,0,15.07284927368164
134811,535297535,641203711,0,-0.24573232233524323,0.22437480092048645,0,15.072393417358398
134821,536346111,641203711,0,-0.24611534178256989,0.2248106747865677,0,15.072464942932129
134831,535297535,641203711,0,-0.2445451319217682,0.22419601678848267,0,15.072802543640137
134841,536346111,641203711,0,-0.24548770487308502,0.22514811158180237,0,15.072304725646973
134851,535297535,641203711,0,-0.24476823210716248,0.22443930804729462,0,15.073091506958008
134861,536346111,641203711,0,-0.24621181190013885,0.22512118518352509,0,15.071410179138184
134871,536346111,640155135,0,-0.2463049441576004,0.2240113466978073,0,15.072996139526367
134881,536346111,641202687,0,-0.24653476476669312,0.223238006234169,0,15.071076393127441
134891,536346111,641203711,0,-0.2473086565732956,0.22240900993347168,0,15.072647094726562
134901,535297535,641203711,0,-0.24666273593902588,0.22206075489521027,0,15.073736190795898
134911,536346111,641203711,0,-0.24818015098571777,0.2227412611246109,0,15.07325553894043
134921,536346111,641203711,0,-0.24660305678844452,0.2224336564540863,0,15.073721885681152
134931,536346111,641203711,0,-0.2469720095396042,0.2227255254983902,0,15.072845458984375
134941,536346111,641203711,0,-0.24644118547439575,0.22195714712142944,0,15.073958396911621
134951,536346111,641203711,0,-0.24570825695991516,0.22288955748081207,0,15.074102401733398
134961,536346111,641203711,0,-0.24695390462875366,0.2228221893310547,0,15.073864936828613
134971,536346111,641204735,0,-0.2462867647409439,0.22258219122886658,0,15.074654579162598
134981,537395710,641206785,0,-0.24679063260555267,0.22521436214447021,0,15.081175804138184
134991,547880447,641211904,0,-0.24523095786571503,0.22936958074569702,0,15.105818748474121
135001,556269056,642268672,0,-0.24451589584350586,0.263217955827713,0,15.232383728027344
135011,554170880,642269694,0,-0.239541694521904,0.30327659845352173,0,15.33829402923584
135021,542637567,640168445,0,-0.24514460563659668,0.3455928862094879,0,15.444968223571777
135031,532151808,640161277,0,-0.24688628315925598,0.3652860224246979,0,15.455672264099121
135041,522713599,639103485,0,-0.2522670328617096,0.3749912679195404,0,15.3858003616333
135051,520616446,640145918,0,-0.25453832745552063,0.3574067950248718,0,15.311033248901367
135061,523765249,642239999,0,-0.261096715927124,0.3314523994922638,0,15.191734313964844
135071,526907902,641191424,0,-0.26311543583869934,0.3151324987411499,0,15.138362884521484
135081,525859327,641191426,0,-0.2542312443256378,0.2772088646888733,0,15.055489540100098
135091,530054655,641192450,0,-0.24675358831882477,0.2559676766395569,0,15.007059097290039
135101,536346110,641197567,0,-0.24469320476055145,0.23068435490131378,0,14.985028266906738
135111,536346111,641203711,0,-0.24477452039718628,0.22640757262706757,0,14.985342025756836
135121,536346111,641203711,0,-0.24410642683506012,0.22760821878910065,0,14.98543930053711
135131,535297535,641202687,0,-0.24525341391563416,0.2288021296262741,0,14.986553192138672
135141,535297535,641202687,928537401,-0.24548843502998352,0.22897636890411377,38400,14.98523998260498
135151,536346111,641203711,1179339846,-0.2456948161125183,0.22884760797023773,38400,14.985342025756836
135161,536346111,641203711,1213091401,-0.2463865876197815,0.2288232296705246,53760,14.985918045043945
135171,535297535,641202687,1213091656,-0.2452567219734192,0.22773224115371704,53760,14.985841751098633
135181,537394687,641202687,1213156937,-0.2476499080657959,0.23019753396511078,53760,14.986687660217285
135191,535297535,641204735,1229737802,-0.24546116590499878,0.22687840461730957,53760,14.986540794372559
135201,534248959,642251264,1246580297,-0.24667908251285553,0.22821685671806335,53760,14.989441871643066
135211,537394687,642252286,1229868362,-0.24531029164791107,0.22834981977939606,53760,14.985339164733887
135221,537395711,643300863,1229933642,-0.24813540279865265,0.23054815828800201,53760,14.984606742858887
135231,537394688,642253312,1212960331,-0.24873505532741547,0.23108966648578644,53760,14.981870651245117
135241,537395711,640164351,1145852237,-0.25097811222076416,0.23850886523723602,53760,14.98967456817627
135251,534249981,638070270,1297107782,-0.25743791460990906,0.25541919469833374,53760,14.990901947021484
135261,545783296,643305986,1247167562,-0.24945181608200073,0.29712480306625366,53760,15.017205238342285
135271,547882495,646434306,1263354706,-0.2454727739095688,0.3025113046169281,53760,15.079572677612305
135281,544731647,636994048,1029197897,-0.23831002414226532,0.25962141156196594,53760,15.16059684753418
135291,545785343,646442497,1196378191,-0.2381993532180786,0.23853947222232819,53760,15.208233833312988
135301,547879422,634911230,1096436042,-0.23270750045776367,0.23621752858161926,53760,15.288874626159668
135311,543686143,645398014,1146309196,-0.24399246275424957,0.23302797973155975,53760,15.351919174194336
135321,541592057,646447612,1280787271,-0.25783050060272217,0.2106001377105713,53760,15.40107536315918
135331,540540402,637005308,1230719297,-0.2706836760044098,0.16929347813129425,53760,15.4257173538208
135341,544733667,645403132,1365654077,-0.2829709053039551,-0.0051461393013596535,53760,15.476119041442871
135351,551025113,646441473,1432630847,-0.279122531414032,-0.1870627999305725,53760,15.5416898727417
135361,556266959,650620419,1416964412,-0.2546367645263672,-0.5892090797424316,53760,15.689191818237305
135371,560467395,648532482,1600791616,-0.2428358644247055,-0.9102863669395447,53760,15.807412147521973
135381,556273079,651687427,1685656633,-0.2699175775051117,-1.4933791160583496,13312,15.999260902404785
135391,547874219,650641920,1769675815,-0.2489897608757019,-1.9127397537231445,34304,16.098953247070312
135401,543680940,650641919,1652170792,-0.21530649065971375,-2.6058592796325684,61952,16.180709838867188
135411,534236601,639093240,1417557528,-0.18440157175064087,-3.055022954940796,19456,16.197965621948242
135421,534218193,634887672,1149322771,-0.03250595182180405,-3.580517053604126,41472,16.190242767333984
135431,539448812,635942399,929845036,0.17232879996299744,-3.8128821849823,41472,16.202455520629883
135441,552010220,659019267,832258827,0.6200973391532898,-3.983888626098633,64000,16.31088638305664
135451,559347175,653780483,932068628,0.9766048789024353,-4.0909857749938965,19968,16.4433536529541
135461,550945250,661124602,563825165,1.5761934518814087,-4.330058574676514,40960,16.651582717895508
135471,532064747,646442495,695948822,2.026094675064087,-4.476687908172607,512,16.723833084106445
135481,523672030,660085241,1034111232,2.794536828994751,-4.69700813293457,28160,16.715028762817383
135491,519480773,645396991,1152008448,3.251711845397949,-4.925102233886719,55808,16.671655654907227
135501,520551870,630708739,1402942464,3.8550426959991455,-5.393649101257324,15360,16.595678329467773
135511,536281544,640138755,999505408,4.244174480438232,-5.767514228820801,36352,16.59173583984375
135521,559353289,661108227,666449152,4.701657295227051,-6.283204555511475,61952,16.72736930847168
135531,574043600,653764108,815737603,5.006406307220459,-6.602014064788818,45056,16.933879852294922
135541,576143834,651671059,0,5.369988918304443,-7.006950855255127,0,17.305479049682617
135551,562529776,657967635,0,5.574684143066406,-7.195367336273193,0,17.518131256103516
135561,541555207,648532500,0,5.868607521057129,-7.270114421844482,0,17.69097900390625
135571,518485535,657977875,0,6.0453619956970215,-7.152041912078857,0,17.674325942993164
135581,504850997,663221777,0,6.381354331970215,-6.720029354095459,0,17.5028018951416
135591,506937943,652730893,0,6.636740207672119,-6.332212448120117,0,17.364778518676758
135601,518481525,655869452,0,6.9966535568237305,-5.448930263519287,0,17.208284378051758
135611,531074705,645377557,0,7.188320159912109,-4.700930118560791,0,17.167306900024414
135621,540503714,639095312,0,7.485971450805664,-3.4156227111816406,0,17.188831329345703
135631,539434656,651686414,0,7.746955871582031,-2.505496025085449,0,17.22905921936035
135641,528920201,635961875,0,8.345247268676758,-1.2001627683639526,0,17.231739044189453
135651,520528484,623381012,0,8.860079765319824,-0.4943719506263733,0,17.181777954101562
135661,515301951,620237328,0,9.535013198852539,0.25325262546539307,0,17.03569793701172
135671,512187919,622337549,0,9.839587211608887,0.5049266815185547,0,16.909069061279297
135681,517426669,633868815,0,10.176912307739258,0.5492225289344788,0,16.72271728515625
135691,525801937,645401101,0,10.443899154663086,0.3444667458534241,0,16.634798049926758
135701,529983945,642252302,0,10.995973587036133,-0.06488493829965591,0,16.572593688964844
135711,531037657,629669391,0,11.315356254577637,-0.31639719009399414,0,16.55525779724121
135721,531078623,633859601,0,11.693524360656738,-0.6161530017852783,0,16.530717849731445
135731,526876124,649584149,0,11.852364540100098,-0.7718820571899414,0,16.48869514465332
135741,514291165,644351507,0,12.05899429321289,-1.0307645797729492,0,16.370704650878906
135751,509051366,649595415,0,12.286797523498535,-1.1650195121765137,0,16.23883628845215
135761,506927586,648536594,0,12.633060455322266,-1.3363049030303955,0,16.00858497619629
135771,503784946,640161295,0,12.934135437011719,-1.4060022830963135,0,15.841730117797852
135781,512167407,642251277,0,13.41103744506836,-1.4865707159042358,0,15.61478328704834
135791,520561150,645393933,0,13.69722843170166,-1.5052573680877686,0,15.506959915161133
135801,530009612,637005326,0,14.110273361206055,-1.4498330354690552,0,15.436164855957031
135811,536305176,640150036,0,14.322461128234863,-1.333929419517517,0,15.428403854370117
135821,537373215,633860628,0,14.567889213562012,-1.0862714052200317,0,15.445549964904785
135831,533171738,627570200,0,14.706911087036133,-0.9180377125740051,0,15.448105812072754
135841,532118031,629664283,0,14.964816093444824,-0.7383254170417786,0,15.428081512451172
135851,527927817,627568153,0,15.16554069519043,-0.6613399386405945,0,15.398195266723633
135861,522695167,623374874,0,15.355470657348633,-0.6026750206947327,0,15.308902740478516
135871,524789233,622324252,0,15.479314804077148,-0.6240683794021606,0,15.24279499053955
135881,526850534,624422429,0,15.824690818786621,-0.7739376425743103,0,15.170604705810547
135891,527885789,627569181,0,16.178041458129883,-0.9266099333763123,0,15.130391120910645
135901,531035605,630710814,0,16.764907836914062,-1.218929409980774,0,15.086230278015137
135911,531039699,631758369,0,17.104900360107422,-1.4611653089523315,0,15.074213981628418
135921,526841297,630712868,0,17.658018112182617,-1.8617194890975952,0,15.039703369140625
135931,517382611,633858596,0,18.09900665283203,-2.132633924484253,0,14.981731414794922
135941,510041553,633860641,0,18.864355087280273,-2.481928825378418,0,14.824541091918945
135951,512142800,635955743,0,19.395038604736328,-2.7178497314453125,0,14.7067289352417
135961,519482827,637002271,0,20.10567283630371,-3.123239278793335,0,14.570962905883789
135971,525771215,637002269,0,20.593971252441406,-3.376685857772827,0,14.53172779083252
135981,532055520,637001245,0,21.348054885864258,-3.7026100158691406,0,14.528477668762207
135991,538353135,634904094,0,21.857511520385742,-3.846726655960083,0,14.566082000732422
136001,545693173,630708768,0,22.612579345703125,-3.992798328399658,0,14.680954933166504
136011,550936058,624415268,0,23.113113403320312,-4.08008337020874,0,14.79373550415039
136021,556182002,620219944,0,23.853866577148438,-4.273887634277344,0,15.02506160736084
136031,557227486,617074220,0,24.339805603027344,-4.491040229797363,0,15.19814395904541
136041,554083780,614978096,0,25.093883514404297,-5.022648811340332,0,15.442158699035645
136051,545688996,616027698,0,25.6021785736084,-5.528748512268066,0,15.577375411987305
136061,534159755,620222003,0,26.351913452148438,-6.452343463897705,0,15.700932502746582
136071,522642823,625464881,0,26.830223083496094,-7.102451801300049,0,15.720174789428711
136081,514273683,631754286,0,27.373249053955078,-8.016647338867188,0,15.638965606689453
136091,512180651,636995116,0,27.659914016723633,-8.535327911376953,0,15.553328514099121
136101,513220039,638045737,0,28.083816528320312,-9.102359771728516,0,15.413863182067871
136111,518457822,636998182,0,28.39734649658203,-9.325431823730469,0,15.335077285766602
136121,524757489,634900005,681403648,28.843515396118164,-9.453697204589844,57856,15.277377128601074
136131,532110852,631753253,631334400,29.089576721191406,-9.427287101745605,8192,15.280600547790527
136141,540489231,629658150,547906816,29.43603515625,-9.343513488769531,22528,15.353785514831543
136151,545726994,625464872,480471552,29.695226669311523,-9.267951965332031,22528,15.442768096923828
136161,553074178,622315051,565728256,30.098722457885742,-9.264060974121094,22528,15.645193099975586
136171,556230143,619169328,413688832,30.283979415893555,-9.334792137145996,22528,15.810097694396973
136181,557284855,621266484,364205824,30.528383255004883,-9.513923645019531,22528,16.059648513793945
136191,545737201,623366709,800805376,30.752779006958008,-9.625275611877441,22528,16.19690704345703
136201,534201857,624418344,615342080,31.12004852294922,-9.718421936035156,22528,16.305723190307617
136211,527941135,631756339,463237120,31.299367904663086,-9.666226387023926,22528,16.303194046020508
136221,530039315,626508340,530607360,31.441783905029297,-9.484774589538574,22528,16.251773834228516
