Timestamp,compactImu.a_xyz,compactImu.l_xyz,motorCompact.pwms,stabilizer.pitch,stabilizer.roll,stabilizer.thrust,stabilizer.yaw
33630,536346111,641203712,0,0.023508787,0.206557631,0,37.82330704
33640,536346111,641203712,0,0.023713728,0.205826506,0,37.82324982
33650,536346111,641203711,0,0.023573849,0.206641659,0,37.82364273
33660,535297535,641203711,0,0.023977658,0.206719309,0,37.82359314
33670,536346111,641203712,0,0.023959506,0.207832202,0,37.82172394
33680,536346111,641203712,0,0.023988089,0.207913727,0,37.82250977
33690,536346111,641203711,0,0.024262927,0.208131567,0,37.82273865
33700,536346111,641203712,0,0.02422782,0.207546145,0,37.82260895
33710,536346111,641203712,0,0.024836728,0.207840264,0,37.82228088
33720,536346111,641203711,0,0.024515226,0.208819076,0,37.82204056
33730,536346111,641203711,0,0.024336062,0.208671525,0,37.82212448
33740,536346111,641203712,0,0.023768965,0.208289832,0,37.82151031
33750,536346111,641203711,0,0.022580525,0.2085291,0,37.82126999
33760,535297535,641203711,0,0.021537827,0.208358198,0,37.82079697
33770,535297535,641203712,0,0.021697575,0.206781358,0,37.81881332
33780,536346111,641203712,0,0.022104809,0.206299081,0,37.81774521
33790,536346111,641203712,0,0.022338301,0.205895633,0,37.81741333
33800,536346111,641203712,0,0.022473115,0.205705017,0,37.81768417
33810,536346111,641203712,0,0.023647346,0.205512509,0,37.81668472
33820,536346111,641203711,0,0.024044074,0.205752745,0,37.81684494
33830,536346111,641203711,0,0.023344614,0.206326082,0,37.81639862
33840,536346111,641203711,0,0.022353668,0.206846073,0,37.81541443
33850,536346111,641203711,0,0.021097947,0.206880331,0,37.8155098
33860,536346111,641203712,0,0.020866936,0.206914082,0,37.81532288
33870,536346111,641203712,0,0.021076314,0.206820026,0,37.81567764
33880,536346111,641203712,0,0.020511609,0.207032442,0,37.81507492
33890,536346111,641203712,0,0.021244895,0.20866245,0,37.81435776
33900,536346111,641203712,0,0.021641638,0.208984166,0,37.81520462
33910,536346111,641203712,0,0.021581605,0.20954363,0,37.81548309
33920,536346111,641203712,0,0.02147243,0.21008724,0,37.81565857
33930,536346111,641203711,0,0.02107125,0.209394127,0,37.81591034
33940,536346111,641203711,0,0.020896778,0.209883526,0,37.81521225
33950,536346111,641203711,0,0.020293631,0.210402057,0,37.81588745
33960,535297535,641203711,0,0.019951824,0.211102799,0,37.81536865
33970,536346111,641203711,0,0.019130424,0.211314172,0,37.81336212
33980,535297535,641203712,0,0.018606015,0.212278157,0,37.81167603
33990,536346111,642251264,0,0.018592967,0.213192865,0,37.8102951
34000,536346111,641202689,0,0.020814814,0.213718534,0,37.81087494
34010,536346111,641201665,0,0.024223702,0.211599603,0,37.81358337
34020,536346111,641202688,0,0.024749685,0.210054591,0,37.81566238
34030,536346111,641203711,0,0.022271769,0.211733207,0,37.81961823
34040,536346111,641204734,0,0.019577118,0.213916853,0,37.82230759
34050,536346111,641205757,0,0.014252193,0.219467163,0,37.82450485
34060,536346111,641205758,0,0.009119391,0.223541304,0,37.82357788
34070,535297535,641204735,0,0.005520033,0.229387119,0,37.82125854
34080,535297535,641203712,0,0.005915161,0.231471121,0,37.81973267
34090,535297535,641202689,0,0.007629216,0.230611995,0,37.81748962
34100,536346111,641201666,0,0.011432409,0.227287531,0,37.81659317
34110,536346111,641201666,0,0.017578106,0.221656442,0,37.81893921
34120,536346111,641201665,0,0.018914735,0.217204124,0,37.82212448
34130,536346111,641203711,0,0.01656702,0.214595795,0,37.82718277
34140,536346111,641205758,0,0.011772472,0.217449382,0,37.83035278
34150,536346111,641206781,0,0.004506111,0.224454448,0,37.83363342
34160,535297535,641206781,0,-0.000505539,0.229999632,0,37.83350372
34170,535297535,641205758,0,-0.005412267,0.236064911,0,37.82904053
34180,535297535,641203712,0,-0.005653435,0.237462088,0,37.82587433
34190,536346111,641201665,0,-0.002114331,0.23423411,0,37.82237625
34200,536346111,641201666,0,0.001307565,0.230301812,0,37.82177734
34210,536346111,641201666,0,0.007311215,0.223174334,0,37.82292175
34220,536346111,641202689,0,0.010331525,0.220822319,0,37.82487488
34230,536346111,641204735,0,0.010352414,0.220064357,0,37.82925797
34240,536346111,641205758,0,0.008117542,0.222714558,0,37.83207703
34250,536346111,641205758,0,0.003323481,0.228996858,0,37.83385086
34260,535297535,641205758,0,0.000262692,0.232946604,0,37.83325958
34270,535297535,641204735,0,-0.002735728,0.236202702,0,37.83006668
34280,535297535,641203712,0,-0.002307477,0.235256329,0,37.82762909
34290,535297535,641202689,0,0.001324037,0.23112525,0,37.82480621
34300,536346111,641201665,0,0.005604527,0.228000984,0,37.82440567
34310,536346111,641202689,0,0.011080229,0.223300055,0,37.82502747
34320,536346111,641203712,0,0.012967455,0.221575394,0,37.82709122
34330,536346111,641204735,0,0.010975473,0.221805215,0,37.82926941
34340,536346111,641204734,0,0.008236937,0.223586515,0,37.83119965
34350,535297535,641205758,0,0.003676594,0.226689517,0,37.83031845
34360,535297535,641204735,0,0.00239586,0.228508905,0,37.82901001
34370,535297535,641203711,0,0.002203278,0.229813099,0,37.82575989
34380,535297535,641202688,0,0.00354859,0.228250325,0,37.82424545
34390,536346111,641202689,0,0.007056891,0.224877119,0,37.82234955
34400,536346111,641202689,0,0.009715229,0.222590864,0,37.82310104
34410,536346111,641203712,0,0.012345532,0.219676241,0,37.82497406
34420,536346111,641203711,0,0.012108237,0.219487116,0,37.82597351
34430,536346111,641204735,0,0.009389422,0.22159338,0,37.82771301
34440,536346111,641204735,0,0.008243718,0.223446563,0,37.82804871
34450,535297535,641204735,0,0.006155266,0.225485995,0,37.82678604
34460,535297535,641203711,0,0.005177832,0.225761086,0,37.82521057
34470,535297535,641203712,0,0.0056878,0.224610955,0,37.82317352
34480,536346111,641202688,0,0.007477193,0.223232433,0,37.82161713
34490,536346111,641202688,0,0.011002855,0.220354006,0,37.82168579
34500,536346111,641203712,0,0.011846672,0.219002724,0,37.82247543
34510,536346111,641203711,0,0.011887821,0.218093127,0,37.82373047
34520,536346111,641204735,0,0.010546548,0.218417078,0,37.82543945
34530,536346111,641204735,0,0.007812066,0.220276877,0,37.82612228
34540,536346111,641204735,0,0.006478415,0.221600935,0,37.82552719
34550,535297535,641203711,0,0.004863897,0.223628998,0,37.82357788
34560,536346111,641203712,0,0.005347902,0.223582923,0,37.82275391
34570,536346111,641203712,0,0.008323788,0.222660512,0,37.82069016
34580,536346111,641202688,0,0.010031761,0.22192432,0,37.82020569
34590,536346111,641202688,0,0.011056968,0.219820529,0,37.81976318
34600,536346111,641203711,0,0.011170123,0.219041139,0,37.82047653
34610,536346111,641203711,0,0.009447036,0.21938242,0,37.82027435
34620,536346111,641204735,0,0.008903297,0.22032398,0,37.8198967
34630,536346111,641204735,0,0.007173427,0.222378448,0,37.81946945
34640,535297535,641203711,0,0.006586074,0.223991886,0,37.81856537
34650,535297535,641203711,0,0.006975954,0.223999068,0,37.81636429
34660,536346111,641203712,0,0.007528781,0.223489746,0,37.81505203
34670,536346111,641202688,0,0.008318386,0.222134575,0,37.81536865
34680,536346111,641203712,0,0.009448032,0.220862806,0,37.81505966
34690,536346111,641203712,0,0.010410056,0.22050108,0,37.81535339
34700,536346111,641203711,0,0.00969917,0.22111176,0,37.81510162
34710,536346111,641203711,0,0.008796421,0.221020043,0,37.81624222
34720,536346111,641204735,0,0.008140625,0.221289963,0,37.81593323
34730,536346111,641203711,0,0.008220266,0.223286927,0,37.81529617
34740,536346111,641203712,0,0.008937987,0.223141178,0,37.81484604
34750,536346111,641203712,0,0.010459167,0.22233662,0,37.81336212
34760,536346111,641202688,0,0.011498066,0.221288905,0,37.81337357
34770,536346111,641203712,0,0.011825677,0.220457435,0,37.81221008
34780,536346111,641203712,0,0.011972651,0.220306411,0,37.81252289
34790,536346111,641203711,0,0.01202214,0.221929893,0,37.81346512
34800,536346111,641203711,0,0.011663415,0.223394573,0,37.81377029
34810,536346111,641203711,0,0.010123148,0.223779574,0,37.81278229
34820,536346111,641203711,0,0.009346264,0.224041358,0,37.81249237
34830,536346111,641203711,0,0.008715553,0.224496245,0,37.8125267
34840,536346111,641203712,0,0.008031276,0.223994285,0,37.81188202
34850,536346111,641203712,0,0.009069339,0.223206878,0,37.81143951
34860,536346111,641203712,0,0.009206466,0.223250851,0,37.81269836
34870,536346111,641203712,0,0.009933074,0.223071396,0,37.81292725
34880,536346111,641203711,0,0.010752331,0.22284618,0,37.81362915
34890,536346111,641203711,0,0.011336989,0.223244995,0,37.81308746
34900,536346111,641203711,0,0.011146188,0.224228784,0,37.81365204
34910,535297535,641203711,0,0.010879588,0.225124285,0,37.81202698
34920,536346111,641203712,0,0.010970161,0.225979432,0,37.81166458
34930,536346111,641203712,0,0.012094525,0.225625902,0,37.8106842
34940,536346111,641203712,0,0.012546481,0.225235656,0,37.81019592
34950,536346111,641203712,0,0.012401465,0.224875569,0,37.80946732
34960,536346111,641203711,0,0.012934191,0.224928156,0,37.81014252
34970,536346111,641203711,0,0.012916991,0.225014746,0,37.80931854
34980,536346111,641203711,0,0.012532728,0.225268513,0,37.8088913
34990,536346111,641203711,0,0.011823875,0.226161033,0,37.80866623
35000,536346111,641203711,0,0.011586029,0.225838467,0,37.80910873
35010,536346111,641203711,0,0.011728085,0.22569783,0,37.8094368
35020,536346111,641203712,0,0.012380463,0.22558251,0,37.80818558
35030,536346111,641203712,0,0.012724068,0.225027651,0,37.80752945
35040,536346111,641203712,0,0.012823428,0.224689692,0,37.80761719
35050,536346111,641203712,0,0.013153899,0.224382788,0,37.80749512
35060,536346111,641203711,0,0.012928179,0.224449053,0,37.80702972
35070,536346111,641203711,0,0.012032724,0.224844113,0,37.8071785
35080,536346111,641203711,0,0.011963375,0.225049227,0,37.80673218
35090,535297535,641203711,0,0.011647908,0.225002989,0,37.80546951
35100,536346111,641203712,0,0.0123397,0.224481553,0,37.80447006
35110,536346111,641203712,0,0.012437261,0.225541309,0,37.80493164
35120,536346111,641203712,0,0.012570608,0.225498021,0,37.80452347
35130,536346111,641203712,0,0.013149163,0.224865034,0,37.80360031
35140,536346111,641203712,0,0.013948039,0.224743038,0,37.80348587
35150,536346111,641203711,0,0.013636422,0.224468619,0,37.80342102
35160,536346111,641203711,0,0.01298832,0.224785656,0,37.80293274
35170,536346111,641203711,0,0.012589069,0.224766225,0,37.80234146
35180,536346111,641203711,0,0.012399929,0.225239411,0,37.80262375
35190,536346111,641203712,0,0.01293854,0.225368574,0,37.80264664
35200,536346111,641203712,0,0.013880322,0.225663334,0,37.80246735
35210,536346111,641203712,0,0.014076391,0.22480537,0,37.80210495
35220,536346111,641203712,0,0.014080126,0.225368068,0,37.80146027
35230,536346111,641203712,0,0.015052333,0.2258517,0,37.80060959
35240,536346111,641203711,0,0.014816358,0.226096749,0,37.80088806
35250,536346111,641203711,0,0.013921513,0.22695978,0,37.80061722
35260,536346111,641203711,0,0.013893769,0.227100313,0,37.8011322
35270,536346111,641203711,0,0.013545941,0.227194071,0,37.8012352
35280,536346111,641203711,0,0.013744774,0.226515964,0,37.80179596
35290,536346111,641203712,0,0.014045704,0.22775425,0,37.79994583
35300,536346111,641203712,0,0.014072405,0.227260992,0,37.80000305
35310,536346111,641203711,0,0.014791744,0.226609886,0,37.79932404
35320,536346111,641203712,0,0.014489674,0.226570651,0,37.79935074
35330,536346111,641203711,0,0.014187924,0.22656244,0,37.80046082
35340,536346111,641203711,0,0.013858306,0.226449206,0,37.80046463
35350,536346111,641203711,0,0.013297452,0.226093635,0,37.80071259
35360,536346111,641203711,0,0.013134936,0.226300731,0,37.79980469
35370,536346111,641203711,0,0.012858234,0.225664183,0,37.79930115
35380,536346111,641203711,0,0.012587153,0.225630462,0,37.79970932
35390,535297535,641203712,0,0.013621215,0.225015,0,37.79797745
35400,535297535,641203712,0,0.013416103,0.225051731,0,37.79628372
35410,536346111,641203712,0,0.014554477,0.224706784,0,37.79527283
35420,536346111,641203712,0,0.015348402,0.224923298,0,37.79603958
35430,536346111,641203712,0,0.016520835,0.22587052,0,37.79514694
35440,536346111,641203711,0,0.016300907,0.225702822,0,37.79505539
35450,536346111,641203711,0,0.016469918,0.225530088,0,37.79459763
35460,535297535,641203711,0,0.016340077,0.225225613,0,37.79305267
35470,536346111,641203712,0,0.016048277,0.226636559,0,37.79193497
35480,536346111,641203712,0,0.016475897,0.225940943,0,37.79229736
35490,536346111,641203712,0,0.017556973,0.224364728,0,37.79230499
35500,535297535,641203711,0,0.018487837,0.224302292,0,37.7921524
35510,536346111,641203711,0,0.018195812,0.22430402,0,37.79034042
35520,536346111,641203712,0,0.018791463,0.22482264,0,37.78984451
35530,536346111,641203711,0,0.019018913,0.224680886,0,37.78973389
35540,536346111,641203711,0,0.019040659,0.224636391,0,37.78918839
35550,536346111,641203711,0,0.019442359,0.224016428,0,37.78834152
35560,536346111,641203711,0,0.0201382,0.224307925,0,37.7881279
35570,536346111,641203711,0,0.020968582,0.223664001,0,37.78726578
35580,536346111,641203711,0,0.021754725,0.223479047,0,37.78763962
35590,536346111,641203712,0,0.022024648,0.223100916,0,37.78686905
35600,535297535,641203712,0,0.022646237,0.223264709,0,37.78624344
35610,536346111,641203712,0,0.022989253,0.223344371,0,37.78577042
35620,535297535,641203711,0,0.02230753,0.223444968,0,37.78438568
35630,535297535,641203711,0,0.021873223,0.223827451,0,37.78299332
35640,536346111,641203711,0,0.021613101,0.223542809,0,37.78225327
35650,536346111,641203711,0,0.022032769,0.223426074,0,37.78171158
35660,536346111,641203711,0,0.022322653,0.223125041,0,37.78185272
35670,536346111,641203711,0,0.022807393,0.223690972,0,37.78120422
35680,536346111,641203711,0,0.022339243,0.223116547,0,37.7806015
35690,536346111,641203711,0,0.021977298,0.221873075,0,37.78100204
35700,536346111,641203711,0,0.021869354,0.222338572,0,37.78087616
35710,536346111,641203711,0,0.021903781,0.222134188,0,37.78014374
35720,536346111,641203711,0,0.022403814,0.221506685,0,37.77961349
35730,536346111,641203711,0,0.022783279,0.221010894,0,37.77909851
35740,536346111,641203711,0,0.023302726,0.22165364,0,37.77800751
35750,536346111,641203711,0,0.022987658,0.221829534,0,37.77681351
35760,536346111,641203712,0,0.022535166,0.221597418,0,37.77656555
35770,536346111,641203712,0,0.022721911,0.222171158,0,37.77675247
35780,536346111,641203711,0,0.023056913,0.222628534,0,37.77698135
35790,536346111,641203711,0,0.022720834,0.22304064,0,37.7775383
35800,535297535,641203711,0,0.022754414,0.223019525,0,37.77690125
35810,536346111,641203711,0,0.022948373,0.223037645,0,37.77596664
35820,536346111,641203711,0,0.022631297,0.222725019,0,37.776474
35830,536346111,641203711,0,0.021865556,0.222423598,0,37.7767868
35840,535297535,641203712,0,0.021691347,0.221832871,0,37.77571106
35850,536346111,641203711,0,0.021487495,0.221239105,0,37.77492905
35860,535297535,641203711,0,0.02136451,0.220704123,0,37.77369308
35870,536346111,641203711,0,0.020241739,0.221480295,0,37.77258301
35880,535297535,641203711,0,0.02031846,0.222004101,0,37.77275085
35890,536346111,641203711,0,0.019863602,0.222129598,0,37.77198029
35900,535297535,641203711,0,0.019924603,0.221663877,0,37.77145767
35910,536346111,641203712,0,0.019311417,0.22187461,0,37.76988983
35920,536346111,641203712,0,0.019725731,0.221759409,0,37.76976395
35930,536346111,641203712,0,0.020047497,0.221268967,0,37.76937485
35940,536346111,641203712,0,0.020104758,0.220395356,0,37.76852798
35950,536346111,641203712,0,0.019789828,0.220665261,0,37.76860046
35960,536346111,641203711,0,0.019620568,0.220506653,0,37.76911163
35970,536346111,641203711,0,0.019203017,0.22072427,0,37.76939392
35980,536346111,641203711,0,0.018467903,0.22130914,0,37.76863861
35990,536346111,641203711,0,0.017592663,0.22168754,0,37.76808929
36000,536346111,641203711,0,0.017438462,0.221872032,0,37.76744461
36010,536346111,641203712,0,0.017118154,0.221198067,0,37.76659012
36020,536346111,641203712,0,0.016877498,0.221644983,0,37.76610947
36030,536346111,641203712,0,0.016879043,0.222599462,0,37.76527786
36040,536346111,641203711,0,0.016096322,0.223432615,0,37.76578522
36050,536346111,641203711,0,0.016535321,0.223812357,0,37.76551437
36060,536346111,641203711,0,0.017527483,0.224769697,0,37.76503372
36070,536346111,641203711,0,0.017180609,0.22582233,0,37.76448059
36080,536346111,641203712,0,0.017094517,0.225093797,0,37.76400375
36090,536346111,641203712,0,0.017641077,0.226420447,0,37.76280212
36100,535297535,641203712,0,0.017244354,0.226424292,0,37.76186752
36110,536346111,641203711,0,0.017169565,0.225875258,0,37.76045227
36120,536346111,641203712,0,0.017387649,0.226166189,0,37.76040649
36130,536346111,641203711,0,0.01702282,0.226472184,0,37.76081848
36140,536346111,641203711,0,0.016862661,0.226454198,0,37.76058578
36150,536346111,641203711,0,0.016672673,0.226848587,0,37.76097488
36160,536346111,641203712,0,0.016913999,0.227055132,0,37.76062775
36170,536346111,641203711,0,0.017045189,0.227557331,0,37.7590065
36180,535297535,641203711,0,0.017000461,0.227370754,0,37.75864792
36190,536346111,641203711,0,0.017369298,0.226884842,0,37.75725174
36200,535297535,641203712,0,0.017630812,0.226660937,0,37.75649261
36210,536346111,641203712,0,0.018468922,0.226069137,0,37.75556946
36220,536346111,641203711,0,0.017882593,0.226218984,0,37.75500107
36230,536346111,641203711,0,0.016590504,0.225433379,0,37.75532532
36240,536346111,641203711,0,0.016289458,0.225239351,0,37.75549316
36250,536346111,641203711,0,0.015389998,0.226299867,0,37.75595856
36260,536346111,641203711,0,0.015586827,0.225705832,0,37.75546646
36270,536346111,641203712,0,0.015742889,0.225684494,0,37.75415802
36280,536346111,641203712,0,0.016378917,0.226080939,0,37.75344849
36290,536346111,641203711,0,0.016841384,0.226718709,0,37.75354385
36300,536346111,641203711,0,0.015869537,0.226527408,0,37.75341797
36310,536346111,641203711,0,0.015496164,0.226402968,0,37.75357819
36320,536346111,641203711,0,0.014283029,0.227189884,0,37.75288773
36330,536346111,641203711,0,0.01399004,0.227404058,0,37.7530098
36340,536346111,641203711,0,0.013439831,0.22846885,0,37.75296402
36350,536346111,641203712,0,0.013629096,0.228949293,0,37.75317383
36360,536346111,641203712,0,0.014037821,0.228785187,0,37.75297165
36370,535297535,641203712,0,0.013907519,0.228721738,0,37.75134277
36380,536346111,641203712,0,0.013962344,0.229061559,0,37.75050354
36390,536346111,641203712,0,0.014266786,0.229629621,0,37.75017548
36400,536346111,641203711,0,0.014596947,0.230358392,0,37.74932098
36410,536346111,641203711,0,0.014591146,0.2310078,0,37.7493515
36420,536346111,641203711,0,0.014237164,0.231461778,0,37.74843216
36430,536346111,641203711,0,0.01427511,0.231224746,0,37.74783707
36440,536346111,641203711,1027949885,0.013778581,0.230938017,57856,37.74742889
36450,536346111,641203711,1078413376,0.013238666,0.230836883,8192,37.74668503
36460,536346111,641203711,1112164931,0.013135674,0.230406299,22528,37.7462883
36470,536346111,641203712,1162693957,0.012702863,0.229199558,38400,37.7467804
36480,535297535,641203711,1162628421,0.013021324,0.228669718,38400,37.7465744
36490,537394687,641203711,1196445512,0.012774847,0.230931059,53760,37.74744797
36500,534248959,641204736,1196380231,0.013379953,0.229751974,53760,37.7461319
36510,537394687,641202688,1179733576,0.013446929,0.231210113,53760,37.7552681
36520,538443263,641203711,1196445512,0.012455663,0.231411085,53760,37.74567795
36530,531103231,641202686,1246581573,0.009455712,0.231947228,22528,37.73727036
36540,535297536,640156157,1196380233,0.007666142,0.232582599,22528,37.75382996
36550,536346111,639107581,1196445768,-0.002235545,0.235131741,22528,37.74765015
36560,535296511,635961853,1162957637,-0.007277583,0.239156887,22528,37.74549866
36570,536345086,637008382,1196642117,-0.007809488,0.241492614,22528,37.74465942
36580,535298559,645396989,1196314697,-0.010536416,0.239296138,22528,37.7443924
36590,534247936,649592318,1162826823,-0.017167466,0.242229566,22528,37.73794174
36600,535296510,642251263,1230196804,-0.018091012,0.243914828,22528,37.72960281
36610,535298559,638059008,1212960842,-0.014747297,0.238045275,22528,37.72019577
36620,539489790,641204735,1146442308,-0.014760107,0.240997627,22528,37.72338867
36630,540541439,639104512,1146244682,-0.011576281,0.238198236,22528,37.75630951
36640,543687166,644348416,1179798603,-0.011738361,0.231674597,22528,37.79130173
36650,541588991,643300864,1096306758,-0.014368822,0.228985429,22528,37.84649277
36660,539491840,640155136,1112232783,-0.009292318,0.224014834,22528,37.87220764
36670,537393662,642253310,1213615428,-0.014403314,0.232307851,22528,37.88964081
36680,539490815,643300863,1129861699,-0.015652666,0.232295245,22528,37.90042877
36690,539490815,637007360,1062753092,-0.004189373,0.221729606,22528,37.92759705
36700,541590016,635961855,1078874958,-0.000763967,0.219305202,22528,37.95843506
36710,538445311,641203709,1246448208,-0.007838323,0.23150304,22528,37.98298645
36720,536346110,644348414,1280461382,-0.014519753,0.234489843,22528,37.98768616
36730,547882495,642252287,1129662032,-0.021430759,0.231810182,22528,38.03676987
36740,551028223,644347393,1179862608,-0.020837231,0.22805509,22528,38.11248016
36750,545783294,642251267,1012747593,-0.021747865,0.219298705,22528,38.21814728
36760,546831872,643299841,928470858,-0.02858063,0.213430926,22528,38.26885605
36770,545785345,641202688,944918867,-0.031555403,0.21727854,22528,38.34721756
36780,545780222,640156161,1079659848,-0.015600353,0.218183458,22528,38.39761734
36790,546832898,642250243,894587477,-0.020846227,0.219905734,22528,38.48365402
36800,545781246,642253319,1045974603,-0.0091072,0.221519798,22528,38.54421234
36810,548931073,646449674,978471769,-0.002859939,0.231191799,22528,38.6325531
36820,553122303,643304972,1079330642,0.014051166,0.250272661,22528,38.71536255
36830,556273152,647497224,1062616158,0.022231229,0.256212354,22528,38.86319733
36840,557318653,640153091,962021973,0.014066722,0.249891728,22528,38.97367859
36850,557316607,637005307,879838278,0.032638256,0.230947554,22528,39.14306641
36860,559413756,639105521,812470337,0.0086111,0.207409769,22528,39.26057434
36870,559412736,637007347,761743443,-0.006636827,0.203198999,22528,39.44634628
36880,557317630,644350461,995968082,-0.003988775,0.207483724,22528,39.56212997
36890,554173953,644348422,978992733,-0.027601145,0.205614001,22528,39.72032928
36900,546832892,639105543,1080051018,-0.029163502,0.199721456,22528,39.79407501
36910,544735742,641202687,1063273293,-0.011200149,0.188649744,22528,39.8675766
36920,547883522,644350461,928402518,-0.012587676,0.185156628,22528,39.92478561
36930,548928000,644347389,945636438,-0.017527182,0.212247387,22528,40.02571487
36940,551019005,626520567,794972493,-0.036867056,0.190627798,22528,40.10005951
36950,551022068,632814068,1031420989,-0.027987249,0.168918863,22528,40.21708679
36960,554176007,651692544,760565853,-0.029707802,0.160830066,22528,40.30713272
36970,555222526,647495179,996358233,-0.017473588,0.193830848,22528,40.45563889
36980,554169850,638056959,997081158,-0.018144885,0.190067336,22528,40.55472183
36990,551029243,634913279,912866897,-0.032067638,0.164374813,22528,40.68815994
37000,549979647,638057991,928859733,-0.022882288,0.195364922,22528,40.76493454
37010,548923908,638054908,711478353,0.009951384,0.189037189,22528,40.87457657
37020,552077820,641202681,979779918,0.000938978,0.191809297,22528,40.94696808
37030,551025154,635961864,711084378,-0.022809766,0.197901517,22528,41.0761795
37040,547884538,642251263,1063533648,-0.010999043,0.180352941,22528,41.14861679
37050,546835969,652739065,895238748,-0.045980807,0.179071024,22528,41.23345566
37060,541588994,639106565,1012810322,-0.043873444,0.201512903,22528,41.27556992
37070,541585919,639105529,744771407,-0.021645404,0.165563047,22528,41.31820297
37080,538443265,639108603,811618127,-0.040039953,0.183235034,22528,41.33433533
37090,540540414,637011458,996622923,-0.023797242,0.21046339,22528,41.36249161
37100,539493888,651691516,878660177,-0.007944441,0.192065388,22528,41.38993454
37110,542640637,642252295,929055573,-0.049590804,0.210153505,22528,41.42608261
37120,539490814,642252294,962872652,-0.028132562,0.205581456,22528,41.45217133
37130,537391620,641206777,761221203,-0.041406881,0.214582071,22528,41.47273254
37140,537391613,633865729,929253453,-0.034270577,0.240235388,22528,41.47907639
37150,533201409,645398009,895700554,-0.010317435,0.235735819,22528,41.47513199
37160,536350204,647499261,912280143,-0.048022579,0.234349906,22528,41.47550583
37170,535292415,633863687,744969543,-0.039169248,0.21272473,22528,41.47490311
37180,537399812,648545791,945309528,-0.02061563,0.212957084,22528,41.47998428
37190,540543484,640154118,1130117463,-0.057459652,0.235206634,22528,41.50127411
37200,540541438,646441470,1013006418,-0.033607241,0.210892305,22528,41.52698517
37210,542636548,641205753,694046808,-0.038747061,0.238806725,22528,41.57505417
37220,540537343,631768573,694833737,-0.05541645,0.228921756,22528,41.60500336
37230,540554752,644352504,1196569444,-0.057117417,0.240754128,22528,41.64398956
37240,539495930,649594375,912606798,-0.0870791,0.23972328,22528,41.66324615
37250,541590018,651686407,912409428,-0.072258383,0.223729923,22528,41.70290375
37260,541591037,642251263,979255383,-0.072487257,0.210771859,22528,41.73122406
37270,543684092,632809980,1113862998,-0.047999334,0.211527064,22528,41.78284073
37280,546833921,644347381,812009042,-0.054140966,0.198679447,22528,41.83330917
37290,543684093,637009407,695028557,-0.078185275,0.201555088,22528,41.90525055
37300,540548608,642253311,895239257,-0.069208682,0.194989845,22528,41.94211578
37310,540542462,643298818,1079851098,-0.088154972,0.216864213,22528,41.9772377
37320,540540418,641204736,662065727,-0.105876915,0.219966009,22528,42.00159073
37330,538444286,640154113,911950682,-0.123352006,0.246998042,22528,42.0297699
37340,536346108,631764479,946291788,-0.107278332,0.235612914,22528,42.03491974
37350,536354300,648547828,1180841043,-0.137683257,0.240201205,22528,42.03704071
37360,541591040,639106561,728059218,-0.163093165,0.22908853,22528,42.05021286
37370,539492858,641204739,745950274,-0.169279948,0.204014733,22528,42.09107971
37380,539493892,632817158,777735002,-0.155966073,0.224358648,22528,42.11156082
37390,538460670,644346366,1430200952,-0.138868153,0.217083663,22528,42.13983917
37400,536351226,639103491,1214132823,-0.157479376,0.243457168,22528,42.14809799
37410,532156923,645396991,1012679253,-0.149378702,0.176258624,22528,42.13411713
37420,530053631,648548860,895830348,-0.161566019,0.202794597,22528,42.1079483
37430,527954428,633860608,1064715317,-0.130155072,0.208622411,22528,42.04772949
37440,526907903,650639870,526213713,-0.148182303,0.15589568,22528,42.00011826
37450,529003006,619183621,846156094,-0.129176632,0.177103817,22528,41.9355278
37460,533203461,647496186,777998162,-0.127255872,0.183909819,22528,41.90714645
37470,534255099,645395973,945505878,-0.151664957,0.176997691,22528,41.88883209
37480,534255101,652735999,1264464468,-0.147819787,0.173801854,22528,41.88073349
37490,534266364,637009411,1347890523,-0.215175793,0.171275958,22528,41.86772537
37500,535301628,647493116,1348807757,-0.174119338,0.156610951,22528,41.85671616
37510,534245887,634916345,661018443,-0.213211879,0.172839314,22528,41.84534836
37520,535294452,630717948,1199912238,-0.214756921,0.195688635,22528,41.83840179
37530,530047497,645404164,509437008,-0.198696017,0.184970662,22528,41.80841446
37540,523763190,628621831,1296905822,-0.150261015,0.174895644,22528,41.75572205
37550,524811787,645399041,1313815128,-0.159139782,0.242120922,22528,41.6581192
37560,530055675,638054916,946096203,-0.174236134,0.202557564,22528,41.61439133
37570,534236667,646448635,831213093,-0.155608028,0.193715617,22528,41.58594513
37580,530053630,637008386,693655638,-0.154808566,0.174487218,22528,41.56311798
37590,530044411,644345338,763057457,-0.125419274,0.166061252,22528,41.51617432
37600,527953408,627574270,744576588,-0.126659647,0.177514926,22528,41.47338486
37610,526907902,642254330,1029065298,-0.109251864,0.148478821,22528,41.40515137
37620,526923260,643301888,1197685833,-0.149734929,0.175733954,22528,41.34978104
37630,532159995,632809985,781210653,-0.170580998,0.147288591,22528,41.30337906
37640,533200380,647500289,745034823,-0.147311613,0.141566664,22528,41.28274155
37650,531100154,625476098,1330131812,-0.103064254,0.119570732,22528,41.24767685
37660,531101197,642256384,827543642,-0.12524572,0.150537208,22528,41.2205162
37670,531108345,629670406,1046758727,-0.131957188,0.158460334,22528,41.17947388
37680,533190140,643301885,1300640809,-0.104342207,0.203776568,22528,41.15855789
37690,533203453,647495171,541876578,-0.135604158,0.149662346,22528,41.1337471
37700,533205506,650636792,1597383033,-0.102894731,0.179639116,22528,41.12441635
37710,532141577,639101437,761746757,-0.150569677,0.206472516,22528,41.09521866
37720,532153846,653785596,1281111377,-0.127249286,0.172562853,22528,41.07189178
37730,531110402,641203709,1096630862,-0.188062266,0.191215426,22528,41.03212738
37740,533201399,643296764,895765322,-0.199394464,0.144973889,22528,41.01578522
37750,530060801,627576321,1197555018,-0.216745615,0.184523702,22528,40.9821167
37760,529005047,641204734,862474307,-0.223503172,0.151078328,22528,40.93830109
37770,530052606,644353534,880300593,-0.212081164,0.163797766,22528,40.88947296
37780,531103232,632814077,962021973,-0.172490925,0.17505458,22528,40.85312653
37790,529032702,653791744,1564027248,-0.235191181,0.187127694,22528,40.80971146
37800,529014277,642253313,1245198962,-0.200024173,0.177531928,22528,40.76803207
37810,530052596,653787645,999180827,-0.205962881,0.183839142,22528,40.7238884
37820,527945218,632815105,442788678,-0.211550668,0.166454509,22528,40.68444061
37830,527958533,645396992,677470533,-0.165306985,0.161826,22528,40.61707687
37840,530056701,637008378,844125018,-0.175454274,0.160423189,22528,40.58251953
37850,528988673,639107581,631137032,-0.144790381,0.169783697,22528,40.52878571
37860,530047471,629672454,798315798,-0.111704439,0.145347595,22528,40.49464035
37870,527964681,654836218,978276438,-0.102685243,0.169843271,22528,40.43868637
37880,529015299,638057984,708992103,-0.155093133,0.15866679,22528,40.40334702
37890,530060793,646445568,1215185209,-0.127996683,0.148920089,22528,40.35186386
37900,532153859,635957764,894848853,-0.135162726,0.141491264,22528,40.32804108
37910,535278072,656932347,664034327,-0.084074415,0.124317445,22528,40.31032181
37920,534252021,630714884,965232930,-0.074610204,0.133781403,43008,40.30513
37930,531110395,643298814,895569989,-0.076502539,0.041558418,43008,40.28756332
37940,529017345,637008383,1363292258,-0.03830773,0.070546679,30208,40.25424957
37950,530051577,648543742,762533677,-0.037503708,0.023582894,30208,40.1995697
37960,534241793,639100411,627857465,-0.025983663,0.017068068,52224,40.18093872
37970,534248960,640154109,560225087,-0.02854252,-0.009900534,10752,40.17219543
37980,534249979,640156162,896615473,-0.035602145,0.01800598,37376,40.16558838
37990,531103241,652737016,374368075,-0.036289614,-0.016189607,60416,40.139328
38000,529003018,635958787,222981458,-0.053487442,0.029750239,17408,40.11409378
38010,527957490,644350464,964117533,-0.038874686,0.020352058,38400,40.0550766
38020,526906876,634910204,778783274,-0.04016405,-0.010146408,59392,40.01559067
38030,525863426,648543739,574904906,-0.03031062,-0.050439402,20992,39.93709564
38040,526922242,634915332,1028471109,-0.062088013,0.00884674,47104,39.89096832
38050,526910976,644348414,710234167,-0.096286125,0.000700982,47104,39.81420135
38060,524817925,643303934,575623743,-0.112300858,0.036617767,34304,39.76488113
38070,526905858,628623877,575951923,-0.133943632,0.068037935,40960,39.68143845
38080,529010172,639109628,711018284,-0.124720246,0.079286151,40960,39.63409805
38090,535296516,640154108,0,-0.155600414,0.124444902,0,39.60742569
38100,538436094,656935417,0,-0.142517567,0.076042876,0,39.6055603
38110,539490818,642250241,0,-0.128994212,0.113666192,0,39.63527679
38120,539492865,637005317,0,-0.114895657,0.095839001,0,39.65439606
38130,544736765,639103483,0,-0.108865127,0.08772774,0,39.69613647
38140,548926975,639104503,0,-0.10513857,0.078706555,0,39.75424576
38150,551025149,638056953,0,-0.116168045,0.074585207,0,39.87136841
38160,549977598,635960825,0,-0.119205683,0.071657494,0,39.95111084
38170,554171903,634909181,0,-0.126843929,0.06505277,0,40.07314301
38180,552075774,637006340,0,-0.119663574,0.063250765,0,40.17417908
38190,543686141,640157184,0,-0.115226693,0.06382224,0,40.2745285
38200,539491839,642255361,0,-0.115646586,0.071488246,0,40.30611801
38210,538443263,643300864,0,-0.115181506,0.077278495,0,40.32773972
38220,536346111,644350464,0,-0.109890588,0.077125885,0,40.33064651
38230,538442239,638062078,0,-0.112166502,0.088055216,0,40.34095764
38240,537393664,647497215,0,-0.117722288,0.094204552,0,40.34410858
38250,534248958,634909186,0,-0.108934231,0.091176517,0,40.34864426
38260,535298559,646449664,0,-0.110310994,0.092223093,0,40.3406105
38270,536345086,630715904,0,-0.104675978,0.091922767,0,40.34156418
38280,536348159,652734974,0,-0.112122767,0.087045245,0,40.34564972
38290,534246910,635960831,0,-0.104655989,0.080948763,0,40.33296967
38300,536348159,648545792,0,-0.103793338,0.084637009,0,40.33027649
38310,537394687,639105535,0,-0.111902706,0.091261581,0,40.34002686
38320,537393662,633863680,0,-0.106964894,0.088939838,0,40.35393906
38330,536347136,643301887,0,-0.109388262,0.089910522,0,40.3566246
38340,535297536,637008382,0,-0.111596137,0.095425464,0,40.35583496
38350,536345086,638056960,0,-0.107235424,0.095385119,0,40.34870911
38360,535297534,647495168,0,-0.103845693,0.092224181,0,40.34592438
38370,535297535,644349439,0,-0.10409037,0.09458112,0,40.34028244
38380,535297536,640154112,0,-0.103170618,0.094974346,0,40.33905411
38390,536345087,639105536,0,-0.102966636,0.09759111,0,40.33619308
38400,537393662,644348415,0,-0.100754753,0.09548787,0,40.33514404
38410,537394686,644349439,0,-0.098931059,0.094563253,0,40.33717346
38420,537394686,643301888,0,-0.098852932,0.094626479,0,40.33545685
38430,537395710,642253311,0,-0.099201798,0.09473753,0,40.33536148
38440,536347135,640155135,0,-0.098746412,0.09523809,0,40.33612061
38450,536347135,639107583,0,-0.101275228,0.097662479,0,40.33675385
38460,536347136,639107583,0,-0.101534821,0.098666213,0,40.33455658
38470,536347135,639107583,0,-0.105063617,0.10222543,0,40.33420944
38480,535298560,639106559,0,-0.107117511,0.102211058,0,40.33288574
38490,534248959,640156160,0,-0.109574161,0.106701694,0,40.32872009
38500,533200384,641203711,0,-0.108529076,0.109124973,0,40.32955551
38510,535297535,642252286,0,-0.110138148,0.113060012,0,40.31983948
38520,537394687,641203710,0,-0.111349508,0.111608811,0,40.3135376
38530,538443263,641204734,0,-0.114900693,0.114058249,0,40.31374359
38540,537394686,641203711,0,-0.116070233,0.117125042,0,40.31211853
38550,536345086,642252288,0,-0.118330464,0.119828142,0,40.31465912
38560,536345086,642251265,0,-0.120046712,0.121776864,0,40.31510544
38570,537394687,642251264,0,-0.114396736,0.119551882,0,40.31529999
38580,536347135,641202688,0,-0.109903291,0.116164319,0,40.31554794
38590,534248960,641203711,0,-0.108561821,0.115124904,0,40.31576157
38600,533200383,641203710,0,-0.107943289,0.114409335,0,40.32013702
38610,537393663,641203711,0,-0.110115461,0.115845382,0,40.31747818
38620,539490814,641203712,0,-0.113597281,0.116160765,0,40.31004715
38630,535298558,641202688,0,-0.113205954,0.117205046,0,40.31264877
38640,534249984,641203710,0,-0.108686425,0.119995557,0,40.32064056
38650,537394687,641204734,0,-0.110536844,0.119083531,0,40.31644821
38660,535296509,641202688,0,-0.112306558,0.118550368,0,40.31469345
38670,535297535,641202688,0,-0.11079444,0.119889446,0,40.31744385
38680,537394688,641205759,0,-0.108866058,0.118468381,0,40.31357574
38690,534248958,641203711,0,-0.10635604,0.117217921,0,40.31240082
38700,535296510,641201664,0,-0.108250685,0.120767988,0,40.31772614
38710,539491839,641203711,0,-0.106373645,0.119739741,0,40.31351471
38720,535297535,642253312,0,-0.105240785,0.118177332,0,40.30932999
38730,533200382,641203711,0,-0.105256274,0.121114559,0,40.31383133
38740,537394686,641202687,0,-0.105295777,0.122135796,0,40.31121063
38750,536346111,641203711,0,-0.104323938,0.120438509,0,40.30832672
38760,534248958,641204736,0,-0.104128443,0.118280709,0,40.31303787
38770,536346110,641201663,0,-0.104422301,0.120444395,0,40.31180573
38780,536346112,641203711,0,-0.10226807,0.119055316,0,40.31001282
38790,535296510,641203712,0,-0.103378929,0.113654077,0,40.30951691
38800,536346111,641202687,0,-0.101727232,0.119534835,0,40.3111763
38810,536346111,641204736,0,-0.101949088,0.115171753,0,40.30782318
38820,536346110,641202688,0,-0.102088779,0.119705245,0,40.31148911
38830,537394688,641205759,0,-0.100193329,0.11947836,0,40.30918503
38840,535297534,641203711,0,-0.101831883,0.1193543,0,40.31218719
38850,537394687,641203711,0,-0.100546286,0.122002356,0,40.31175613
38860,535297535,641204735,0,-0.100348815,0.120476298,0,40.31000137
38870,536346111,641203711,0,-0.100780658,0.12166813,0,40.31095505
38880,535297535,641203711,0,-0.100239456,0.120773926,0,40.30861664
38890,536346110,641203711,0,-0.100307405,0.119667329,0,40.30957413
38900,535297535,642252287,0,-0.09934403,0.119188957,0,40.30596542
38910,536346110,641203711,0,-0.098866671,0.118307911,0,40.30831909
38920,536346111,641203711,0,-0.098503582,0.118817672,0,40.3040657
38930,536346111,641203711,0,-0.097232006,0.11876066,0,40.30669403
38940,535297535,641203711,0,-0.098192587,0.119675286,0,40.30263138
38950,536345087,641203712,0,-0.09652669,0.119915634,0,40.30388641
38960,535297535,641202688,0,-0.096194573,0.120939493,0,40.29972839
38970,536346111,641203712,0,-0.094036125,0.119765885,0,40.29918289
38980,535297535,641203712,0,-0.09323737,0.120340243,0,40.29790497
38990,536346111,641203712,0,-0.092622027,0.118788734,0,40.29922485
39000,535297535,641203711,0,-0.09359847,0.119874619,0,40.29924393
39010,536346110,641203711,0,-0.094195575,0.119998232,0,40.29794312
39020,536346111,641204735,0,-0.0935378,0.120300971,0,40.29722214
39030,536346111,641203711,0,-0.094466463,0.121710584,0,40.29779053
39040,536346111,641203711,0,-0.093589008,0.121753171,0,40.29685593
39050,536346111,641203712,0,-0.094652638,0.123292111,0,40.29724884
39060,536346111,641203712,0,-0.093457937,0.123857535,0,40.29698563
39070,536346111,641203711,0,-0.093770519,0.124493763,0,40.29716873
39080,536346111,641203712,0,-0.093836844,0.124275953,0,40.29689407
39090,536346111,641203711,0,-0.093724862,0.125696853,0,40.29575348
39100,535297535,641203711,0,-0.094452657,0.127295867,0,40.29632187
39110,535297535,641203711,0,-0.094705068,0.128932267,0,40.29320145
39120,536346111,641203711,0,-0.095732301,0.130486742,0,40.29288483
39130,535297535,641203711,0,-0.095352829,0.130827934,0,40.2919426
39140,536346111,641203712,0,-0.09598203,0.130070597,0,40.29087448
39150,535297535,641203712,0,-0.095131241,0.129397392,0,40.29007339
39160,535297535,641203712,0,-0.093657844,0.128891096,0,40.28872681
39170,536346111,641203711,0,-0.093364224,0.128487706,0,40.2887764
39180,536346111,641203711,0,-0.092992462,0.128920272,0,40.28961945
39190,536346111,641203711,0,-0.093603469,0.130276665,0,40.2890358
39200,536346111,641203711,0,-0.094723202,0.131385803,0,40.28916931
39210,536346111,641203711,0,-0.095008858,0.131298512,0,40.28909683
39220,536346111,641203712,0,-0.095576629,0.131643429,0,40.28803253
39230,536346111,641203712,0,-0.095564857,0.131133258,0,40.28763199
39240,536346111,641203712,0,-0.094019763,0.130645499,0,40.2871933
39250,536346111,641203712,0,-0.093484148,0.130041778,0,40.28821564
39260,536346111,641203711,0,-0.093522571,0.130117446,0,40.28866959
39270,536346111,641203711,0,-0.093599983,0.131897345,0,40.28857422
39280,536346111,641203711,0,-0.094394274,0.133672327,0,40.28789902
39290,536346111,641203711,0,-0.093656227,0.134852231,0,40.28881836
39300,536346111,641203711,0,-0.09357214,0.134793773,0,40.28763199
39310,536346111,641203712,0,-0.093626417,0.13532415,0,40.28695679
39320,536346111,641203712,0,-0.092837892,0.134637237,0,40.2867012
39330,536346111,641203712,0,-0.090716325,0.133571506,0,40.28617859
39340,536346111,641203712,0,-0.09088666,0.134393483,0,40.28577423
39350,536346111,641203711,0,-0.091175206,0.135213226,0,40.2857399
39360,536346111,641203711,0,-0.090980671,0.135410428,0,40.28512573
39370,536346111,641203711,0,-0.091657281,0.136223778,0,40.28399277
39380,536346111,641203711,0,-0.092221238,0.137377322,0,40.28282547
39390,535297535,641203711,0,-0.092669323,0.137091249,0,40.28105927
39400,536346111,641203712,0,-0.091311462,0.136849016,0,40.27893066
39410,536346111,641203712,0,-0.090225913,0.136671215,0,40.27791595
39420,536346111,641203712,0,-0.089703493,0.136412755,0,40.27733612
39430,536346111,641203711,0,-0.088876143,0.135934502,0,40.27637863
39440,536346111,641203711,0,-0.089035355,0.136537239,0,40.27579117
39450,536346111,641203711,0,-0.089828514,0.137215048,0,40.27557755
39460,536346111,641203711,0,-0.090352215,0.13808836,0,40.27552032
39470,536346111,641203712,0,-0.090254419,0.138127223,0,40.27514267
39480,536346111,641203711,0,-0.090239055,0.138768852,0,40.27425766
39490,536346111,641203712,0,-0.089888163,0.138052896,0,40.2737999
39500,536346111,641203712,0,-0.089864284,0.138076633,0,40.27492905
39510,536346111,641203712,0,-0.089551404,0.138056576,0,40.27423859
39520,536346111,641203711,0,-0.089637704,0.138095602,0,40.27352524
39530,536346111,641203711,0,-0.089309581,0.138149664,0,40.27269363
39540,536346111,641203711,0,-0.089100771,0.138739094,0,40.27329636
39550,536346111,641203711,0,-0.089546442,0.139724329,0,40.27161026
39560,536346111,641203711,0,-0.089462422,0.139646262,0,40.27133942
39570,536346111,641203712,0,-0.089125961,0.13942717,0,40.27052307
39580,536346111,641203711,0,-0.088533252,0.138971716,0,40.26970291
39590,536346111,641203712,0,-0.088817045,0.138751745,0,40.2694664
39600,536346111,641203711,0,-0.08832638,0.139165848,0,40.27010345
39610,536346111,641203711,0,-0.088509098,0.139900684,0,40.27103806
39620,536346111,641203711,0,-0.088517256,0.140368775,0,40.27040482
39630,536346111,641203711,0,-0.087931752,0.141646892,0,40.27011108
39640,536346111,641203711,0,-0.08664602,0.14155829,0,40.27045059
39650,536346111,641203712,0,-0.087198853,0.140544921,0,40.27043152
39660,536346111,641203712,0,-0.086485416,0.140264735,0,40.2700386
39670,536346111,641203712,0,-0.085802436,0.140332222,0,40.26940918
39680,536346111,641203711,0,-0.085450433,0.141083792,0,40.2690773
39690,536346111,641203711,0,-0.086129919,0.141725495,0,40.26813507
39700,536346111,641203711,0,-0.086530916,0.142152727,0,40.26750946
39710,536346111,641203711,0,-0.086020149,0.142409876,0,40.26720428
39720,536346111,641203711,0,-0.0859963,0.141786695,0,40.26780701
39730,536346111,641203712,0,-0.085449494,0.141840234,0,40.26701736
39740,536346111,641203711,0,-0.08508724,0.141451612,0,40.26694489
39750,536346111,641203711,0,-0.084570535,0.140444592,0,40.26581955
39760,536346111,641203711,0,-0.084421754,0.140540078,0,40.26473236
39770,536346111,641203711,0,-0.085024253,0.141672269,0,40.26367188
39780,536346111,641203711,0,-0.084487446,0.142359197,0,40.26292038
39790,536346111,641203711,0,-0.084227316,0.142998859,0,40.2624588
39800,536346111,641203711,0,-0.084914342,0.14300257,0,40.26173782
39810,536346111,641203711,0,-0.084821843,0.143771663,0,40.26092529
39820,536346111,641203711,0,-0.085436322,0.143452197,0,40.26019287
39830,536346111,641203711,0,-0.08498951,0.14298068,0,40.26013184
39840,536346111,641203712,0,-0.084528513,0.142496958,0,40.25956345
39850,536346111,641203711,0,-0.084399916,0.142708033,0,40.25905609
39860,536346111,641203711,0,-0.084272645,0.142910734,0,40.25822067
39870,536346111,641203711,0,-0.084485494,0.143030107,0,40.25827408
39880,536346111,641203712,0,-0.08422064,0.14314276,0,40.25731659
39890,536346111,641203712,0,-0.083760262,0.143344149,0,40.25702286
39900,535297535,641203712,0,-0.083403245,0.144336745,0,40.256073
39910,536346111,641203711,0,-0.083247565,0.144562036,0,40.25525284
39920,536346111,641203711,0,-0.08403369,0.144359142,0,40.25503159
39930,535297535,641203712,0,-0.084691741,0.143846273,0,40.25445938
39940,535297535,641203712,0,-0.084313668,0.144436568,0,40.25246811
39950,536346111,641203712,0,-0.083080977,0.145844921,0,40.25180435
39960,536346111,641203711,0,-0.083056211,0.147222579,0,40.25182724
39970,536346111,641203711,0,-0.083327085,0.148471266,0,40.25170135
39980,536346111,641203712,0,-0.082334533,0.147665218,0,40.2517395
39990,536346111,641203712,0,-0.081314579,0.147231057,0,40.2510376
40000,536346111,641203712,0,-0.081407189,0.147520065,0,40.25010681
40010,536346111,641203711,0,-0.081926346,0.147742465,0,40.25071335
40020,536346111,641203711,0,-0.082629725,0.147373691,0,40.25008774
40030,536346111,641203711,0,-0.082176462,0.147919074,0,40.24855042
40040,536346111,641203711,0,-0.082354814,0.148701131,0,40.24888992
40050,536346111,641203711,0,-0.08165098,0.148562506,0,40.24899673
40060,536346111,641203712,0,-0.081460655,0.147814125,0,40.24876404
40070,536346111,641203712,0,-0.081339613,0.146982074,0,40.24819183
40080,536346111,641203711,0,-0.081256844,0.146611243,0,40.24764252
40090,536346111,641203711,0,-0.081138946,0.147192627,0,40.24623871
40100,536346111,641203711,0,-0.080801189,0.147661597,0,40.24599838
40110,536346111,641203711,0,-0.080074623,0.148789763,0,40.2454834
40120,536346111,641203711,0,-0.080001719,0.148346946,0,40.24473953
40130,535297535,641203711,0,-0.079663299,0.14791517,0,40.24404526
40140,535297535,641203712,0,-0.07976757,0.148076832,0,40.24352264
40150,536346111,641203712,0,-0.079265431,0.148228616,0,40.2418251
40160,536346111,641203711,0,-0.078761093,0.149382204,0,40.24134445
40170,536346111,641203711,0,-0.078520939,0.150285169,0,40.24054337
40180,536346111,641203711,0,-0.078600682,0.151674628,0,40.2393074
40190,536346111,641203712,0,-0.078369506,0.150981903,0,40.23861313
40200,536346111,641203712,0,-0.077584118,0.151311353,0,40.23826599
40210,536346111,641203712,0,-0.07740394,0.152225167,0,40.23683167
40220,536346111,641203711,0,-0.078562468,0.15237698,0,40.23637772
40230,536346111,641203711,0,-0.078997768,0.153239623,0,40.23692703
40240,536346111,641203711,0,-0.079811491,0.152919397,0,40.23640823
40250,536346111,641203711,0,-0.08069928,0.154124841,0,40.23601532
40260,536346111,641203711,0,-0.080826424,0.154268846,0,40.23567963
40270,536346111,641203711,0,-0.079503566,0.154435217,0,40.23562622
40280,536346111,641203711,0,-0.079268478,0.153891653,0,40.23462296
40290,536346111,641203711,0,-0.080027401,0.154365584,0,40.23274612
40300,536346111,641203711,0,-0.080730632,0.153892159,0,40.23271179
40310,536346111,641203711,0,-0.081452847,0.15379411,0,40.23319244
40320,536346111,641203711,0,-0.080969244,0.153463423,0,40.23383713
40330,536346111,641203711,0,-0.080051541,0.153565839,0,40.23305511
40340,536346111,641203711,0,-0.079126149,0.154524088,0,40.2323761
40350,536346111,641203711,0,-0.078575887,0.154797524,0,40.23231888
40360,536346111,641203712,0,-0.078382999,0.155463159,0,40.23202515
40370,536346111,641203712,0,-0.078220181,0.155416042,0,40.23202133
40380,536346111,641203711,0,-0.078040473,0.155058265,0,40.23168945
40390,536346111,641203711,0,-0.078200512,0.155179366,0,40.23101425
40400,536346111,641203711,0,-0.078611754,0.154811606,0,40.23025894
40410,536346111,641203712,0,-0.07814391,0.154583782,0,40.23088074
40420,536346111,641203712,0,-0.077557921,0.15511857,0,40.23083496
40430,536346111,641203711,0,-0.07759019,0.155779824,0,40.23077393
40440,536346111,641203711,0,-0.077426195,0.156609654,0,40.23083878
40450,536346111,641203712,0,-0.077030033,0.156338155,0,40.23007965
40460,536346111,641203712,0,-0.076844551,0.15612036,0,40.22972488
40470,536346111,641203711,0,-0.07762906,0.157301411,0,40.22931671
40480,536346111,641203711,0,-0.077470824,0.158042654,0,40.22854614
40490,536346111,641203711,0,-0.07791914,0.15896228,0,40.22743988
40500,535297535,641203711,0,-0.077541083,0.158517912,0,40.22692871
40510,536346111,641203712,0,-0.077466622,0.157858536,0,40.2258873
40520,536346111,641203712,0,-0.077179417,0.158463255,0,40.22541809
40530,536346111,641203711,0,-0.07708469,0.158794314,0,40.22509003
40540,536346111,641203711,0,-0.076768905,0.159001321,0,40.22507095
40550,536346111,641203711,0,-0.076590985,0.158716172,0,40.22457123
40560,536346111,641203712,0,-0.076322176,0.158648759,0,40.22412872
40570,535297535,641203711,0,-0.077297181,0.159359768,0,40.22320557
40580,536346111,641203711,0,-0.077605478,0.159521282,0,40.22264481
40590,536346111,641203711,0,-0.077340037,0.159905344,0,40.22263336
40600,536346111,641203711,0,-0.077355698,0.160164192,0,40.22225189
40610,536346111,641203711,0,-0.076642118,0.160407826,0,40.22195816
40620,536346111,641203712,0,-0.076215714,0.160460055,0,40.22162628
40630,536346111,641203712,0,-0.0759065,0.160300896,0,40.22089386
40640,536346111,641203712,0,-0.076094702,0.160769626,0,40.22066498
40650,535297535,641203712,0,-0.076274447,0.160905883,0,40.21949768
40660,536346111,641203711,0,-0.076155983,0.161250189,0,40.21814346
40670,536346111,641203711,0,-0.076424941,0.162992105,0,40.21790314
40680,536346111,641203711,0,-0.076420508,0.162988976,0,40.21716309
40690,536346111,641203711,0,-0.075884171,0.163771003,0,40.21797943
40700,536346111,641203711,0,-0.075465091,0.163859531,0,40.21760559
40710,536346111,641203711,0,-0.074714981,0.164171278,0,40.21652603
40720,536346111,641203712,0,-0.074638024,0.163578421,0,40.21730804
40730,536346111,641203712,0,-0.073814556,0.164497629,0,40.21789169
40740,536346111,641203711,0,-0.073680252,0.164590627,0,40.21775436
40750,536346111,641203711,0,-0.073804356,0.163952276,0,40.21743774
40760,536346111,641203711,0,-0.074444316,0.164855912,0,40.21726227
40770,536346111,641203711,0,-0.073895633,0.165128052,0,40.21777344
40780,535297535,641203711,0,-0.073510103,0.16646646,0,40.21613693
40790,535297535,641203712,0,-0.073877476,0.166576743,0,40.21407318
40800,536346111,641203712,0,-0.073337018,0.16692616,0,40.21319962
40810,536346111,641203711,0,-0.072797112,0.167052329,0,40.21206665
40820,536346111,641203711,0,-0.072644569,0.166289225,0,40.21209335
40830,536346111,641203711,0,-0.072511174,0.165993571,0,40.21194077
40840,536346111,641203711,0,-0.072274774,0.165118188,0,40.21172333
40850,536346111,641203711,0,-0.071430184,0.165494308,0,40.21003342
40860,536346111,641203711,0,-0.071328864,0.165098608,0,40.2093277
40870,536346111,641203711,0,-0.071743168,0.164797887,0,40.20867157
40880,536346111,641203711,0,-0.072577193,0.165387601,0,40.20822525
40890,536346111,641203712,0,-0.073166467,0.165617287,0,40.20792389
40900,536346111,641203712,0,-0.072558165,0.165941685,0,40.20780563
40910,536346111,641203711,0,-0.072067574,0.166547492,0,40.20788193
40920,536346111,641203711,0,-0.071691334,0.167001173,0,40.20832443
40930,536346111,641203712,0,-0.070958443,0.167750895,0,40.20934677
40940,536346111,641203712,0,-0.070730366,0.168129846,0,40.20979691
40950,536346111,641203711,0,-0.070742548,0.168225512,0,40.20945358
40960,536346111,641203711,0,-0.071526498,0.168563396,0,40.20884705
40970,536346111,641203712,0,-0.071583837,0.169778615,0,40.20713806
40980,536346111,641203712,0,-0.071259275,0.16988273,0,40.20757675
40990,536346111,641203712,0,-0.071229808,0.169688478,0,40.2070694
41000,535297535,641203711,0,-0.071189269,0.170067683,0,40.20642471
41010,536346111,641203711,0,-0.071339056,0.170504808,0,40.2057724
41020,536346111,641203711,0,-0.071147934,0.170224905,0,40.20465851
41030,536346111,641203711,0,-0.071536742,0.170039132,0,40.20408249
41040,536346111,641203711,0,-0.071579941,0.170246437,0,40.20319748
41050,535297535,641203711,0,-0.071427129,0.170223966,0,40.20216751
41060,535297535,641203712,0,-0.070737608,0.171006411,0,40.20106888
41070,536346111,641203712,0,-0.069644824,0.170717865,0,40.19994736
41080,536346111,641203711,0,-0.069393955,0.171478704,0,40.19918823
41090,536346111,641203712,0,-0.069420539,0.172601879,0,40.19855881
41100,535297535,641203712,0,-0.069396734,0.172817752,0,40.19816208
41110,536346111,641203711,0,-0.069316454,0.173610121,0,40.19655609
41120,536346111,641203711,0,-0.069812164,0.172633082,0,40.19617462
41130,536346111,641203712,0,-0.068742938,0.172568634,0,40.1954155
41140,536346111,641203712,0,-0.06837932,0.173106909,0,40.19527817
41150,536346111,641203712,0,-0.067782052,0.173600346,0,40.19517899
41160,536346111,641203711,0,-0.067760453,0.174903363,0,40.19459152
41170,536346111,641203711,0,-0.069206789,0.175452694,0,40.19421387
41180,536346111,641203711,0,-0.06962461,0.175895676,0,40.1947403
41190,536346111,641203711,0,-0.069553517,0.175536066,0,40.19477463
41200,536346111,641203711,0,-0.069301911,0.175155684,0,40.19493103
41210,536346111,641203711,0,-0.06935209,0.177345529,0,40.19406128
41220,536346111,641203712,0,-0.070253849,0.17707637,0,40.19394302
41230,536346111,641203711,0,-0.070011474,0.176561415,0,40.19279099
41240,536346111,641203711,0,-0.069355629,0.176562041,0,40.19320679
41250,536346111,641203711,0,-0.069201358,0.17722483,0,40.19252014
41260,536346111,641203712,0,-0.068591356,0.176895127,0,40.1926918
41270,536346111,641203711,0,-0.068168178,0.176877275,0,40.19134903
41280,536346111,641203712,0,-0.068597578,0.176737681,0,40.19131088
41290,536346111,641203711,0,-0.068603501,0.177492172,0,40.18963242
41300,536346111,641203711,0,-0.068840265,0.177789181,0,40.18914413
41310,536346111,641203711,0,-0.068616033,0.176219478,0,40.18867493
41320,536346111,641203712,0,-0.068801165,0.176952422,0,40.18823624
41330,536346111,641203711,0,-0.068492211,0.176882148,0,40.18889999
41340,536346111,641203711,0,-0.068856604,0.176856592,0,40.1891861
41350,536346111,641203712,0,-0.069640413,0.177212447,0,40.1894455
41360,536346111,641203711,0,-0.069800906,0.176980719,0,40.18959427
41370,536346111,641203711,0,-0.069764264,0.177355453,0,40.18907547
41380,536346111,641203712,0,-0.069538824,0.176851809,0,40.1893692
41390,536346111,641203711,0,-0.069425724,0.176492736,0,40.18859482
41400,536346111,641203711,0,-0.069333903,0.176834315,0,40.18852234
41410,536346111,641203712,0,-0.069170013,0.176922575,0,40.18809509
41420,536346111,641203712,0,-0.068796076,0.177199975,0,40.1882019
41430,536346111,641203712,0,-0.068361633,0.178147212,0,40.1884346
41440,536346111,641203711,0,-0.068207778,0.178207546,0,40.18902588
41450,536346111,641203711,0,-0.069221891,0.178934366,0,40.18842697
41460,536346111,641203711,0,-0.069556706,0.179859191,0,40.18769073
41470,536346111,641203711,0,-0.070307501,0.180422381,0,40.18727493
41480,536346111,641203712,0,-0.070520438,0.181202203,0,40.18735123
41490,536346111,641203712,0,-0.070025064,0.182347313,0,40.18619919
41500,536346111,641203711,0,-0.070318677,0.18240577,0,40.18573761
41510,536346111,641203711,0,-0.071155936,0.181345582,0,40.18600845
41520,536346111,641203711,0,-0.071288325,0.181867853,0,40.1858139
41530,536346111,641203712,0,-0.071496822,0.182889655,0,40.18536758
41540,535297535,641203711,0,-0.071983173,0.183322042,0,40.18457413
41550,536346111,641203711,0,-0.072793595,0.183184639,0,40.18350983
41560,536346111,641203711,0,-0.073105305,0.183095679,0,40.18339157
41570,536346111,641203711,0,-0.073308177,0.182906851,0,40.1819191
41580,536346111,641203711,0,-0.073441371,0.182726622,0,40.18191147
41590,536346111,641203711,0,-0.072687216,0.18340534,0,40.18149185
41600,536346111,641203711,0,-0.073338829,0.183492512,0,40.18058014
41610,536346111,641203711,0,-0.074485064,0.183480889,0,40.18070221
41620,536346111,641203711,0,-0.074269444,0.183660477,0,40.180233
41630,536346111,641203711,0,-0.074467599,0.183870435,0,40.1801796
41640,536346111,641203711,0,-0.073614992,0.184122831,0,40.17960358
41650,536346111,641203711,0,-0.073817372,0.184344962,0,40.17954254
41660,536346111,641203711,0,-0.07397259,0.18348065,0,40.17835617
41670,536346111,641203711,0,-0.074468039,0.183131099,0,40.17809677
41680,536346111,641203711,0,-0.074297123,0.183016792,0,40.17770004
41690,536346111,641203711,0,-0.074909195,0.182561442,0,40.17679977
41700,536346111,641203711,0,-0.075464256,0.182396382,0,40.17707825
41710,536346111,641203711,0,-0.07632041,0.181861117,0,40.17757416
41720,536346111,641203711,0,-0.0768499,0.182081044,0,40.17717361
41730,536346111,641203711,0,-0.076576725,0.181691453,0,40.17669296
41740,536346111,641203712,0,-0.07604076,0.182110563,0,40.17639923
41750,536346111,641203711,0,-0.07581687,0.181282386,0,40.1767807
41760,536346111,641203711,0,-0.075272322,0.181238756,0,40.17692184
41770,536346111,641203711,0,-0.075265303,0.180696562,0,40.17704391
41780,536346111,641203712,0,-0.075081386,0.180317253,0,40.17730713
41790,536346111,641203712,0,-0.074692525,0.180920288,0,40.17695618
41800,536346111,641203711,0,-0.075205177,0.182121366,0,40.17685318
41810,536346111,641203711,0,-0.075336166,0.183045447,0,40.17603683
41820,536346111,641203711,0,-0.075281315,0.183023825,0,40.17572403
41830,536346111,641203712,0,-0.075443119,0.182384759,0,40.17554092
41840,536346111,641203711,0,-0.075103208,0.182536423,0,40.17573166
41850,536346111,641203711,0,-0.075394526,0.183043107,0,40.17485046
41860,536346111,641203711,0,-0.07498505,0.18282634,0,40.17420197
41870,536346111,641203711,0,-0.074896596,0.182698518,0,40.17324829
41880,536346111,641203711,0,-0.075125493,0.182272345,0,40.17238617
41890,535297535,641203711,0,-0.075333469,0.182468846,0,40.17113495
41900,536346111,641203711,0,-0.07509277,0.183854416,0,40.17072678
41910,536346111,641203711,0,-0.075194985,0.183915928,0,40.17011642
41920,536346111,641203711,0,-0.075061761,0.184276253,0,40.16885757
41930,536346111,641203711,0,-0.07562457,0.185479656,0,40.16869354
41940,536346111,641203711,0,-0.075227238,0.185863838,0,40.16759872
41950,536346111,641203711,0,-0.074927598,0.186526597,0,40.16707611
41960,536346111,641203712,0,-0.074106403,0.187080011,0,40.16690063
41970,536346111,641203711,0,-0.074140653,0.187062725,0,40.16639328
41980,536346111,641203711,0,-0.074611217,0.186559707,0,40.16595078
41990,536346111,641203711,0,-0.074835211,0.186585397,0,40.16578674
42000,536346111,641203711,0,-0.075892873,0.187309057,0,40.16470718
42010,536346111,641203711,0,-0.075699016,0.187944114,0,40.16381454
42020,536346111,641203711,0,-0.075484671,0.187671512,0,40.16344452
42030,536346111,641203711,0,-0.075507283,0.187034398,0,40.16296387
42040,536346111,641203711,0,-0.075720325,0.187376887,0,40.16263199
42050,536346111,641203711,0,-0.076671436,0.187075764,0,40.16143036
42060,536346111,641203712,0,-0.077023253,0.187361151,0,40.16106415
42070,536346111,641203711,0,-0.076411441,0.186482176,0,40.16063309
42080,536346111,641203711,0,-0.076244876,0.187540174,0,40.16058731
42090,536346111,641203711,0,-0.077009872,0.188034832,0,40.15984344
42100,536346111,641203711,0,-0.076600321,0.188432947,0,40.15930176
42110,536346111,641203712,0,-0.076545268,0.188812777,0,40.15872192
42120,536346111,641203712,0,-0.076347865,0.18947953,0,40.15819931
42130,536346111,641203711,0,-0.07618282,0.190576509,0,40.15756607
42140,536346111,641203711,0,-0.07659249,0.190836176,0,40.15706635
42150,536346111,641203711,0,-0.077060722,0.190567106,0,40.15703964
42160,536346111,641203711,0,-0.076878987,0.190959454,0,40.15696335
42170,536346111,641203711,0,-0.077076375,0.191777766,0,40.15701294
42180,536346111,641203711,0,-0.077089228,0.191945374,0,40.1566124
42190,536346111,641203711,0,-0.076860175,0.191854239,0,40.15675735
42200,536346111,641203711,0,-0.076267481,0.191972107,0,40.15563583
