Timestamp,compactImu.a_xyz,compactImu.l_xyz,motorCompact.pwms,stabilizer.pitch,stabilizer.roll,stabilizer.thrust,stabilizer.yaw
2376699,535297535,641203711,0,-0.07158408313989639,-0.3298374116420746,0,-38.66044235229492
2376709,536346111,641203711,0,-0.0712931677699089,-0.33012282848358154,0,-38.6610221862793
2376719,536346111,641203711,0,-0.07102302461862564,-0.33049869537353516,0,-38.66238784790039
2376729,536346111,641203711,0,-0.07119504362344742,-0.33070191740989685,0,-38.663307189941406
2376739,536346111,641203711,0,-0.07122907042503357,-0.33069539070129395,0,-38.664833068847656
2376749,535297535,641203711,0,-0.07136350870132446,-0.33076953887939453,0,-38.665679931640625
2376759,535297535,641203711,0,-0.07150035351514816,-0.33009135723114014,0,-38.6676025390625
2376769,536346111,641203711,0,-0.07189430296421051,-0.32962849736213684,0,-38.668575286865234
2376779,535297535,641203711,0,-0.07136859744787216,-0.32976874709129333,0,-38.670772552490234
2376789,535297535,641203710,0,-0.07221218943595886,-0.330687552690506,0,-38.67280578613281
2376799,536346111,641203711,0,-0.07254444062709808,-0.3309001624584198,0,-38.67378234863281
2376809,535297535,641203711,0,-0.0718352273106575,-0.3306428790092468,0,-38.67448806762695
2376819,535297535,641203711,0,-0.07147377729415894,-0.33088043332099915,0,-38.676239013671875
2376829,536346111,641203711,0,-0.07161793857812881,-0.33084890246391296,0,-38.677730560302734
2376839,535297535,641203710,0,-0.07257048040628433,-0.330648809671402,0,-38.679222106933594
2376849,535297535,641203711,0,-0.07330310344696045,-0.3310951888561249,0,-38.6810302734375
2376859,536346111,641203710,0,-0.0738300010561943,-0.3319232761859894,0,-38.68193054199219
2376869,535297535,641203711,0,-0.0744069442152977,-0.33312132954597473,0,-38.683021545410156
2376879,536346111,641203711,0,-0.07472409307956696,-0.3329310417175293,0,-38.684932708740234
2376889,536346111,641203711,0,-0.07491758465766907,-0.3323170244693756,0,-38.68548583984375
2376899,536346111,641203711,0,-0.07426198571920395,-0.3319469690322876,0,-38.686424255371094
2376909,536346111,641203711,0,-0.07415129244327545,-0.33210107684135437,0,-38.68718719482422
2376919,536346111,640155135,0,-0.07414272427558899,-0.3318327069282532,0,-38.688812255859375
2376929,535297535,641203711,0,-0.07468853145837784,-0.33153730630874634,0,-38.6904296875
2376939,536346111,641203710,0,-0.0751543790102005,-0.33062615990638733,0,-38.692344665527344
2376949,535297535,641203711,0,-0.07542083412408829,-0.33030322194099426,0,-38.69314193725586
2376959,535297535,641203711,0,-0.07556205242872238,-0.3304404020309448,0,-38.695796966552734
2376969,536346111,641203711,0,-0.07528495043516159,-0.33069175481796265,0,-38.69696807861328
2376979,535297535,641203711,0,-0.075285904109478,-0.3312819302082062,0,-38.699398040771484
2376989,536346111,641203711,0,-0.07545913755893707,-0.3312853276729584,0,-38.700801849365234
2376999,536346111,641203711,0,-0.07565814256668091,-0.33079785108566284,0,-38.70178985595703
2377009,535297535,641203711,0,-0.07559054344892502,-0.3312644064426422,0,-38.702842712402344
2377019,535297535,641203711,0,-0.07563972473144531,-0.33088216185569763,0,-38.705047607421875
2377029,536346111,641203711,0,-0.07592516392469406,-0.3308044672012329,0,-38.70651626586914
2377039,535297535,641203711,0,-0.07669893652200699,-0.3303278684616089,0,-38.70892333984375
2377049,536346111,641203711,0,-0.07674530148506165,-0.3309166729450226,0,-38.710105895996094
2377059,535297535,641203711,0,-0.07629168033599854,-0.3309330940246582,0,-38.71303176879883
2377069,535297535,641203711,0,-0.07640871405601501,-0.3303077220916748,0,-38.71499252319336
2377079,535297535,641203711,0,-0.07745178043842316,-0.33108586072921753,0,-38.71732711791992
2377089,535297535,641203711,0,-0.0774737074971199,-0.331373929977417,0,-38.7188606262207
2377099,536346111,641203711,0,-0.07769203186035156,-0.33101391792297363,0,-38.720577239990234
2377109,536346111,641203711,0,-0.07742253690958023,-0.33094522356987,0,-38.72124481201172
2377119,535297535,641203710,0,-0.07664580643177032,-0.33055123686790466,0,-38.72341537475586
2377129,535297535,641203711,0,-0.07730254530906677,-0.33108556270599365,0,-38.72444152832031
2377139,536346111,641203711,0,-0.07769812643527985,-0.33039841055870056,0,-38.72615051269531
2377149,536346111,641203711,0,-0.07743114978075027,-0.33123695850372314,0,-38.72639083862305
2377159,536346111,641203711,0,-0.07745657861232758,-0.3310079872608185,0,-38.727882385253906
2377169,535297535,641203711,0,-0.07733425498008728,-0.33188512921333313,0,-38.7290153503418
2377179,535297535,641203711,0,-0.07730095833539963,-0.3322886526584625,0,-38.731163024902344
2377189,536346111,641203711,0,-0.07689068466424942,-0.3328438699245453,0,-38.73227310180664
2377199,536346111,641203711,0,-0.07590653002262115,-0.33294638991355896,0,-38.73230743408203
2377209,536346111,641203711,0,-0.07602496445178986,-0.33279210329055786,0,-38.73377227783203
2377219,536346111,641203711,0,-0.07606054097414017,-0.3331281244754791,0,-38.734840393066406
2377229,536346111,641203711,0,-0.07595255225896835,-0.3338853120803833,0,-38.73515319824219
2377239,536346111,641203711,0,-0.0752926766872406,-0.33422672748565674,0,-38.73643493652344
2377249,535297535,641203711,0,-0.07542788237333298,-0.3344636857509613,0,-38.73805618286133
2377259,535297535,641203711,0,-0.07544736564159393,-0.33495476841926575,0,-38.740478515625
2377269,535297535,641203711,0,-0.0749368965625763,-0.33520910143852234,0,-38.742042541503906
2377279,536346111,641203711,0,-0.07522625476121902,-0.33421215415000916,0,-38.743255615234375
2377289,536346111,641203711,0,-0.07559481263160706,-0.33404913544654846,0,-38.744075775146484
2377299,535297535,641203711,0,-0.07524101436138153,-0.33305373787879944,0,-38.74605941772461
2377309,535297535,641203711,0,-0.07547073066234589,-0.3330548107624054,0,-38.74759292602539
2377319,535297535,641203711,0,-0.07555912435054779,-0.3332695960998535,0,-38.750179290771484
2377329,535297535,640155135,0,-0.07622367888689041,-0.33338016271591187,0,-38.75150680541992
2377339,536346111,641203711,0,-0.07616603374481201,-0.33368387818336487,0,-38.752723693847656
2377349,536346111,641203711,0,-0.07572827488183975,-0.33392107486724854,0,-38.75297927856445
2377359,535297535,641203711,0,-0.07519131898880005,-0.33475396037101746,0,-38.754371643066406
2377369,535297535,641203711,0,-0.07518995553255081,-0.334561824798584,0,-38.756587982177734
2377379,535297535,641203710,0,-0.07545074820518494,-0.3350180387496948,0,-38.75858688354492
2377389,535297535,640155135,0,-0.07593715190887451,-0.3358326256275177,0,-38.759437561035156
2377399,536346111,641203711,0,-0.07496634870767593,-0.3357613980770111,0,-38.76106262207031
2377409,536346111,641203711,0,-0.07485838234424591,-0.33567315340042114,0,-38.761741638183594
2377419,536346111,641203711,0,-0.07466009259223938,-0.3355317711830139,0,-38.762882232666016
2377429,536346111,640155135,0,-0.07471917569637299,-0.33545011281967163,0,-38.76312255859375
2377439,535297535,641203711,0,-0.07502880692481995,-0.33502233028411865,0,-38.76536560058594
2377449,536346111,641203711,0,-0.075503408908844,-0.3344479501247406,0,-38.767051696777344
2377459,535297535,641203711,0,-0.07618509232997894,-0.333697646856308,0,-38.76882553100586
2377469,535297535,640155135,0,-0.07640963047742844,-0.33340999484062195,0,-38.77021026611328
2377479,536346111,641203711,0,-0.07660754770040512,-0.3325415551662445,0,-38.772037506103516
2377489,535297535,641203711,0,-0.07627727091312408,-0.33290421962738037,0,-38.77360153198242
2377499,536346111,641203711,0,-0.0767214298248291,-0.3341866433620453,0,-38.77518081665039
2377509,535297535,640155135,0,-0.07655511796474457,-0.3343823254108429,0,-38.776493072509766
2377519,535297535,641203711,0,-0.077132448554039,-0.33470892906188965,0,-38.779212951660156
2377529,535297535,640155135,0,-0.07663736492395401,-0.3350459337234497,0,-38.780677795410156
2377539,536346111,641203711,0,-0.07623276114463806,-0.3352176547050476,0,-38.78245162963867
2377549,535297535,641203711,0,-0.07604135572910309,-0.33533573150634766,0,-38.78374481201172
2377559,535297535,641203711,0,-0.07517118006944656,-0.3351666331291199,0,-38.78571701049805
2377569,535297535,641203711,0,-0.07502994686365128,-0.3357527256011963,0,-38.787479400634766
2377579,535297535,641203711,0,-0.07462123781442642,-0.33569154143333435,0,-38.79015350341797
2377589,536346111,641203711,0,-0.07441144436597824,-0.33560270071029663,0,-38.79109573364258
2377599,535297535,641203711,0,-0.07462278753519058,-0.3351374566555023,0,-38.792518615722656
2377609,535297535,641203711,0,-0.07466790080070496,-0.33548712730407715,0,-38.794349670410156
2377619,536346111,641203711,0,-0.07409970462322235,-0.335344523191452,0,-38.796749114990234
2377629,535297535,641203711,0,-0.07341022789478302,-0.3351423740386963,0,-38.79787826538086
2377639,535297535,641203711,0,-0.07305646687746048,-0.33506736159324646,0,-38.80088806152344
2377649,536346111,641203711,0,-0.07196856290102005,-0.33426395058631897,0,-38.80231857299805
2377659,536346111,640155135,0,-0.07230553030967712,-0.33437177538871765,0,-38.80290222167969
2377669,535297535,641203711,0,-0.0725502073764801,-0.33466410636901855,0,-38.80388259887695
2377679,536346111,641203711,0,-0.07307295501232147,-0.3353933095932007,0,-38.805118560791016
2377689,535297535,641203711,0,-0.07356937229633331,-0.33546021580696106,0,-38.80577850341797
2377699,536346111,641203710,0,-0.07374840974807739,-0.33568084239959717,0,-38.80750274658203
2377709,535297535,641203711,0,-0.07366864383220673,-0.3349595367908478,0,-38.80885314941406
2377719,535297535,641203711,0,-0.07289626449346542,-0.33461591601371765,0,-38.81098556518555
2377729,536346111,641203711,0,-0.07259893417358398,-0.33449527621269226,0,-38.81199645996094
2377739,536346111,641203711,0,-0.07307951897382736,-0.33456742763519287,0,-38.81232833862305
2377749,535297535,641203711,0,-0.0735589787364006,-0.33466410636901855,0,-38.81258010864258
2377759,536346111,641203711,0,-0.07361314445734024,-0.3349553048610687,0,-38.81482696533203
2377769,535297535,641203711,0,-0.07249612361192703,-0.33445990085601807,0,-38.81565856933594
2377779,535297535,641203711,0,-0.07205449789762497,-0.33462896943092346,0,-38.81815719604492
2377789,536346111,641203711,0,-0.0715281143784523,-0.3352806568145752,0,-38.818790435791016
2377799,535297535,640155135,0,-0.07121675461530685,-0.3365229666233063,0,-38.8209114074707
2377809,535297535,641203711,0,-0.07180796563625336,-0.3363504409790039,0,-38.822601318359375
2377819,536346111,641203711,0,-0.07148781418800354,-0.33681339025497437,0,-38.82441329956055
2377829,535297535,641203711,0,-0.07182308286428452,-0.3363381326198578,0,-38.82575988769531
2377839,536346111,641203711,0,-0.07109181582927704,-0.33599430322647095,0,-38.82767868041992
2377849,536346111,641203711,0,-0.07066282629966736,-0.33653339743614197,0,-38.82870864868164
2377859,536346111,640155135,0,-0.07017215341329575,-0.33725613355636597,0,-38.829864501953125
2377869,536346111,641203711,0,-0.0698460265994072,-0.33673033118247986,0,-38.83052062988281
2377879,536346111,641203711,0,-0.06913301348686218,-0.3365781903266907,0,-38.83147048950195
2377889,536346111,641203711,0,-0.06961721181869507,-0.3370368778705597,0,-38.83247756958008
2377899,536346111,641203711,0,-0.06952939182519913,-0.33660387992858887,0,-38.83412551879883
2377909,536346111,641203711,0,-0.06929247826337814,-0.33580508828163147,0,-38.83515167236328
2377919,535297535,641203711,0,-0.06958496570587158,-0.3362779915332794,0,-38.83662796020508
2377929,535297535,641203711,0,-0.06934352219104767,-0.33578112721443176,0,-38.838687896728516
2377939,536346111,641203711,0,-0.06935346126556396,-0.33522236347198486,0,-38.84065246582031
2377949,535297535,641203711,0,-0.06965138018131256,-0.3360694944858551,0,-38.841514587402344
2377959,535297535,641203711,0,-0.0700453668832779,-0.33638855814933777,0,-38.84394454956055
2377969,536346111,641203710,0,-0.069452665746212,-0.3363240361213684,0,-38.84476089477539
2377979,536346111,641203710,0,-0.06948259472846985,-0.33489012718200684,0,-38.84571838378906
2377989,535297535,641203711,0,-0.06908200681209564,-0.33476710319519043,0,-38.84664535522461
2377999,536346111,640155134,0,-0.06911689788103104,-0.33458250761032104,0,-38.84803771972656
2378009,535297535,641203710,0,-0.06984946876764297,-0.33414968848228455,0,-38.84940719604492
2378019,535297535,641203710,0,-0.07051358371973038,-0.33363664150238037,0,-38.85152816772461
2378029,536346111,641203711,0,-0.07064268738031387,-0.3333570957183838,0,-38.85221862792969
2378039,536346111,641203711,0,-0.07072711735963821,-0.3326082229614258,0,-38.85375213623047
2378049,536346111,641203711,0,-0.07067833095788956,-0.3318383991718292,0,-38.85472869873047
2378059,535297535,641203711,0,-0.07065636664628983,-0.3320261538028717,0,-38.85609436035156
2378069,536346111,641203711,0,-0.07052537798881531,-0.33172333240509033,0,-38.85721969604492
2378079,536346111,641203711,0,-0.0700962245464325,-0.33085933327674866,0,-38.858909606933594
2378089,536346111,641203711,0,-0.06967797130346298,-0.33097949624061584,0,-38.85961151123047
2378099,535297535,641203711,0,-0.06929239630699158,-0.33112460374832153,0,-38.861061096191406
2378109,535297535,641203711,0,-0.06961783766746521,-0.33130943775177,0,-38.8620719909668
2378119,535297535,641203711,0,-0.06976544111967087,-0.33137184381484985,0,-38.86412048339844
2378129,535297535,641203711,0,-0.0689462274312973,-0.331133633852005,0,-38.865447998046875
2378139,536346111,641203711,0,-0.06917010992765427,-0.33075883984565735,0,-38.867767333984375
2378149,535297535,641203711,0,-0.06848477572202682,-0.33118736743927,0,-38.868282318115234
2378159,535297535,641203711,0,-0.0675378143787384,-0.331002801656723,0,-38.87067794799805
2378169,535297535,641203711,0,-0.06690263748168945,-0.3309277892112732,0,-38.871707916259766
2378179,535297535,641203710,0,-0.0669541135430336,-0.3317195773124695,0,-38.874176025390625
2378189,535297535,641203711,0,-0.06721439957618713,-0.3322075307369232,0,-38.87558364868164
2378199,536346111,641203711,0,-0.06798573583364487,-0.33175647258758545,0,-38.87704849243164
2378209,536346111,641203711,0,-0.06850016117095947,-0.33150437474250793,0,-38.87776565551758
2378219,536346111,641203711,0,-0.06860058009624481,-0.33101752400398254,0,-38.87891387939453
2378229,535297535,641203710,0,-0.06916074454784393,-0.33039480447769165,0,-38.879730224609375
2378239,536346111,641203711,0,-0.06895425170660019,-0.3306375741958618,0,-38.8814582824707
2378249,536346111,641203711,0,-0.06826471537351608,-0.33112555742263794,0,-38.8823356628418
2378259,535297535,641203711,0,-0.06751591712236404,-0.33130794763565063,0,-38.88438034057617
2378269,535297535,641203711,0,-0.06762757152318954,-0.33053845167160034,0,-38.88533020019531
2378279,536346111,641203711,0,-0.06834293901920319,-0.33056434988975525,0,-38.88774490356445
2378289,536346111,641203711,0,-0.0682767853140831,-0.3302050828933716,0,-38.88832092285156
2378299,536346111,641203710,0,-0.06863756477832794,-0.3302616477012634,0,-38.88856506347656
2378309,535297535,641203711,0,-0.06899342685937881,-0.33023497462272644,0,-38.890201568603516
2378319,535297535,641203711,0,-0.06877658516168594,-0.3308458626270294,0,-38.892173767089844
2378329,536346111,641203711,0,-0.0678909420967102,-0.3309285044670105,0,-38.89374542236328
2378339,535297535,641203711,0,-0.0678727850317955,-0.33032917976379395,0,-38.894779205322266
2378349,535297535,641203711,0,-0.06730077415704727,-0.3298473060131073,0,-38.895626068115234
2378359,535297535,641203711,0,-0.06698359549045563,-0.3296143710613251,0,-38.89822006225586
2378369,536346111,641203711,0,-0.06695546209812164,-0.3294599652290344,0,-38.89975357055664
2378379,536346111,641203711,0,-0.06678420305252075,-0.3291417360305786,0,-38.90016555786133
2378389,536346111,641203711,0,-0.0663142129778862,-0.32868048548698425,0,-38.90044021606445
2378399,535297535,641203711,0,-0.06641785055398941,-0.32862457633018494,0,-38.90186309814453
2378409,536346111,641203711,0,-0.0663900300860405,-0.3290312588214874,0,-38.90323257446289
2378419,536346111,641203710,0,-0.06623242795467377,-0.3275197744369507,0,-38.90468215942383
2378429,535297535,640155135,0,-0.06643864512443542,-0.3271828889846802,0,-38.90534591674805
2378439,536346111,641203710,0,-0.06672435998916626,-0.3276363015174866,0,-38.907196044921875
2378449,536346111,641203711,0,-0.06675631552934647,-0.3283246159553528,0,-38.90876770019531
2378459,535297535,641203711,0,-0.06667419523000717,-0.32805097103118896,0,-38.90943145751953
2378469,536346111,641203711,0,-0.06660622358322144,-0.327783465385437,0,-38.9107666015625
2378479,535297535,641203711,0,-0.06594973057508469,-0.32828855514526367,0,-38.91234588623047
2378489,535297535,641203711,0,-0.06624805927276611,-0.3279772102832794,0,-38.91385269165039
2378499,536346111,641203711,0,-0.06592952460050583,-0.32697275280952454,0,-38.91572189331055
2378509,535297535,641203711,0,-0.06584909558296204,-0.3257056176662445,0,-38.91619873046875
2378519,536346111,641203711,0,-0.06534091383218765,-0.3250953257083893,0,-38.91768264770508
2378529,535297535,641203711,0,-0.06557383388280869,-0.3254910111427307,0,-38.918426513671875
2378539,536346111,641203711,0,-0.06599843502044678,-0.32405322790145874,0,-38.919376373291016
2378549,535297535,641203711,0,-0.06688442826271057,-0.3239165246486664,0,-38.92035675048828
2378559,535297535,641203711,0,-0.06751461327075958,-0.3247513771057129,0,-38.922367095947266
2378569,535297535,641203710,0,-0.06812737137079239,-0.3246425986289978,0,-38.92375183105469
2378579,536346111,641203711,0,-0.06793010979890823,-0.3246251046657562,0,-38.92533493041992
2378589,536346111,641203711,0,-0.06736963242292404,-0.324227511882782,0,-38.926055908203125
2378599,535297535,641203711,0,-0.06713051348924637,-0.3241879642009735,0,-38.92747116088867
2378609,535297535,641203711,0,-0.0673370435833931,-0.32390615344047546,0,-38.928775787353516
2378619,535297535,641203711,0,-0.0674930214881897,-0.32354551553726196,0,-38.931236267089844
2378629,535297535,641203711,0,-0.06714104861021042,-0.32272282242774963,0,-38.93213653564453
2378639,535297535,641203711,0,-0.06809395551681519,-0.32258811593055725,0,-38.934417724609375
2378649,536346111,641203711,0,-0.06764566153287888,-0.32319045066833496,0,-38.935813903808594
2378659,536346111,641203711,0,-0.06623799353837967,-0.3229483366012573,0,-38.93686294555664
2378669,535297535,641203711,0,-0.06556183844804764,-0.3222128450870514,0,-38.93772888183594
2378679,536346111,641203711,0,-0.06489480286836624,-0.32178086042404175,0,-38.939754486083984
2378689,535297535,641203711,0,-0.064939484000206,-0.3213784992694855,0,-38.94071960449219
2378699,536346111,641203711,0,-0.06489932537078857,-0.32086488604545593,0,-38.94252395629883
2378709,536346111,641203711,0,-0.06401200592517853,-0.3202874958515167,0,-38.94313049316406
2378719,536346111,641203711,0,-0.06419671326875687,-0.3202131390571594,0,-38.94366455078125
2378729,536346111,641203711,0,-0.06472443789243698,-0.31954675912857056,0,-38.944480895996094
2378739,535297535,641203711,0,-0.06392978876829147,-0.31986233592033386,0,-38.94655990600586
2378749,536346111,641203711,0,-0.06402230262756348,-0.31950101256370544,0,-38.947174072265625
2378759,535297535,641203711,0,-0.06460977345705032,-0.31847110390663147,0,-38.94910430908203
2378769,536346111,641203711,0,-0.06469367444515228,-0.31832072138786316,0,-38.95025634765625
2378779,536346111,640155135,0,-0.06424368917942047,-0.31773442029953003,0,-38.95103073120117
2378789,535297535,640155135,0,-0.0642344281077385,-0.31747591495513916,0,-38.9522590637207
2378799,535297535,640155135,0,-0.06365653872489929,-0.31771120429039,0,-38.953948974609375
2378809,536346111,641203711,0,-0.06317795068025589,-0.31707337498664856,0,-38.95497512817383
2378819,535297535,641203711,0,-0.06265643239021301,-0.3165583610534668,0,-38.95690155029297
2378829,535297535,641203711,0,-0.062073349952697754,-0.3172328472137451,0,-38.95781326293945
2378839,535297535,640155135,0,-0.06259958446025848,-0.3178025186061859,0,-38.961063385009766
2378849,535297535,641203711,0,-0.06256535649299622,-0.317526251077652,0,-38.96165084838867
2378859,535297535,641203711,0,-0.062373485416173935,-0.3174856901168823,0,-38.96387481689453
2378869,536346111,641203711,0,-0.06231333687901497,-0.31725409626960754,0,-38.96551513671875
2378879,535297535,640155135,0,-0.062420282512903214,-0.31746333837509155,0,-38.96672058105469
2378889,536346111,641203711,0,-0.06345078349113464,-0.3179492950439453,0,-38.967872619628906
2378899,535297535,640155135,0,-0.0635480061173439,-0.3192322850227356,0,-38.96968460083008
2378909,535297535,641203710,0,-0.06322867423295975,-0.3191698491573334,0,-38.97190856933594
2378919,536346111,641203711,0,-0.0630880668759346,-0.31742721796035767,0,-38.97306823730469
2378929,536346111,641203711,0,-0.06279787421226501,-0.31748276948928833,0,-38.973846435546875
2378939,535297535,641203711,0,-0.06264222413301468,-0.3173966109752655,0,-38.97593688964844
2378949,535297535,641203711,0,-0.06302609294652939,-0.31765568256378174,0,-38.977386474609375
2378959,535297535,641203711,0,-0.06357347965240479,-0.3184661865234375,0,-38.979522705078125
2378969,536346111,641203711,0,-0.06294794380664825,-0.31898534297943115,0,-38.98091125488281
2378979,536346111,641203711,0,-0.0640283077955246,-0.3188493549823761,0,-38.982601165771484
2378989,536346111,641203711,0,-0.06439641863107681,-0.3186722993850708,0,-38.98323440551758
2378999,535297535,641203711,0,-0.06401851028203964,-0.3193420469760895,0,-38.985260009765625
2379009,536346111,641203711,0,-0.06273937970399857,-0.3200821280479431,0,-38.98646926879883
2379019,535297535,641203711,0,-0.06316398084163666,-0.3208869695663452,0,-38.9885139465332
2379029,536346111,641203711,0,-0.06275751441717148,-0.3205896019935608,0,-38.990299224853516
2379039,535297535,641203711,0,-0.06243353709578514,-0.3199606239795685,0,-38.99167251586914
2379049,535297535,641203711,0,-0.06253105401992798,-0.31984296441078186,0,-38.99297332763672
2379059,535297535,641203711,0,-0.061903711408376694,-0.32030680775642395,0,-38.99577331542969
2379069,536346111,641203711,962612775,-0.061309028416872025,-0.32074183225631714,8192,-38.99657440185547
2379079,536346111,641203711,1112032831,-0.06023060902953148,-0.32204174995422363,8192,-38.996177673339844
2379089,535297535,641203711,1162561601,-0.059775035828351974,-0.32278794050216675,22528,-38.99769592285156
2379099,535297535,641203711,1246776646,-0.058929890394210815,-0.3245466351509094,53760,-38.999229431152344
2379109,536346111,641203711,1230064966,-0.05876566842198372,-0.32496657967567444,53760,-38.999595642089844
2379119,535297535,641203711,1246842181,-0.058310650289058685,-0.3261929154396057,53760,-39.00076675415039
2379129,537394687,640156159,1263816777,-0.05776064470410347,-0.32668638229370117,4096,-39.00306701660156
2379139,534248958,640154109,1297306183,-0.06093679368495941,-0.3282492756843567,4096,-39.00916290283203
2379149,536347134,641203711,1431982668,-0.058321304619312286,-0.3240054249763489,35328,-39.0032958984375
2379159,538442240,641202687,1314477903,-0.05888420715928078,-0.3270988464355469,35328,-39.00758743286133
2379169,536345088,641203710,1314413133,-0.06073354557156563,-0.33092641830444336,35328,-39.01129913330078
2379179,535298559,640155135,1347901263,-0.06093858927488327,-0.33012843132019043,35328,-39.007568359375
2379189,536346111,640155135,1432115025,-0.06183847784996033,-0.33069536089897156,49664,-39.009056091308594
2379199,536345086,640156158,1466063439,-0.05943535640835762,-0.3333941698074341,0,-39.01237487792969
2379209,535298558,639106559,1449090129,-0.05926821008324623,-0.3298282027244568,0,-39.01179885864258
2379219,535297535,641203711,1499355474,-0.061797674745321274,-0.3315715193748474,0,-39.01388168334961
2379229,536346111,642253312,1466130259,-0.06315260380506516,-0.3342299461364746,15360,-39.017581939697266
2379239,536346111,641203711,1465999189,-0.059850063174963,-0.3304263651371002,15360,-39.01788330078125
2379249,535297534,641203710,1516526672,-0.06110071763396263,-0.3288155794143677,36864,-39.01848602294922
2379259,535298558,641201661,1532910679,-0.06620858609676361,-0.3310154974460602,15360,-39.02445602416992
2379269,536347137,640154110,1449025625,-0.0648951530456543,-0.3366093337535858,15360,-39.02552032470703
2379279,535297534,641204735,1533304144,-0.06708995997905731,-0.3367175757884979,15360,-39.031578063964844
2379289,533200383,641204733,1499422550,-0.06702055782079697,-0.3343666195869446,15360,-39.034786224365234
2379299,536348159,641199613,1516395604,-0.07508426904678345,-0.3366237282752991,15360,-39.0374641418457
2379309,535297535,641201662,1499749969,-0.07621686160564423,-0.337478905916214,15360,-39.041500091552734
2379319,535298559,640157184,1499553106,-0.07506129890680313,-0.3390546441078186,43008,-39.04441833496094
2379329,536346110,640158210,1466260559,-0.07082246243953705,-0.3416910171508789,2560,-39.04478454589844
2379339,535296510,639107585,1499815505,-0.06407052278518677,-0.34006527066230774,15360,-39.04789733886719
2379349,535298558,637007360,1499553108,-0.05891246348619461,-0.34073930978775024,15360,-39.04730224609375
2379359,535297535,639104512,1466130000,-0.0542806014418602,-0.35048747062683105,14336,-39.049686431884766
2379369,535297534,641201665,1483038289,-0.055450595915317535,-0.3533698320388794,15360,-39.0537223815918
2379379,536346111,640152065,1482907219,-0.05078352242708206,-0.35849878191947937,15360,-39.05470275878906
2379389,535297534,640153088,1516526673,-0.048384033143520355,-0.3606574535369873,15360,-39.05374526977539
2379399,535297535,643299839,1482973010,-0.044817134737968445,-0.3732486069202423,15360,-39.05467224121094
2379409,535296511,642253310,1483103824,-0.0465228371322155,-0.37187355756759644,15360,-39.05180358886719
2379419,535295487,639107580,1449550159,-0.04110684245824814,-0.37046903371810913,15360,-39.055274963378906
2379429,536345087,640157181,1432838479,-0.04291606321930885,-0.3711388409137726,15360,-39.05479049682617
2379439,536346111,638059010,1483038545,-0.03669344261288643,-0.36817559599876404,15360,-39.05760192871094
2379449,535298559,640155136,1516526930,-0.029891131445765495,-0.3712027966976166,15360,-39.054378509521484
2379459,536346111,643302912,1499684434,-0.03409189358353615,-0.3725247383117676,15360,-39.06001663208008
2379469,535297535,642254336,1499684435,-0.03180117905139923,-0.36683186888694763,15360,-39.064334869384766
2379479,536346111,640155135,1449615439,-0.02647629752755165,-0.36427921056747437,15360,-39.06321334838867
2379489,535298558,641202686,1499749970,-0.024591516703367233,-0.365485280752182,15360,-39.06578826904297
2379499,536347135,645396989,1483103824,-0.03835152089595795,-0.36892157793045044,15360,-39.069271087646484
2379509,536345087,641202685,1449550160,-0.041327834129333496,-0.37000349164009094,15360,-39.0679931640625
2379519,536345087,637008384,1449681231,-0.03472128510475159,-0.36881300806999207,15360,-39.06633758544922
2379529,536345086,641204734,1449812300,-0.03434956446290016,-0.3725854158401489,15360,-39.06915283203125
2379539,536346111,642252285,1516790355,-0.034844331443309784,-0.37364643812179565,31232,-39.068359375
2379549,535298559,643300863,1550344531,-0.03073696792125702,-0.37372347712516785,31232,-39.06817626953125
2379559,537394687,640154113,1449681490,-0.029430290684103966,-0.3677755892276764,56832,-39.06646728515625
2379569,536346110,647493119,1584292690,-0.028566375374794006,-0.36802947521209717,46592,-39.06844711303711
2379579,536346111,644348414,1634757211,-0.028068209066987038,-0.36859652400016785,11264,-39.06638717651367
2379589,535296511,640155134,1618177111,-0.03232218697667122,-0.3679000437259674,11264,-39.0670051574707
2379599,535297535,637009407,1735815007,-0.027509596198797226,-0.3672570288181305,42496,-39.070919036865234
2379609,535297535,638059007,1786475103,-0.029017457738518715,-0.3681696355342865,57856,-39.0750617980957
2379619,537393664,641203710,1702655328,-0.021955342963337898,-0.36526939272880554,57856,-39.07094955444336
2379629,536348157,649592322,2004972649,-0.020450979471206665,-0.36886826157569885,38400,-39.07027053833008
2379639,535298560,643299839,2038529651,-0.023972168564796448,-0.37595799565315247,4096,-39.07099914550781
2379649,535296510,640155134,2039119210,-0.0244381595402956,-0.369149774312973,4096,-39.074867248535156
2379659,536346111,639107583,2106624116,-0.022042792290449142,-0.37121716141700745,57600,-39.07740783691406
2379669,536348158,643298812,2156823926,-0.022340552881360054,-0.3704819083213806,57600,-39.07900619506836
2379679,535297534,641202686,2190378357,-0.029007967561483383,-0.3890485465526581,57600,-39.081504821777344
2379689,536348159,642252286,2190443381,-0.02937326394021511,-0.386261522769928,57600,-39.081153869628906
2379699,536346110,645395968,2089978227,-0.03844748064875603,-0.3903166949748993,57600,-39.075775146484375
2379709,535295487,642251262,2090044017,-0.03580516204237938,-0.39350712299346924,57600,-39.07676696777344
2379719,535298559,641202687,2123335796,-0.034782204777002335,-0.39301416277885437,57600,-39.081199645996094
2379729,536345085,640157181,2140243572,-0.026804950088262558,-0.40010929107666016,57600,-39.08195877075195
2379739,536346112,642253311,2106558326,-0.029307616874575615,-0.3971262276172638,57600,-39.075138092041016
2379749,536345086,643300861,2090109297,-0.034688543528318405,-0.4007348418235779,57600,-39.07514190673828
2379759,535296512,643298815,2123597937,-0.03593755513429642,-0.389918714761734,57600,-39.07542419433594
2379769,535298558,645399043,2106491761,-0.02651282772421837,-0.3976796567440033,17152,-39.0792121887207
2379779,536346110,645398018,2123531892,-0.022657152265310287,-0.3944433629512787,57600,-39.07427978515625
2379789,535296512,637008383,2039713137,-0.0287589393556118,-0.3999584913253784,57600,-39.07781982421875
2379799,535298559,637005312,2089715057,-0.03402040898799896,-0.39181581139564514,17152,-39.08320236206055
2379809,535295487,637009406,2056095602,-0.0150327542796731,-0.4064851403236389,17152,-39.08742904663086
2379819,536347135,643301887,2073003376,-0.023762762546539307,-0.39797070622444153,17152,-39.08883285522461
2379829,536348157,638057978,2140111216,-0.024655761197209358,-0.3996887803077698,17152,-39.08441925048828
2379839,536346111,639105533,2056424306,-0.046361710876226425,-0.40688809752464294,57600,-39.08754348754883
2379849,536346111,639104511,2090109297,-0.04911249876022339,-0.407238245010376,57600,-39.086029052734375
2379859,534247937,645400062,2123401842,-0.03746499866247177,-0.3969464600086212,57600,-39.09515380859375
2379869,536346111,644352508,2056423277,-0.04696960747241974,-0.3911263942718506,17152,-39.10285949707031
2379879,536346111,640156157,2073134447,-0.04488379508256912,-0.3853485882282257,17152,-39.09764862060547
2379889,536350206,639104512,2257420151,-0.03219309076666832,-0.3793948292732239,57600,-39.09141540527344
2379899,535295487,641205760,1989841002,-0.054812896996736526,-0.3879493176937103,57600,-39.09409713745117
2379909,534249983,640155135,2123466866,-0.0559791661798954,-0.3807322382926941,57600,-39.10249710083008
2379919,535300612,639106558,2139719546,-0.05636731907725334,-0.3641201853752136,57600,-39.11286544799805
2379929,536343034,641203712,2124515427,-0.07671435177326202,-0.3555945158004761,57600,-39.11753845214844
2379939,536346111,644350463,2039450742,-0.057051293551921844,-0.3910227119922638,57600,-39.11325454711914
2379949,535299585,643300865,2123334511,-0.05144175514578819,-0.3701523542404175,17152,-39.119773864746094
2379959,537390590,642250242,1956483431,-0.06749286502599716,-0.36653241515159607,57600,-39.12446975708008
2379969,537395711,641205759,2157020276,-0.04068619757890701,-0.3742509186267853,57600,-39.118858337402344
2379979,536349181,641204734,2224390512,-0.05521383881568909,-0.36695829033851624,57600,-39.115875244140625
2379989,535297535,635960830,2039844462,-0.06923478841781616,-0.3799344301223755,57600,-39.11780548095703
2379999,535297535,633861633,2174060142,-0.058691784739494324,-0.3685942590236664,57600,-39.123199462890625
2380009,534243838,634911233,1973064040,-0.056946948170661926,-0.38639622926712036,57600,-39.130653381347656
2380019,534246912,645400064,2056423531,-0.02163270115852356,-0.3791489601135254,17152,-39.14839172363281
2380029,536354304,641205759,2190049142,-0.023357775062322617,-0.37462860345840454,17152,-39.146873474121094
2380039,537394685,637010431,2057077860,-0.06459113955497742,-0.362931489944458,17152,-39.134769439697266
2380049,535294461,632814079,1989511786,-0.06097450479865074,-0.3840046226978302,17152,-39.13596725463867
2380059,535297535,635960831,2140374896,-0.03546223044395447,-0.39245784282684326,57600,-39.14103698730469
2380069,535294461,642251267,2057145447,-0.036475762724876404,-0.39676806330680847,57600,-39.14463806152344
2380079,536345089,639107584,2006026605,-0.013434551656246185,-0.4068261682987213,17152,-39.1496467590332
2380089,536345089,639105536,2157479532,0.003452786011621356,-0.37783169746398926,57600,-39.15070724487305
2380099,536349180,634913278,2090173547,-0.008984705433249474,-0.3904229998588562,17152,-39.14959716796875
2380109,537397762,638057985,2023001456,-0.03919186443090439,-0.38367629051208496,57600,-39.14574432373047
2380119,535298558,635961856,2107148652,-0.047219168394804,-0.3764704167842865,57600,-39.13947677612305
2380129,535297535,640157184,2090175086,-0.04281896352767944,-0.3847540318965912,57600,-39.145076751708984
2380139,536342014,638060030,2073922152,-0.014526613987982273,-0.37165558338165283,57600,-39.14113235473633
2380149,536346108,641206782,2039842921,-0.011760328896343708,-0.3874949812889099,17152,-39.13890075683594
2380159,535298562,641205758,2073003630,-0.005985692609101534,-0.37349963188171387,17152,-39.138832092285156
2380169,534248961,639106558,2056752492,-0.012084302492439747,-0.3588908612728119,57600,-39.1478271484375
2380179,536347133,640156160,2006749032,-0.04128200188279152,-0.3636792302131653,57600,-39.154685974121094
2380189,537389566,639108608,2023131241,-0.00627046637237072,-0.3658306896686554,17152,-39.14781951904297
2380199,534247931,641204734,2140701541,0.026541348546743393,-0.37309154868125916,17152,-39.14647674560547
2380209,533204480,641204732,2106821486,0.008485824801027775,-0.3871760070323944,57600,-39.163150787353516
2380219,535304705,641202684,2173798257,-0.037885043770074844,-0.36846259236335754,57600,-39.17947006225586
2380229,532155903,637007356,2107083627,-0.07084040343761444,-0.3609144389629364,57600,-39.191165924072266
2380239,535295485,639106558,2023592037,-0.0974348932504654,-0.377413809299469,57600,-39.210968017578125
2380249,535292415,639108604,2006486891,-0.07792792469263077,-0.3898106813430786,57600,-39.21467971801758
2380259,535293439,641203707,2157479787,-0.0323021300137043,-0.3696993887424469,57600,-39.21781539916992
2380269,537396734,649593341,2056554091,-0.03152422234416008,-0.3791080117225647,17152,-39.21498107910156
2380279,538450433,642250240,2090240112,-0.07672739028930664,-0.3678595721721649,57600,-39.1992073059082
2380289,536349188,631764479,2023198317,-0.09836404025554657,-0.3507210314273834,57600,-39.18951416015625
2380299,535299581,634910210,2057145701,-0.13058555126190186,-0.3514058291912079,57600,-39.1911506652832
2380309,537395712,637011456,1989644397,-0.14283619821071625,-0.36464378237724304,57600,-39.194129943847656
2380319,537391617,639108607,2006617451,-0.12828484177589417,-0.34285444021224976,57600,-39.181026458740234
2380329,537391615,634913278,2056948842,-0.11087366938591003,-0.3369063138961792,57600,-39.168418884277344
2380339,537391614,635960832,2040367976,-0.08299900591373444,-0.34094420075416565,57600,-39.16066360473633
2380349,536343038,633863681,2007076452,-0.07810395956039429,-0.34015774726867676,57600,-39.15117263793945
2380359,535298559,642253314,2090635372,-0.07130937278270721,-0.35559189319610596,32768,-39.15471267700195
2380369,536349187,642254335,2191561588,-0.07552435249090195,-0.3344910442829132,48384,-39.15766143798828
2380379,535294463,639107581,2310317945,-0.09162730723619461,-0.31232714653015137,54016,-39.15848922729492
2380389,537392641,637009404,2511710857,-0.0730825811624527,-0.3071756064891815,44032,-39.15797805786133
2380399,537391611,642251262,2646386312,-0.03937007859349251,-0.32622265815734863,19200,-39.142215728759766
2380409,537401859,649589246,2696459419,-0.057618603110313416,-0.33355820178985596,9216,-39.13547134399414
2380419,538460677,648538624,2830805658,-0.16493889689445496,-0.28747737407684326,9216,-39.125118255615234
2380429,538465793,648542723,2830871449,-0.2765086591243744,-0.2811517119407654,9216,-39.11466598510742
2380439,539526666,651690498,2846533803,-0.49639683961868286,-0.22437512874603271,9216,-39.092552185058594
2380449,541641234,649592319,2896143543,-0.7326444983482361,-0.14509637653827667,9216,-39.07359313964844
2380459,540601878,648541695,3047137214,-1.1993924379348755,0.031038958579301834,49920,-39.031044006347656
2380469,540610070,646446593,3097337534,-1.5504498481750488,0.15650804340839386,49920,-39.002681732177734
2380479,541665814,644350460,3264912335,-2.1426470279693604,0.35070616006851196,0,-38.9576416015625
2380489,542709272,644353527,3114182345,-2.555772304534912,0.479879766702652,0,-38.92296600341797
2380499,541652513,648544761,3029706965,-3.101123809814453,0.7375379204750061,0,-38.864044189453125
2380509,543743521,654831104,3131420621,-3.42673397064209,0.9277030825614929,15616,-38.82563400268555
2380519,540590619,655882751,3249385681,-3.854576587677002,1.1799380779266357,30720,-38.77170944213867
2380529,541624859,655884801,3031349962,-4.065317153930664,1.3348783254623413,55552,-38.73636245727539
2380539,541616660,656931327,3082533573,-4.314993858337402,1.536707878112793,30720,-38.68299102783203
2380549,542657038,661129724,3182998982,-4.423825740814209,1.6401872634887695,30720,-38.64491271972656
2380559,543697411,657982974,3167072702,-4.529491901397705,1.719787359237671,30720,-38.58329772949219
2380569,545798648,661125629,3300764611,-4.588438034057617,1.7110066413879395,30720,-38.529945373535156
2380579,545783277,661127679,3184307641,-4.6274590492248535,1.604411244392395,30720,-38.448062896728516
2380589,545777124,656932351,3302011063,-4.594750881195068,1.4742246866226196,5632,-38.396766662597656
2380599,544714213,663222782,3168318642,-4.457313060760498,1.251353144645691,5632,-38.32621383666992
2380609,545758694,659032579,3168122802,-4.300906181335449,1.1039738655090332,5632,-38.27978515625
2380619,545754605,660076026,3101408438,-4.060675621032715,0.9283651113510132,46336,-38.203468322753906
2380629,545754614,662175233,3067462328,-3.893240213394165,0.8486791849136353,46336,-38.15629959106445
2380639,545763834,661128703,3084106942,-3.676713466644287,0.7981888651847839,46336,-38.08088302612305
2380649,545775105,660075005,3150362307,-3.5686206817626953,0.7962230443954468,5632,-38.02852249145508
2380659,545781256,663224828,3016277964,-3.5266849994659424,0.8370720148086548,46336,-37.94939422607422
2380669,545792525,656929279,3216816083,-3.527146100997925,0.899803876876831,46336,-37.89310836791992
2380679,546841103,661128699,3066411983,-3.6017112731933594,1.0290729999542236,46336,-37.81766891479492
2380689,545806864,655883777,3250173143,-3.6808340549468994,1.1207610368728638,46336,-37.76069641113281
2380699,545804816,659031549,3116020694,-3.8442330360412598,1.2646254301071167,5632,-37.682273864746094
2380709,546855436,654832127,3233723603,-3.9777379035949707,1.3513312339782715,46336,-37.628543853759766
2380719,547890698,656935425,3099833812,-4.067102909088135,1.4505077600479126,46336,-37.533409118652344
2380729,546829831,655882749,3032857032,-4.089682579040527,1.501139521598816,5632,-37.46926498413086
2380739,546822660,656934401,2982787018,-4.003534317016602,1.5529191493988037,5632,-37.383419036865234
2380749,545761793,654835197,2949496768,-3.914032459259033,1.571109652519226,5632,-37.33024978637695
2380759,544714239,654834176,2949495491,-3.7066490650177,1.5722994804382324,5632,-37.262168884277344
2380769,544702973,654837245,2899493307,-3.555054187774658,1.5625582933425903,5632,-37.222564697265625
2380779,542608891,651687424,2966864318,-3.282837390899658,1.5341335535049438,46336,-37.169166564941406
2380789,542602747,655883772,2882782137,-3.0996999740600586,1.4983031749725342,5632,-37.138389587402344
2380799,540508664,654838274,2933638328,-2.8038878440856934,1.4560424089431763,46336,-37.1014518737793
2380809,540513787,652737019,2983314368,-2.6365857124328613,1.4195916652679443,46336,-37.078853607177734
2380819,538421752,653785600,3050618813,-2.41949200630188,1.3703781366348267,46336,-37.05548858642578
2380829,538433021,653788669,2999500482,-2.33070969581604,1.3403544425964355,5632,-37.044456481933594
2380839,538437114,653786621,3134110403,-2.2538387775421143,1.3120226860046387,46336,-37.02902603149414
2380849,536348156,652738047,3066543043,-2.248028516769409,1.2813130617141724,5632,-37.02278518676758
2380859,537401851,654837244,3167073222,-2.2786645889282227,1.2534511089324951,5632,-37.012847900390625
2380869,535304700,654835198,3150625732,-2.3172497749328613,1.2306174039840698,46336,-37.01261901855469
2380879,535306749,652738046,3133520067,-2.385287284851074,1.2019939422607422,5632,-37.01918029785156
2380889,535303677,654836222,3167206344,-2.406430721282959,1.1850862503051758,46336,-37.02212905883789
2380899,534248959,652738046,3050161088,-2.4430012702941895,1.168860912322998,46336,-37.03147506713867
2380909,533201407,652739070,3116546758,-2.4200127124786377,1.1624802350997925,5632,-37.043277740478516
2380919,533191167,654835196,2999829433,-2.3910489082336426,1.15519380569458,5632,-37.066253662109375
2380929,533194239,650639871,3066412482,-2.3325836658477783,1.1492550373077393,5632,-37.08544921875
2380939,532137470,656934395,2966077621,-2.24135160446167,1.1437612771987915,30720,-37.1141242980957
2380949,532138495,650640895,2949169337,-2.1673197746276855,1.1386022567749023,30720,-37.13581848144531
2380959,532138493,652738044,3033054647,-2.0441527366638184,1.1211177110671997,30720,-37.171669006347656
2380969,530040318,652739070,2932589237,-1.9801101684570312,1.1130199432373047,30720,-37.19771957397461
2380979,530048509,649592320,3116612281,-1.8686000108718872,1.092463731765747,30720,-37.24467086791992
2380989,528995837,654835193,2982724023,-1.8283412456512451,1.074917197227478,30720,-37.280704498291016
2380999,530050557,652739072,3066281657,-1.7684015035629272,1.0468502044677734,30720,-37.33204650878906
2381009,530052607,650641916,3032595902,-1.7317456007003784,1.040359377861023,30720,-37.36064910888672
2381019,530053628,652735997,3100032438,-1.7268422842025757,1.0161265134811401,30720,-37.406982421875
2381029,529008127,651692544,3082795967,-1.7164276838302612,1.0081093311309814,30720,-37.437599182128906
2381039,530055677,648542717,3066281656,-1.7296406030654907,0.9949585795402527,30720,-37.4891357421875
2381049,527961597,652739068,3099638717,-1.7441900968551636,0.97669917345047,30720,-37.5279541015625
2381059,527957500,651690494,3099770551,-1.7533832788467407,0.9563212990760803,30720,-37.58734893798828
2381069,529009149,645398015,3083058362,-1.7536427974700928,0.9427500367164612,30720,-37.624786376953125
2381079,527955452,656932344,3116547767,-1.767669439315796,0.9125747680664062,30720,-37.6817512512207
2381089,527956476,647497219,3066347192,-1.7469977140426636,0.8975455164909363,30720,-37.72172546386719
2381099,529004030,649591290,3099639736,-1.732503056526184,0.8730965256690979,30720,-37.78148651123047
2381109,529000958,653788669,3032858807,-1.7111505270004272,0.8639616966247559,30720,-37.81952667236328
2381119,529001983,649593344,3066217142,-1.6687678098678589,0.8534755110740662,30720,-37.87754821777344
2381129,528999935,651690490,3032793527,-1.6373984813690186,0.8546138405799866,30720,-37.91642379760742
2381139,528999935,653786622,3016083123,-1.595212459564209,0.848294198513031,30720,-37.97555923461914
2381149,528999935,650639868,3049570486,-1.556577205657959,0.8438996076583862,30720,-38.01712417602539
2381159,528999934,653790716,3066282676,-1.5041872262954712,0.8394954204559326,30720,-38.074180603027344
2381169,529003006,649587190,3066216632,-1.4862140417099,0.8285881280899048,30720,-38.111148834228516
2381179,529004029,653789690,3099771317,-1.4648098945617676,0.8005383610725403,30720,-38.16560745239258
2381189,530054652,650638838,3099770552,-1.47176194190979,0.7838619947433472,30720,-38.19880676269531
2381199,529008123,651691519,3166813878,-1.4725773334503174,0.7455306649208069,30720,-38.25132751464844
2381209,530056699,651690493,3066282166,-1.4848474264144897,0.7247536182403564,30720,-38.28908920288086
2381219,530058749,651689468,3133062841,-1.4961318969726562,0.6932100653648376,30720,-38.33414077758789
2381229,529007100,655883769,3116482232,-1.519713044166565,0.6704552173614502,30720,-38.365638732910156
2381239,530056700,647496193,3150036917,-1.5162944793701172,0.6433255672454834,30720,-38.4156379699707
2381249,532150783,649593339,3066151097,-1.5194278955459595,0.630985677242279,30720,-38.442562103271484
2381259,530054657,652738044,3099574711,-1.5226967334747314,0.6415922045707703,30720,-38.48347854614258
2381269,532148734,651692543,3049505207,-1.508113980293274,0.6380801796913147,30720,-38.50752258300781
2381279,531102209,648543742,3082798007,-1.4797840118408203,0.6521582007408142,30720,-38.543453216552734
2381289,532146689,653787641,3015885751,-1.476372480392456,0.6549755930900574,30720,-38.5695686340332
2381299,531100159,649593345,3082929078,-1.4227726459503174,0.6553003191947937,30720,-38.60145568847656
2381309,532148736,647496188,3032662967,-1.4112542867660522,0.6584674715995789,30720,-38.628971099853516
2381319,532148735,651687421,2981871025,-1.3812851905822754,0.6536687612533569,15616,-38.66425704956055
2381329,533195263,650643965,2864363690,-1.3625836372375488,0.649931788444519,0,-38.68317413330078
2381339,532151807,647497218,2914367660,-1.3241807222366333,0.6498466730117798,0,-38.71799087524414
2381349,532150782,650641911,2813440424,-1.3271245956420898,0.6444879174232483,49920,-38.737335205078125
2381359,530056700,649593345,2829954978,-1.3268200159072876,0.619481086730957,9216,-38.78153991699219
2381369,533203453,642254331,2762779299,-1.3371906280517578,0.6085032224655151,34816,-38.8031005859375
2381379,533203454,642253308,2762714018,-1.3662198781967163,0.5916416049003601,34816,-38.829715728759766
2381389,533203452,643298810,2813242534,-1.3798445463180542,0.5722776055335999,9216,-38.84295654296875
2381399,532151804,646447613,2813308579,-1.400469422340393,0.5358125567436218,9216,-38.868778228759766
2381409,533203453,638061058,2695539103,-1.397824764251709,0.5268979072570801,59648,-38.88805389404297
2381419,532155902,638056955,2711922077,-1.4174036979675293,0.5134192109107971,19200,-38.91751480102539
2381429,533202429,641203703,2628035226,-1.445544719696045,0.5006242990493774,44032,-38.93279266357422
2381439,533203453,639106561,2610995352,-1.4526005983352661,0.4815095067024231,3584,-38.9553108215332
2381449,534249981,639108604,2543885717,-1.4607609510421753,0.4709961414337158,28928,-38.9698486328125
2381459,532154877,638061053,2577178261,-1.4845290184020996,0.45695725083351135,28928,-38.99416732788086
2381469,533201403,634915333,2510133906,-1.4756358861923218,0.444463312625885,54016,-39.01318359375
2381479,533203452,631769599,2476382094,-1.4759680032730103,0.42162927985191345,13568,-39.03496170043945
2381489,533204478,630722040,2391970188,-1.4996439218521118,0.41629335284233093,63488,-39.047874450683594
2381499,534249981,630718969,2324861064,-1.537231206893921,0.4054207503795624,22784,-39.062618255615234
2381509,534251004,629670397,2307886213,-1.5516947507858276,0.3940259516239166,48384,-39.073463439941406
2381519,534249982,623378942,2291043718,-1.5588533878326416,0.3816279172897339,48384,-39.08293533325195
2381529,534251005,619184637,2274397828,-1.570744514465332,0.3753809332847595,48384,-39.09148025512695
2381539,535298557,620234237,2291108998,-1.5846517086029053,0.36034607887268066,48384,-39.09976577758789
2381549,537393662,623379962,2190445698,-1.5963166952133179,0.3556142747402191,7680,-39.10113525390625
2381559,535298558,624430587,2290977928,-1.6035507917404175,0.354236364364624,48384,-39.099361419677734
2381569,535297535,623383036,2274332038,-1.6082186698913574,0.36312225461006165,48384,-39.10436248779297
2381579,536346111,624430590,2274200968,-1.604132890701294,0.37587565183639526,48384,-39.10492706298828
2381589,536346110,622331389,2240579972,-1.5995742082595825,0.37806448340415955,7680,-39.10515594482422
2381599,535297534,625476095,2274266502,-1.5910627841949463,0.3716958463191986,48384,-39.1058349609375
2381609,536347134,626524670,2240514437,-1.5825320482254028,0.36830785870552063,7680,-39.11023712158203
2381619,536346109,621280764,2274463109,-1.5820157527923584,0.35797619819641113,48384,-39.10979080200195
2381629,536347132,620233213,2291174278,-1.5858632326126099,0.3454616963863373,48384,-39.108055114746094
2381639,536347132,622332414,2257488003,-1.5872397422790527,0.33023837208747864,7680,-39.10780334472656
2381649,536347131,621282813,2291239812,-1.5904173851013184,0.3157036006450653,48384,-39.10408020019531
2381659,535299579,624427520,2358086023,-1.5850518941879272,0.2845189869403839,48384,-39.10428237915039
2381669,535299580,623377920,2324728453,-1.5837291479110718,0.2667284309864044,48384,-39.10585021972656
2381679,536348156,621281791,2290976387,-1.5878297090530396,0.23995234072208405,7680,-39.10732650756836
2381689,536347132,618138109,2324793733,-1.587756633758545,0.2270723432302475,48384,-39.10620880126953
2381699,536347131,618139134,2307819138,-1.5918993949890137,0.2099522054195404,7680,-39.106651306152344
2381709,537395709,619186687,2290845318,-1.5816987752914429,0.2034005969762802,7680,-39.10374450683594
2381719,535298556,621282815,2223670656,-1.5800296068191528,0.18584366142749786,32768,-39.1017951965332
2381729,537395709,619183613,2223670402,-1.5783987045288086,0.17463910579681396,32768,-39.09818649291992
2381739,537393660,614990331,2190313087,-1.5857352018356323,0.15839067101478577,32768,-39.092613220214844
2381749,537393661,614992378,2190247553,-1.5919456481933594,0.15365292131900787,32768,-39.086402893066406
2381759,537393661,619186682,2190247552,-1.590632677078247,0.15070444345474243,32768,-39.0770149230957
2381769,537392639,621281787,2156759167,-1.5909639596939087,0.15101298689842224,32768,-39.0706901550293
2381779,536344061,618136057,2207090303,-1.5829917192459106,0.14349715411663055,32768,-39.06210708618164
2381789,537391614,614991353,2156759168,-1.5858557224273682,0.14109423756599426,32768,-39.05595397949219
2381799,537393663,614992379,2190116482,-1.5796397924423218,0.14712035655975342,32768,-39.04732894897461
2381809,537392639,617088511,2173404801,-1.5627822875976562,0.15012486279010773,32768,-39.03984832763672
2381819,537393663,616037888,2190247553,-1.5408580303192139,0.1541701853275299,32768,-39.02827835083008
2381829,537393663,613942782,2206893442,-1.5233062505722046,0.15785329043865204,32768,-39.020904541015625
2381839,537393663,616041982,2173404803,-1.5060938596725464,0.16676361858844757,32768,-39.0093879699707
2381849,537394687,617088511,2190181761,-1.4894423484802246,0.1704067587852478,32768,-39.00250244140625
2381859,537393663,619183613,2156758657,-1.4773690700531006,0.17024631798267365,32768,-38.99040222167969
2381869,537394687,617087481,2173405057,-1.4882824420928955,0.16913972795009613,32768,-38.983028411865234
2381879,537393662,617089529,2122941567,-1.4995553493499756,0.1706470549106598,57600,-38.97586441040039
2381889,537392638,619183611,2123007101,-1.5011337995529175,0.16506189107894897,57600,-38.96746826171875
2381899,537392637,619181563,2123072382,-1.491093397140503,0.1432836651802063,57600,-38.952354431152344
2381909,537391612,617086459,2173535872,-1.4838804006576538,0.1303194761276245,32768,-38.94147872924805
2381919,537392637,618137086,2173535617,-1.4591208696365356,0.11485347151756287,32768,-38.92729187011719
2381929,537391612,622330369,2156626557,-1.427177906036377,0.09866023063659668,57600,-38.91878128051758
2381939,537392636,623378943,2123137917,-1.3970117568969727,0.07313086837530136,57600,-38.90681838989258
2381949,537392635,618136059,2173601151,-1.391647219657898,0.05422735586762428,32768,-38.90166091918945
2381959,537391612,618136059,2140112511,-1.3781216144561768,0.02876489982008934,32768,-38.88752365112305
2381969,537392637,621278716,2173601407,-1.3732773065567017,0.01180858351290226,32768,-38.87849044799805
2381979,537392637,620230139,2139914877,-1.367617130279541,-0.010200530290603638,57600,-38.866580963134766
2381989,536345085,619184637,2139849341,-1.3677318096160889,-0.020363496616482735,57600,-38.863346099853516
2381999,538442238,623379967,2173535362,-1.349981665611267,-0.026398975402116776,32768,-38.852901458740234
2382009,537392638,626526720,2123072381,-1.3348805904388428,-0.022817766293883324,57600,-38.8414306640625
2382019,537394687,619186684,2156693122,-1.324884295463562,-0.014789345674216747,32768,-38.832027435302734
2382029,536345086,614992379,2207089792,-1.318635106086731,-0.011688711121678352,32768,-38.824771881103516
2382039,537392640,614990333,2140112768,-1.3121697902679443,-0.00925451796501875,32768,-38.81548309326172
2382049,536345087,612891133,2207024257,-1.3022828102111816,-0.009460756555199623,32768,-38.80799102783203
2382059,537391616,619184637,2123335807,-1.2926138639450073,-0.004843863192945719,32768,-38.80282974243164
2382069,537392640,620233212,2156824447,-1.279344916343689,0.0035940564703196287,32768,-38.79530334472656
2382079,536343040,623377916,2123336062,-1.2594000101089478,0.012332228012382984,32768,-38.789161682128906
2382089,536343039,622330363,2173799297,-1.2578424215316772,0.01519500371068716,7680,-38.78689956665039
2382099,536343040,620233212,2190445187,-1.2399075031280518,0.022237833589315414,7680,-38.786460876464844
2382109,536343039,620233213,2257816708,-1.2268697023391724,0.0256961677223444,48384,-38.78570556640625
2382119,536344063,622329341,2274593668,-1.2076611518859863,0.02678138017654419,48384,-38.78483963012695
2382129,537390591,621280766,2241039493,-1.183846116065979,0.027224145829677582,48384,-38.7801628112793
2382139,536343039,623379968,2257816453,-1.143579125404358,0.03063105046749115,48384,-38.773712158203125
2382149,536344064,627573248,2291568519,-1.1181434392929077,0.032781876623630524,22784,-38.77144241333008
2382159,536345087,625476093,2325320073,-1.098617434501648,0.037967249751091,63488,-38.76832962036133
2382169,535297536,621282811,2392429454,-1.0999746322631836,0.04342370852828026,38400,-38.76905059814453
2382179,535297536,621282813,2392560780,-1.1048142910003662,0.05603542923927307,38400,-38.772987365722656
2382189,535297536,624424446,2443089550,-1.1069657802581787,0.057850323617458344,13568,-38.77585220336914
2382199,535297536,624423421,2443024015,-1.106011986732483,0.052149299532175064,13568,-38.77913284301758
2382209,536344063,623375868,2476841360,-1.105293869972229,0.05310685560107231,54016,-38.778114318847656
2382219,535295487,623377918,2493553040,-1.0915329456329346,0.05065406113862991,54016,-38.78187561035156
2382229,535293440,626524674,2459999121,-1.0644875764846802,0.052357934415340424,54016,-38.78833770751953
2382239,536340991,631766530,2426510480,-1.0108850002288818,0.053255245089530945,54016,-38.79041290283203
2382249,536340992,632814081,2493881746,-0.9711767435073853,0.05302388221025467,28928,-38.790679931640625
2382259,536340992,632814079,2494079637,-0.9197391271591187,0.05263396352529526,3584,-38.78771209716797
2382269,536342016,628621823,2544344982,-0.886364758014679,0.059138402342796326,3584,-38.785369873046875
2382279,536340991,626526718,2510725526,-0.8419060707092285,0.06963392347097397,3584,-38.78335189819336
2382289,535294464,629674495,2560925591,-0.8100346326828003,0.0825079083442688,3584,-38.78382873535156
2382299,535294463,632818175,2611520152,-0.7769005298614502,0.09724073857069016,44032,-38.789039611816406
2382309,535295487,639108608,2578162327,-0.7567905783653259,0.10191381722688675,44032,-38.79384994506836
2382319,536345087,641203712,2578031257,-0.7361447215080261,0.09573868662118912,44032,-38.79669952392578
2382329,537392639,641202687,2544608152,-0.7221013307571411,0.09325364232063293,44032,-38.791236877441406
2382339,534248958,637008384,2611520152,-0.7016615867614746,0.08533516526222229,44032,-38.790504455566406
2382349,536344062,637011453,2578162327,-0.6917969584465027,0.08132052421569824,44032,-38.790870666503906
2382359,536345086,635961852,2578227861,-0.6878691911697388,0.07560907304286957,44032,-38.7912712097168
2382369,535297535,639104504,2595006362,-0.7021562457084656,0.06645072996616364,19200,-38.79389190673828
2382379,536345087,638056950,2612112283,-0.72509765625,0.05754207819700241,59648,-38.79697799682617
2382389,536346111,635961849,2662312092,-0.7381401658058167,0.062288153916597366,59648,-38.798221588134766
2382399,536344063,638061051,2696129439,-0.7422069907188416,0.06657426059246063,34816,-38.7969970703125
2382409,536344063,641205757,2696194973,-0.7396103739738464,0.07439650595188141,34816,-38.794395446777344
2382419,535295488,639105530,2712906654,-0.7302252650260925,0.08077581971883774,34816,-38.79300308227539
2382429,536344064,635958778,2696129438,-0.7251855731010437,0.08567696809768677,34816,-38.79390335083008
2382439,536343039,638057981,2729815713,-0.7080121040344238,0.0869365707039833,9216,-38.792057037353516
2382449,536343039,640155130,2713170080,-0.7059628963470459,0.08454399555921555,9216,-38.79196548461914
2382459,535295487,643301883,2696260508,-0.6902605891227722,0.08371236175298691,34816,-38.792659759521484
2382469,536343038,642251257,2696194973,-0.6837678551673889,0.0772707536816597,34816,-38.794002532958984
2382479,536343037,646446592,2746658208,-0.6555547714233398,0.06090250983834267,9216,-38.790706634521484
2382489,535295485,645398014,2763500959,-0.6392894387245178,0.05070234090089798,9216,-38.79065704345703
2382499,536344061,642249209,2696260508,-0.6337912678718567,0.028833067044615746,34816,-38.7939338684082
2382509,535297534,648543741,2696129694,-0.6362921595573425,0.01472393423318863,34816,-38.79690170288086
2382519,536346111,648546813,2713038753,-0.6344681978225708,0.0057678925804793835,9216,-38.80001449584961
2382529,536346111,646447615,2746592673,-0.6254866719245911,0.010173267684876919,9216,-38.79866027832031
2382539,535296512,644349436,2780279204,-0.6183595061302185,0.01469603180885315,49920,-38.79860305786133
2382549,535297537,644351486,2763371174,-0.6143894195556641,0.01852630265057087,49920,-38.7989616394043
2382559,534249986,646450683,2780082853,-0.6249121427536011,0.0476623997092247,49920,-38.80957794189453
2382569,535298562,647497211,2780477094,-0.6373826265335083,0.06757993996143341,24832,-38.81709289550781
2382579,535298562,646446588,2830677161,-0.6445924639701843,0.09289386123418808,24832,-38.818389892578125
2382589,536344066,645399035,2797319590,-0.6468784213066101,0.1096438467502594,24832,-38.820316314697266
2382599,535296514,647496188,2746790819,-0.6499285101890564,0.13546261191368103,49920,-38.82555389404297
2382609,535297538,647496188,2797122985,-0.6472395062446594,0.15243545174598694,24832,-38.82881164550781
2382619,535296514,650638846,2797319590,-0.6442161202430725,0.1743336319923401,24832,-38.83158874511719
2382629,535296513,649589242,2746790819,-0.6451107263565063,0.1789475381374359,49920,-38.835079193115234
2382639,536345089,649595390,2780411305,-0.6340850591659546,0.19329963624477386,24832,-38.83331298828125
2382649,537393664,651692542,2730210209,-0.6324348449707031,0.20950673520565033,49920,-38.8331184387207
2382659,536346111,645400062,2813833124,-0.6162700653076172,0.21942837536334991,49920,-38.82902145385742
2382669,536346110,645401088,2813965224,-0.6107154488563538,0.21677255630493164,24832,-38.8258056640625
2382679,536348159,649595381,2780608165,-0.6441014409065247,0.22284847497940063,24832,-38.82752990722656
2382689,536347135,649592312,2797186979,-0.6615309119224548,0.23039977252483368,49920,-38.82090377807617
2382699,536348159,649591296,2813965223,-0.6792169213294983,0.22692742943763733,24832,-38.81622314453125
