Timestamp,compactImu.a_xyz,compactImu.l_xyz,motorCompact.pwms,stabilizer.pitch,stabilizer.roll,stabilizer.thrust,stabilizer.yaw
2798834,536346111,641202687,0,0.5399904251098633,-0.7112218737602234,0,-54.654884338378906
2798844,535297535,641202687,0,0.5391119122505188,-0.7115069627761841,0,-54.655757904052734
2798854,536346111,641202687,0,0.5379257202148438,-0.7122269868850708,0,-54.65748596191406
2798864,536346111,641202687,0,0.5375953316688538,-0.7132201194763184,0,-54.658721923828125
2798874,536346111,641202687,0,0.5365543365478516,-0.7141531109809875,0,-54.6602783203125
2798884,535297535,641202687,0,0.5365589261054993,-0.7140905857086182,0,-54.66224670410156
2798894,535297535,641202688,0,0.5350906848907471,-0.7144451141357422,0,-54.66459274291992
2798904,536346111,641202688,0,0.5352340936660767,-0.7136921286582947,0,-54.66590881347656
2798914,536346111,641203711,0,0.5355752110481262,-0.7125831246376038,0,-54.66697311401367
2798924,536345087,641203711,0,0.5360175371170044,-0.712236225605011,0,-54.6678352355957
2798934,536345087,641202687,0,0.5372308492660522,-0.7121753096580505,0,-54.66889572143555
2798944,535297535,641202687,0,0.5373868942260742,-0.7121329307556152,0,-54.67052459716797
2798954,536346111,641202687,0,0.5367225408554077,-0.7124810814857483,0,-54.67177200317383
2798964,535297535,641202687,0,0.5362723469734192,-0.7128561735153198,0,-54.67377853393555
2798974,535297535,641202687,0,0.5362059473991394,-0.7122818827629089,0,-54.67595672607422
2798984,536346111,641202687,0,0.5359624624252319,-0.7120141983032227,0,-54.67717742919922
2798994,535297535,641202687,0,0.5363553166389465,-0.7121131420135498,0,-54.678829193115234
2799004,536346111,641202687,0,0.5364577770233154,-0.7125778794288635,0,-54.6797981262207
2799014,535297535,641203711,0,0.5367682576179504,-0.712101936340332,0,-54.6818962097168
2799024,536346111,641203712,0,0.5366140604019165,-0.7111971378326416,0,-54.6832275390625
2799034,536346111,641202687,0,0.5366358160972595,-0.7101089954376221,0,-54.68473815917969
2799044,536345087,641202687,0,0.5370518565177917,-0.7102908492088318,0,-54.685482025146484
2799054,535297535,641202687,0,0.5373036861419678,-0.7113839387893677,0,-54.68728256225586
2799064,535297535,641202687,0,0.536270797252655,-0.7114107012748718,0,-54.688663482666016
2799074,535297535,641202688,0,0.5360717177391052,-0.7113797664642334,0,-54.69190979003906
2799084,536346111,641202688,0,0.5363141894340515,-0.7120139002799988,0,-54.69374084472656
2799094,536346111,641202688,0,0.5373687744140625,-0.7130047678947449,0,-54.694618225097656
2799104,536346111,640154112,0,0.5378497838973999,-0.7127597332000732,0,-54.69533920288086
2799114,536346111,640155136,0,0.5387283563613892,-0.7123613357543945,0,-54.69710922241211
2799124,536346111,641203712,0,0.5383946299552917,-0.7118900418281555,0,-54.69734191894531
2799134,535297535,641202687,0,0.5380131602287292,-0.7117577791213989,0,-54.69952392578125
2799144,535297535,641202687,0,0.5384414196014404,-0.7116789817810059,0,-54.70236587524414
2799154,536346111,641202687,0,0.5392056107521057,-0.7120092511177063,0,-54.70345687866211
2799164,535297535,641203711,0,0.5383610129356384,-0.7109084725379944,0,-54.70484924316406
2799174,535297535,641202687,0,0.5378741025924683,-0.7103480696678162,0,-54.70759201049805
2799184,536346111,641202687,0,0.5382208824157715,-0.7098469734191895,0,-54.70905303955078
2799194,536346111,641202687,0,0.5380900502204895,-0.7095033526420593,0,-54.70975875854492
2799204,535297535,640154111,0,0.5378279685974121,-0.7102480530738831,0,-54.711097717285156
2799214,536345087,641202687,0,0.5387870669364929,-0.7107688188552856,0,-54.71315383911133
2799224,535297535,641203712,0,0.5387899875640869,-0.7110073566436768,0,-54.71458053588867
2799234,536346111,641203711,0,0.5392917394638062,-0.7105913758277893,0,-54.716758728027344
2799244,535297535,641202687,0,0.5386675596237183,-0.710925817489624,0,-54.71896743774414
2799254,536346111,641202688,0,0.5381971001625061,-0.7118856310844421,0,-54.720218658447266
2799264,536346111,641202687,0,0.5380228161811829,-0.7120547294616699,0,-54.720394134521484
2799274,536346111,641202687,0,0.5381829142570496,-0.7118433117866516,0,-54.72145462036133
2799284,536346111,641202687,0,0.5383041501045227,-0.7114792466163635,0,-54.72185516357422
2799294,535297535,641202687,0,0.5390093326568604,-0.7097025513648987,0,-54.72411346435547
2799304,536346111,641202687,0,0.5397878289222717,-0.7096787691116333,0,-54.72481918334961
2799314,536346111,641202688,0,0.540162205696106,-0.7098791599273682,0,-54.726715087890625
2799324,536346111,641203712,0,0.5400336980819702,-0.7094120979309082,0,-54.72681427001953
2799334,536346111,641203712,0,0.5403960347175598,-0.7090885639190674,0,-54.72799301147461
2799344,536346111,641202687,0,0.5398719310760498,-0.708820641040802,0,-54.72874069213867
2799354,536346111,641203711,0,0.5388177633285522,-0.7098991274833679,0,-54.72999572753906
2799364,536346111,641203711,0,0.5388780236244202,-0.7100104093551636,0,-54.730220794677734
2799374,536346111,640155135,0,0.5388556718826294,-0.7097120881080627,0,-54.731712341308594
2799384,536346111,641202687,0,0.5388122797012329,-0.709582507610321,0,-54.7325439453125
2799394,536346111,641202687,0,0.5387365221977234,-0.7076612114906311,0,-54.73414611816406
2799404,536346111,641203711,0,0.5385074019432068,-0.7059186100959778,0,-54.73483657836914
2799414,536346111,641202687,0,0.5390174984931946,-0.7060654759407043,0,-54.73613739013672
2799424,536346111,641203712,0,0.5391337275505066,-0.7060326933860779,0,-54.7367057800293
2799434,536346111,641202688,0,0.5389272570610046,-0.707088053226471,0,-54.73823547363281
2799444,536346111,641202687,0,0.5383427739143372,-0.7071539759635925,0,-54.73906326293945
2799454,536346111,641202687,0,0.5383896231651306,-0.7080472707748413,0,-54.74058151245117
2799464,535297535,641202687,0,0.5382208228111267,-0.708539605140686,0,-54.74264144897461
2799474,536346111,641203711,0,0.5383381247520447,-0.708403468132019,0,-54.744384765625
2799484,536346111,641202687,0,0.5385488271713257,-0.7084055542945862,0,-54.74543380737305
2799494,536346111,641203711,0,0.5392733812332153,-0.7079333662986755,0,-54.746116638183594
2799504,536345087,641203711,0,0.5398595929145813,-0.7069428563117981,0,-54.747093200683594
2799514,536346111,641202687,0,0.5406157374382019,-0.7066888213157654,0,-54.74810791015625
2799524,535297535,641202688,0,0.5408827066421509,-0.7071481943130493,0,-54.749916076660156
2799534,536346111,641202688,0,0.5401108264923096,-0.707659125328064,0,-54.751522064208984
2799544,535297535,641202687,0,0.5396509766578674,-0.7081310749053955,0,-54.753780364990234
2799554,536346111,641202687,0,0.5389069318771362,-0.7083110809326172,0,-54.75537109375
2799564,535297535,641202687,0,0.5385043621063232,-0.7077263593673706,0,-54.75679016113281
2799574,536346111,641202688,0,0.5393880605697632,-0.7079291939735413,0,-54.75816345214844
2799584,536346111,641203712,0,0.5401606559753418,-0.707183301448822,0,-54.7590217590332
2799594,536345087,641202687,0,0.5412542223930359,-0.7055084109306335,0,-54.75965881347656
2799604,536346111,641202687,0,0.5414481163024902,-0.7053027749061584,0,-54.760704040527344
2799614,535297535,641202687,0,0.5411720275878906,-0.7056434154510498,0,-54.761962890625
2799624,536346111,641202687,0,0.5407150983810425,-0.7055155038833618,0,-54.76289367675781
2799634,535297535,641202687,0,0.5402622818946838,-0.7065466046333313,0,-54.765235900878906
2799644,536346111,641202687,0,0.5398834943771362,-0.7072592377662659,0,-54.765899658203125
2799654,536346111,641202687,0,0.5390902757644653,-0.7069119811058044,0,-54.767372131347656
2799664,536346111,641202687,0,0.5382333397865295,-0.7071775197982788,0,-54.7677116394043
2799674,535297535,641202687,0,0.5381036996841431,-0.7061054110527039,0,-54.770809173583984
2799684,536346111,641202687,0,0.5383844971656799,-0.7056601643562317,0,-54.771759033203125
2799694,535297535,641202687,0,0.5390573143959045,-0.7043548226356506,0,-54.774436950683594
2799704,535297535,641202687,0,0.5394487380981445,-0.703820526599884,0,-54.77567672729492
2799714,535297535,641202687,0,0.5403785109519958,-0.7036946415901184,0,-54.777828216552734
2799724,536346111,641202687,0,0.5413132905960083,-0.7037057280540466,0,-54.778648376464844
2799734,536346111,641202687,0,0.5413334369659424,-0.7039604783058167,0,-54.78004455566406
2799744,535297535,641202687,0,0.5407871603965759,-0.7052868604660034,0,-54.78163146972656
2799754,535297535,641202687,0,0.5396480560302734,-0.7067320346832275,0,-54.78348922729492
2799764,535297535,641202687,0,0.5395492315292358,-0.7071897983551025,0,-54.78498840332031
2799774,536346111,641202687,0,0.5398750901222229,-0.707328200340271,0,-54.78705596923828
2799784,535297535,641203711,0,0.539611279964447,-0.707542359828949,0,-54.78852081298828
2799794,536346111,641202687,0,0.5395050644874573,-0.7071461081504822,0,-54.79014205932617
2799804,536346111,641202687,0,0.5386307239532471,-0.7072023749351501,0,-54.79127883911133
2799814,536346111,640154111,0,0.5380951166152954,-0.7075650095939636,0,-54.79241943359375
2799824,536346111,641202687,0,0.5375313758850098,-0.7078589200973511,0,-54.793094635009766
2799834,535297535,641202688,0,0.5382275581359863,-0.709538996219635,0,-54.79460144042969
2799844,535297535,641203711,0,0.5382476449012756,-0.7092114686965942,0,-54.79635238647461
2799854,536346111,641203711,0,0.5388425588607788,-0.7091773152351379,0,-54.797203063964844
2799864,536346111,641202687,0,0.5388314723968506,-0.7092476487159729,0,-54.796993255615234
2799874,536346111,641202687,0,0.5387601256370544,-0.7103228569030762,0,-54.79851150512695
2799884,535297535,641202687,0,0.5387160778045654,-0.7103610038757324,0,-54.79970169067383
2799894,536346111,641202688,0,0.5384095907211304,-0.710951030254364,0,-54.801239013671875
2799904,536346111,641202688,0,0.5388708710670471,-0.7116094827651978,0,-54.80260467529297
2799914,536346111,641202687,0,0.53919917345047,-0.7131085395812988,0,-54.802669525146484
2799924,536346111,641202687,0,0.5391034483909607,-0.7128257155418396,0,-54.802886962890625
2799934,536346111,641202687,0,0.5391144156455994,-0.7129689455032349,0,-54.8040771484375
2799944,535297535,641202687,0,0.5389376282691956,-0.7129896879196167,0,-54.804359436035156
2799954,536346111,641202687,0,0.539348840713501,-0.7132746577262878,0,-54.80552291870117
2799964,535297535,640154111,0,0.5392409563064575,-0.7128818035125732,0,-54.807064056396484
2799974,536346111,641202687,0,0.5394283533096313,-0.712155818939209,0,-54.80854797363281
2799984,536346111,641202688,0,0.5396305322647095,-0.7120922207832336,0,-54.8090705871582
2799994,536346111,641202687,0,0.5394896864891052,-0.7118973731994629,0,-54.8106575012207
2800004,536346111,641202687,0,0.539536714553833,-0.7124016284942627,0,-54.811920166015625
2800014,536346111,641202687,0,0.5389935970306396,-0.7128010988235474,0,-54.81330871582031
2800024,536346111,641202687,0,0.5388815402984619,-0.7124693989753723,0,-54.814090728759766
2800034,535297535,641202688,0,0.5388230681419373,-0.7125874161720276,0,-54.815345764160156
2800044,536346111,641202687,0,0.5390735268592834,-0.7127134203910828,0,-54.816837310791016
2800054,536346111,641202687,0,0.5392193794250488,-0.712793231010437,0,-54.8176383972168
2800064,536346111,641202687,0,0.5390512347221375,-0.7119941711425781,0,-54.81807327270508
2800074,536346111,641202687,0,0.538388192653656,-0.7113848328590393,0,-54.81953048706055
2800084,536346111,641202687,0,0.5383029580116272,-0.7113509178161621,0,-54.82084655761719
2800094,536346111,641203712,0,0.5374667644500732,-0.7121631503105164,0,-54.82210922241211
2800104,536346111,641202687,0,0.5362265110015869,-0.7133504748344421,0,-54.82291793823242
2800114,536346111,640154111,0,0.5353375673294067,-0.7146458029747009,0,-54.8238639831543
2800124,536346111,641202687,0,0.5346189737319946,-0.7143040299415588,0,-54.82462692260742
2800134,535297535,641203711,0,0.5342292189598083,-0.7136451601982117,0,-54.82654571533203
2800144,535297535,641202688,0,0.5345028638839722,-0.7122116088867188,0,-54.82828903198242
2800154,536345087,641202688,0,0.5360708236694336,-0.7119051218032837,0,-54.830604553222656
2800164,535297535,641202688,0,0.5366483330726624,-0.7119497656822205,0,-54.83132553100586
2800174,536346111,641202687,0,0.5379112958908081,-0.7121055722236633,0,-54.832763671875
2800184,536346111,641202687,0,0.5384310483932495,-0.7119250893592834,0,-54.83332443237305
2800194,536346111,641202688,0,0.5385051369667053,-0.7116879224777222,0,-54.835750579833984
2800204,536346111,641202687,0,0.5382409691810608,-0.7121200561523438,0,-54.83682632446289
2800214,535297534,641202687,0,0.5373353362083435,-0.7138781547546387,0,-54.83909225463867
2800224,536346111,641202687,0,0.5370233654975891,-0.7146494388580322,0,-54.840518951416016
2800234,536346111,641203711,0,0.5365848541259766,-0.7144203782081604,0,-54.84142303466797
2800244,536346111,641203711,0,0.5364288687705994,-0.714196503162384,0,-54.84236526489258
2800254,535297535,641202687,0,0.5359998345375061,-0.7130757570266724,0,-54.84446334838867
2800264,536346111,641202688,0,0.536074161529541,-0.7126049995422363,0,-54.845760345458984
2800274,536346111,641202687,0,0.536102831363678,-0.7132337689399719,0,-54.84714889526367
2800284,535297535,641202687,0,0.5357214212417603,-0.7142170667648315,0,-54.848018646240234
2800294,535297535,641202688,0,0.5350063443183899,-0.7146662473678589,0,-54.8513298034668
2800304,536346111,641202687,0,0.5345779657363892,-0.7135629653930664,0,-54.85271453857422
2800314,535297535,641202687,0,0.5341816544532776,-0.7126679420471191,0,-54.854652404785156
2800324,536345087,641202687,0,0.5344290733337402,-0.7121339440345764,0,-54.85658645629883
2800334,535297535,641202687,0,0.5356053709983826,-0.711458683013916,0,-54.859004974365234
2800344,536346111,641202687,0,0.5360123515129089,-0.7115637063980103,0,-54.85987854003906
2800354,536346111,641203711,0,0.5363074541091919,-0.710991621017456,0,-54.86042785644531
2800364,535297535,641202687,0,0.5364087820053101,-0.7106136679649353,0,-54.86198806762695
2800374,536346111,641202687,0,0.5361567139625549,-0.7099588513374329,0,-54.864227294921875
2800384,536346111,641202687,0,0.5357581973075867,-0.7095642685890198,0,-54.8651237487793
2800394,536346111,641202688,0,0.535843551158905,-0.7096304297447205,0,-54.86576843261719
2800404,536346111,641202688,0,0.5360510945320129,-0.7102382779121399,0,-54.867042541503906
2800414,535297535,641203711,0,0.5356728434562683,-0.7104575634002686,0,-54.86888885498047
2800424,536346111,641202687,0,0.5352692604064941,-0.7101072072982788,0,-54.86945724487305
2800434,535297535,641202687,0,0.5356554388999939,-0.709783136844635,0,-54.872314453125
2800444,536346111,641202687,0,0.5360018610954285,-0.709879994392395,0,-54.873748779296875
2800454,535297535,641202688,0,0.5359248518943787,-0.7106513977050781,0,-54.87538146972656
2800464,536346111,641202688,0,0.5361121296882629,-0.7098055481910706,0,-54.87633514404297
2800474,536346111,641202687,0,0.535856306552887,-0.7094542980194092,0,-54.877689361572266
2800484,536346111,641202687,0,0.535438597202301,-0.7100275158882141,0,-54.87869644165039
2800494,535297535,641202688,0,0.5360941290855408,-0.7102108597755432,0,-54.88035202026367
2800504,536346111,641202687,0,0.5364518165588379,-0.7107502818107605,0,-54.8808479309082
2800514,536346111,641202687,0,0.5362488031387329,-0.7109209895133972,0,-54.88213348388672
2800524,535297535,641202687,0,0.5359980463981628,-0.7107799053192139,0,-54.88359451293945
2800534,536346111,641202687,0,0.5359504222869873,-0.7105252146720886,0,-54.88450241088867
2800544,536346111,641202688,0,0.5350384712219238,-0.7106790542602539,0,-54.88495635986328
2800554,536346111,641202687,0,0.5345078706741333,-0.7115289568901062,0,-54.886966705322266
2800564,536346111,641202687,0,0.5347630977630615,-0.7119193077087402,0,-54.88832092285156
2800574,536346111,641202687,0,0.5344980359077454,-0.7126699686050415,0,-54.88906478881836
2800584,536346111,641202687,0,0.5345271825790405,-0.713154673576355,0,-54.88930892944336
2800594,536346111,641202687,0,0.5348462462425232,-0.7136340141296387,0,-54.890743255615234
2800604,536346111,641202687,0,0.5345218777656555,-0.7133187055587769,0,-54.89219665527344
2800614,536345087,641202687,0,0.5350554585456848,-0.7136940360069275,0,-54.892765045166016
2800624,535297535,641202687,0,0.5355886220932007,-0.713326096534729,0,-54.89400863647461
2800634,535297535,641202688,0,0.5349047780036926,-0.7137171626091003,0,-54.896305084228516
2800644,536346111,641202688,0,0.535915732383728,-0.7142645716667175,0,-54.897308349609375
2800654,535297535,641202687,0,0.5359692573547363,-0.7143990397453308,0,-54.89947509765625
2800664,536346111,641202687,0,0.535615086555481,-0.7148809432983398,0,-54.90074920654297
2800674,535297535,641203712,0,0.5358856320381165,-0.7156543135643005,0,-54.902587890625
2800684,536346111,641203711,0,0.5354324579238892,-0.7156081795692444,0,-54.902950286865234
2800694,536346111,641202688,0,0.5349673628807068,-0.7150453329086304,0,-54.90437698364258
2800704,535297535,641202687,0,0.5350481867790222,-0.7157402634620667,0,-54.906402587890625
2800714,536346111,641202687,0,0.5353825688362122,-0.7164443135261536,0,-54.90824508666992
2800724,535297535,641202687,0,0.5352913737297058,-0.7168413996696472,0,-54.9094123840332
2800734,536346111,641203712,0,0.5355071425437927,-0.7167395353317261,0,-54.911190032958984
2800744,536346111,641202688,0,0.5358523726463318,-0.7173094749450684,0,-54.91222381591797
2800754,536346111,641202687,0,0.536489725112915,-0.7169614434242249,0,-54.91326141357422
2800764,535297535,641202687,0,0.5364429950714111,-0.7172113060951233,0,-54.91450119018555
2800774,535297535,641202688,0,0.5357785224914551,-0.7173522114753723,0,-54.91656494140625
2800784,535297535,641202688,0,0.5357650518417358,-0.71701580286026,0,-54.91867446899414
2800794,536346111,641202687,0,0.5361741781234741,-0.7171097993850708,0,-54.91990280151367
2800804,535297535,641202687,0,0.536469578742981,-0.71656334400177,0,-54.921627044677734
2800814,536346111,641202687,0,0.5367671251296997,-0.7169601321220398,0,-54.922908782958984
2800824,536346111,641202687,0,0.5370005965232849,-0.7168354392051697,0,-54.92356872558594
2800834,535297535,640154111,0,0.5369219779968262,-0.7162149548530579,0,-54.925296783447266
2800844,535297535,641202687,0,0.5367422699928284,-0.7170218825340271,0,-54.92637634277344
2800854,535297535,641202687,0,0.5369370579719543,-0.7175841927528381,0,-54.9283332824707
2800864,536346111,641202687,0,0.5368065237998962,-0.7184726595878601,0,-54.92913055419922
2800874,536346111,641202687,0,0.5366371870040894,-0.7191005945205688,0,-54.929222106933594
2800884,535297535,641202687,0,0.5357248187065125,-0.7194952368736267,0,-54.93046569824219
2800894,535297535,641202687,0,0.5350880026817322,-0.7193065285682678,0,-54.93278884887695
2800904,536346111,641203712,0,0.5356999039649963,-0.7187601923942566,0,-54.933345794677734
2800914,536345087,641202688,0,0.5371326804161072,-0.7183529734611511,0,-54.934532165527344
2800924,536346111,641202688,0,0.5384601950645447,-0.7178057432174683,0,-54.935855865478516
2800934,536346111,641202687,0,0.5390490293502808,-0.7167251110076904,0,-54.937217712402344
2800944,536346111,641202687,0,0.5389286875724792,-0.7176230549812317,0,-54.93721389770508
2800954,536346111,641202687,0,0.5371072888374329,-0.7185481190681458,0,-54.93791961669922
2800964,536346111,641202687,0,0.536817729473114,-0.7196752429008484,0,-54.93785858154297
2800974,535297535,641202687,0,0.5361097455024719,-0.720327615737915,0,-54.93915939331055
2800984,536346111,641202687,0,0.535175621509552,-0.7197266817092896,0,-54.93983459472656
2800994,535297535,641202687,0,0.5347769856452942,-0.7201154232025146,0,-54.941802978515625
2801004,536345087,641202687,0,0.535639226436615,-0.7199071049690247,0,-54.94276809692383
2801014,536345087,640154111,0,0.5370379686355591,-0.7192972898483276,0,-54.943511962890625
2801024,536346111,641202687,0,0.537803590297699,-0.7185915112495422,0,-54.94456100463867
2801034,536346111,641202688,0,0.5390641689300537,-0.7178257703781128,0,-54.94560623168945
2801044,536346111,641202687,0,0.539486289024353,-0.7183327674865723,0,-54.9461669921875
2801054,536346111,641202687,0,0.5392349362373352,-0.7189355492591858,0,-54.94758987426758
2801064,536346111,641202687,0,0.538913905620575,-0.7190390229225159,0,-54.94866180419922
2801074,536346111,640154111,0,0.5385040640830994,-0.7198255658149719,0,-54.94932174682617
2801084,536346111,641203711,0,0.537747323513031,-0.7207318544387817,0,-54.950496673583984
2801094,535297535,641202687,0,0.5370540618896484,-0.7205350995063782,0,-54.95195007324219
2801104,536346111,641203712,0,0.537133514881134,-0.7207983136177063,0,-54.95298767089844
2801114,535297535,640154112,0,0.5365576148033142,-0.7203825116157532,0,-54.95469665527344
2801124,536346111,641202687,0,0.5364660620689392,-0.7206840515136719,0,-54.95603942871094
2801134,536346111,641202688,0,0.53690505027771,-0.7208530306816101,0,-54.95750427246094
2801144,536346111,641202687,0,0.5364453196525574,-0.7210025191307068,0,-54.95921325683594
2801154,536346111,641203711,0,0.5348455905914307,-0.7210162281990051,0,-54.9605712890625
2801164,536346111,641202687,0,0.5334101915359497,-0.7214381694793701,0,-54.961814880371094
2801174,536346111,641202687,0,0.5332030653953552,-0.7232192754745483,0,-54.96267318725586
2801184,536346111,641202687,0,0.5332940816879272,-0.7233300805091858,0,-54.96345901489258
2801194,536346111,641202688,0,0.5339978337287903,-0.722694993019104,0,-54.96503448486328
2801204,536346111,641202687,0,0.5336254239082336,-0.7217828631401062,0,-54.966304779052734
2801214,536346111,641202687,0,0.5341967344284058,-0.7219715118408203,0,-54.968143463134766
2801224,536346111,641202688,0,0.5340064167976379,-0.7217509150505066,0,-54.96889114379883
2801234,536346111,641202687,0,0.5333041548728943,-0.7212440967559814,0,-54.97052001953125
2801244,536346110,641202687,0,0.5326569080352783,-0.7221514582633972,0,-54.97105026245117
2801254,536346111,641202687,0,0.5315907001495361,-0.7235881686210632,0,-54.97249221801758
2801264,536346111,641202687,0,0.5316500067710876,-0.7236478328704834,0,-54.973575592041016
2801274,535297535,641202687,0,0.5317914485931396,-0.7244902849197388,0,-54.97456741333008
2801284,536346111,641202687,0,0.5320176482200623,-0.7239331603050232,0,-54.976131439208984
2801294,536346111,641202687,0,0.5320558547973633,-0.7227263450622559,0,-54.976627349853516
2801304,536346111,641202687,0,0.5327866673469543,-0.7220050096511841,0,-54.977291107177734
2801314,536346111,641203711,0,0.5336517095565796,-0.7204878926277161,0,-54.978370666503906
2801324,536346111,641203712,0,0.5341889262199402,-0.7195447087287903,0,-54.97856140136719
2801334,536346111,641202687,0,0.5355328917503357,-0.7189919948577881,0,-54.980010986328125
2801344,536346111,641202687,0,0.536034882068634,-0.7192947864532471,0,-54.98042678833008
2801354,536346111,641202687,0,0.5359991788864136,-0.7194514274597168,0,-54.9818000793457
2801364,536346111,641202688,0,0.5357861518859863,-0.7194349765777588,0,-54.98288345336914
2801374,536346111,641202688,0,0.5357024073600769,-0.7192822694778442,0,-54.98517990112305
2801384,535297535,641202687,0,0.5358778238296509,-0.7191756963729858,0,-54.986419677734375
2801394,535297535,641202687,0,0.5358986854553223,-0.7192000150680542,0,-54.9890251159668
2801404,536346111,641202687,0,0.5362976789474487,-0.7193011045455933,0,-54.99028015136719
2801414,535297535,641203712,0,0.5369653105735779,-0.7189081311225891,0,-54.99196243286133
2801424,535297535,641202688,0,0.5370633602142334,-0.7187060117721558,0,-54.99330520629883
2801434,535297535,641202688,0,0.5371115803718567,-0.7195430397987366,0,-54.99540328979492
2801444,536346111,641202688,0,0.5365268588066101,-0.7198524475097656,0,-54.99666213989258
2801454,535297535,641202687,0,0.5371017456054688,-0.7201840281486511,0,-54.99849319458008
2801464,536346111,641202687,0,0.537280261516571,-0.7211455702781677,0,-54.99920654296875
2801474,536346111,641203712,0,0.5382076501846313,-0.7214757204055786,0,-55.000465393066406
2801484,535296511,640154111,0,0.5389437079429626,-0.7209317088127136,0,-55.001548767089844
2801494,536345087,641202687,0,0.5402461290359497,-0.7196802496910095,0,-55.00355911254883
2801504,536346111,641202687,0,0.540665864944458,-0.719147264957428,0,-55.00386428833008
2801514,536346111,641202688,0,0.5402752161026001,-0.7187933921813965,0,-55.00590133666992
2801524,536346111,641203711,0,0.5393326878547668,-0.7189770340919495,0,-55.00702667236328
2801534,535297535,641202688,0,0.5383921265602112,-0.7193406224250793,0,-55.00914001464844
2801544,536346111,641202688,0,0.5383321046829224,-0.7208784222602844,0,-55.0104866027832
2801554,536346111,641202687,0,0.5373438596725464,-0.7223301529884338,0,-55.012325286865234
2801564,536346111,641203712,0,0.5373005270957947,-0.7226988077163696,0,-55.01304626464844
2801574,535297535,640155135,0,0.5375462770462036,-0.7225185036659241,0,-55.014564514160156
2801584,536346111,641203712,0,0.5380926728248596,-0.7221162915229797,0,-55.01610565185547
2801594,536345087,641203711,0,0.5396674871444702,-0.7200486063957214,0,-55.01706314086914
2801604,536346111,641202687,0,0.5398613810539246,-0.7190899848937988,0,-55.0181999206543
2801614,536345087,641202687,0,0.5410864949226379,-0.7181458473205566,0,-55.01851272583008
2801624,535297535,640154112,0,0.5421057343482971,-0.7182512879371643,0,-55.01979446411133
2801634,536346111,640154112,0,0.5422460436820984,-0.7190836668014526,0,-55.02037048339844
2801644,536346111,640155136,0,0.5416818261146545,-0.7197954654693604,0,-55.0203971862793
2801654,535297535,641203711,0,0.5412648320198059,-0.7209832668304443,0,-55.02202606201172
2801664,535297535,641202687,0,0.5405018925666809,-0.7211623787879944,0,-55.02300262451172
2801674,536346111,641202687,0,0.5404069423675537,-0.7215000987052917,0,-55.02484130859375
2801684,536346111,641202687,0,0.540635347366333,-0.7207707166671753,0,-55.02583694458008
2801694,535297535,641202687,0,0.5408211350440979,-0.7197981476783752,0,-55.02759552001953
2801704,535297535,641202687,0,0.5408219695091248,-0.7200903296470642,0,-55.02910232543945
2801714,536346111,641202687,0,0.541363537311554,-0.7207216024398804,0,-55.03043746948242
2801724,536346111,641202687,0,0.5411745309829712,-0.7208413481712341,0,-55.03125762939453
2801734,536346111,641203711,0,0.5398073792457581,-0.7207276821136475,0,-55.032859802246094
2801744,535297535,641202687,0,0.5391973257064819,-0.7209622859954834,0,-55.033634185791016
2801754,535297535,641202687,0,0.5393823981285095,-0.722192108631134,0,-55.03617858886719
2801764,535297535,641202687,0,0.5387224555015564,-0.7223393321037292,0,-55.03760528564453
2801774,536346111,641202687,0,0.537990391254425,-0.7217600345611572,0,-55.0386848449707
2801784,536346111,641202687,0,0.5386922955513,-0.7212710380554199,0,-55.03898620605469
2801794,536346111,641202687,0,0.5393131375312805,-0.7213954329490662,0,-55.04096221923828
2801804,536346111,641202687,0,0.5396744608879089,-0.7208523750305176,0,-55.04179763793945
2801814,536346111,641202687,0,0.5396512150764465,-0.7201893329620361,0,-55.042842864990234
2801824,536346111,641202687,0,0.5388694405555725,-0.7201769948005676,0,-55.04338073730469
2801834,536346111,641202687,0,0.5403856039047241,-0.7207211852073669,0,-55.044254302978516
2801844,535297535,641202687,0,0.5404672026634216,-0.7211242318153381,0,-55.04534912109375
2801854,536346111,640154111,0,0.5408281087875366,-0.7214492559432983,0,-55.04689025878906
2801864,536346111,641202687,0,0.5407065749168396,-0.7213184237480164,0,-55.04725646972656
2801874,535297535,641202687,0,0.5398055911064148,-0.7216945290565491,0,-55.04910659790039
2801884,536345087,641203711,0,0.5402067303657532,-0.7214342355728149,0,-55.04975128173828
2801894,536346111,641202687,0,0.5408883094787598,-0.7197766900062561,0,-55.05119323730469
2801904,536346111,641202688,0,0.541368842124939,-0.7198321223258972,0,-55.05244445800781
2801914,536346111,641202687,0,0.541684091091156,-0.7211506962776184,0,-55.053733825683594
2801924,536346111,641202688,0,0.5414068698883057,-0.7215558290481567,0,-55.05337142944336
2801934,536346111,641202688,0,0.5411077737808228,-0.7223338484764099,0,-55.05357360839844
2801944,535297535,641202687,0,0.5404554009437561,-0.72272789478302,0,-55.05571365356445
2801954,535297535,641202688,0,0.5397831201553345,-0.7225543856620789,0,-55.05756378173828
2801964,536346111,641202687,0,0.5396680235862732,-0.7222884893417358,0,-55.058231353759766
2801974,535297535,641202687,0,0.5394811630249023,-0.7221500873565674,0,-55.06058883666992
2801984,536346111,641202687,0,0.5389989614486694,-0.7235251069068909,0,-55.06200408935547
2801994,536346111,641202687,0,0.538655161857605,-0.7244032621383667,0,-55.06371307373047
2802004,536346111,641202687,0,0.5384326577186584,-0.7248982787132263,0,-55.06486511230469
2802014,536346111,641202687,0,0.5393951535224915,-0.7250912189483643,0,-55.06596755981445
2802024,535297535,641203712,0,0.5386388897895813,-0.724663496017456,0,-55.067447662353516
2802034,536346111,641202687,0,0.5382115244865417,-0.7235069870948792,0,-55.0692253112793
2802044,535297535,641202687,0,0.5378650426864624,-0.7231969237327576,0,-55.07006072998047
2802054,536346111,641202687,0,0.5373990535736084,-0.7230538129806519,0,-55.07118225097656
2802064,536346111,641202687,0,0.5369979739189148,-0.7244071960449219,0,-55.07202911376953
2802074,535297535,641202688,0,0.5364775061607361,-0.7244667410850525,0,-55.07396697998047
2802084,535297535,641202687,0,0.5370175838470459,-0.7242091298103333,0,-55.07561492919922
2802094,536346111,641202687,0,0.5365495681762695,-0.7244390845298767,0,-55.076534271240234
2802104,536346111,641202688,0,0.5370541214942932,-0.7249262928962708,0,-55.07707214355469
2802114,536346111,641202688,0,0.536349892616272,-0.7258908748626709,0,-55.07741165161133
2802124,536346111,641202688,0,0.5361141562461853,-0.7268033623695374,0,-55.07874298095703
2802134,535297535,641202688,0,0.5362969636917114,-0.7264374494552612,0,-55.07996368408203
2802144,535297535,641202688,0,0.536198079586029,-0.7262840270996094,0,-55.080772399902344
2802154,535297535,641202687,0,0.535746157169342,-0.7262316346168518,0,-55.08314514160156
2802164,536346111,641203711,0,0.5359296202659607,-0.7262734770774841,0,-55.084354400634766
2802174,535297535,640154112,0,0.53669273853302,-0.7239327430725098,0,-55.08580780029297
2802184,536346111,641202688,0,0.5376237034797668,-0.7233902215957642,0,-55.08608627319336
2802194,535297535,641202687,0,0.5376580357551575,-0.7248386144638062,0,-55.087406158447266
2802204,536346111,641202687,0,0.5374030470848083,-0.7258504033088684,0,-55.088253021240234
2802214,536346111,641202688,0,0.5377606153488159,-0.7266330122947693,0,-55.089717864990234
2802224,536346111,641202688,0,0.5375180244445801,-0.7267541289329529,0,-55.090553283691406
2802234,536346111,641202687,0,0.5360517501831055,-0.7256731390953064,0,-55.090946197509766
2802244,536346111,641202687,0,0.535743772983551,-0.7258685231208801,0,-55.09103012084961
2802254,536346111,641202687,0,0.535567045211792,-0.7249911427497864,0,-55.092655181884766
2802264,536346111,641202688,0,0.5364265441894531,-0.7247000336647034,0,-55.09381103515625
2802274,536346111,641202687,0,0.5366188287734985,-0.7249346375465393,0,-55.0939826965332
2802284,535297535,641202687,0,0.5363903641700745,-0.7240798473358154,0,-55.0949821472168
2802294,535297535,641202687,0,0.5362098813056946,-0.7242389917373657,0,-55.096778869628906
2802304,536346111,641202687,0,0.5362504720687866,-0.724574089050293,0,-55.0979118347168
2802314,536346111,641202688,0,0.5362070202827454,-0.7259087562561035,0,-55.09858322143555
2802324,536346111,641202688,0,0.5361449718475342,-0.7265632748603821,0,-55.09986877441406
2802334,536346111,641202687,0,0.5358269810676575,-0.7270766496658325,0,-55.10166931152344
2802344,536346111,641202687,0,0.5353906750679016,-0.7281989455223083,0,-55.10190963745117
2802354,536346111,641202687,0,0.534570574760437,-0.7278253436088562,0,-55.10350799560547
2802364,536346111,641202687,0,0.5346869230270386,-0.7265805602073669,0,-55.104026794433594
2802374,535297535,641203711,0,0.5346172451972961,-0.7259966731071472,0,-55.10560607910156
2802384,536346111,641203711,0,0.5344762206077576,-0.7251049876213074,0,-55.10602951049805
2802394,535297535,641202688,1095452219,0.5333151817321777,-0.7246278524398804,8192,-55.10757827758789
2802404,536346111,641202688,1129204030,0.5332505106925964,-0.7258650660514832,22528,-55.104671478271484
2802414,535297535,641202688,1179733056,0.5337725281715393,-0.7245113253593445,38400,-55.10630416870117
2802424,536346111,641203712,1230261827,0.5341026782989502,-0.725429892539978,53760,-55.10585403442383
2802434,536347134,641202687,1247038787,0.5284767746925354,-0.7305871248245239,53760,-55.106903076171875
2802444,536346111,641203711,1213484867,0.5270774364471436,-0.7335267663002014,53760,-55.10860824584961
2802454,534249981,640154111,1314279236,0.5209877490997314,-0.7398392558097839,4096,-55.10820388793945
2802464,538443262,642252288,1331384648,0.5168330073356628,-0.7453234195709229,19456,-55.110321044921875
2802474,535297533,640154113,1264408387,0.5032647252082825,-0.7629247307777405,19456,-55.113216400146484
2802484,536348156,640154112,1331714119,0.48243647813796997,-0.7790235280990601,35328,-55.11104965209961
2802494,536349180,641203711,1381782603,0.46042004227638245,-0.8007134795188904,35328,-55.111610412597656
2802504,534252028,641202686,1398428748,0.4495152235031128,-0.8217795491218567,35328,-55.11233139038086
2802514,537393664,641201662,1264409419,0.44039198756217957,-0.8310131430625916,35328,-55.10654830932617
2802524,535292419,642251262,1180590664,0.4408474564552307,-0.8254023194313049,35328,-55.11985397338867
2802534,536345087,640155137,1382374988,0.44572913646698,-0.8155748248100281,0,-55.11167526245117
2802544,536346111,639105536,1482906190,0.4525051712989807,-0.807896614074707,0,-55.121761322021484
2802554,536347133,642252287,1499749714,0.44372570514678955,-0.8213402628898621,15360,-55.114810943603516
2802564,535298556,641202689,1500077389,0.43548840284347534,-0.8289310932159424,15360,-55.11623764038086
2802574,536346111,641202688,1416061263,0.4297019839286804,-0.838890016078949,15360,-55.11730194091797
2802584,534248959,641202687,1449615694,0.42847728729248047,-0.8413600325584412,15360,-55.115299224853516
2802594,537394687,639105535,1516854095,0.43493273854255676,-0.8294654488563538,15360,-55.118839263916016
2802604,535298557,637008383,1533698385,0.42654529213905334,-0.8424072265625,31232,-55.1199836730957
2802614,535297534,640154111,1516855632,0.42261627316474915,-0.8505200147628784,54784,-55.12352752685547
2802624,535297535,642252287,1500012624,0.4210311770439148,-0.8452773690223694,7680,-55.12425231933594
2802634,535299582,641201664,1550212175,0.41221320629119873,-0.8464413285255432,31232,-55.13248062133789
2802644,536346112,638053887,1483103567,0.4181259870529175,-0.8449855446815491,50688,-55.137088775634766
2802654,536346110,635960832,1500077132,0.420122355222702,-0.8507088422775269,50688,-55.135433197021484
2802664,536345087,635962879,1432969549,0.4162670075893402,-0.8521326184272766,15360,-55.13644790649414
2802674,534246912,635959808,1433101130,0.4215202033519745,-0.8441205024719238,15360,-55.1424446105957
2802684,535296511,639104513,1500142922,0.4239805340766907,-0.8403714895248413,39424,-55.149600982666016
2802694,536346111,640152067,1382573135,0.42340031266212463,-0.8560071587562561,15360,-55.14890670776367
2802704,534248960,638053891,1483300940,0.4292408227920532,-0.8545636534690857,15360,-55.151737213134766
2802714,536346112,638055937,1466457934,0.43366697430610657,-0.8538461923599243,15360,-55.15964889526367
2802724,536348158,638054913,1533566030,0.43088600039482117,-0.8582313060760498,15360,-55.1563606262207
2802734,535300604,642250240,1550342990,0.41891542077064514,-0.8797707557678223,15360,-55.1636962890625
2802744,534247935,643299836,1416062030,0.41174668073654175,-0.8885632157325745,15360,-55.16800308227539
2802754,535294465,644347387,1449943369,0.42014914751052856,-0.8685717582702637,15360,-55.17802047729492
2802764,535296511,645393914,1567383630,0.42115381360054016,-0.8677224516868591,31232,-55.182838439941406
2802774,536346110,639103487,1500406605,0.4099893867969513,-0.8819733262062073,31232,-55.18821716308594
2802784,536348157,642249217,1584028494,0.4102157950401306,-0.8866562247276306,18944,-55.189754486083984
2802794,535299581,644346370,1533828683,0.3954225480556488,-0.9095313549041748,18944,-55.1910400390625
2802804,535294466,645396990,1449878090,0.40557366609573364,-0.9025117754936218,38400,-55.195709228515625
2802814,535294463,643295740,1483562566,0.41905099153518677,-0.8917801976203918,65024,-55.207096099853516
2802824,534248958,641200639,1534026315,0.4111597239971161,-0.9012960195541382,31232,-55.21126174926758
2802834,533200381,641204736,1550672201,0.4046643078327179,-0.9135643243789673,53248,-55.23055648803711
2802844,534248958,644350463,1550671433,0.40500608086586,-0.9115569591522217,7680,-55.23887252807617
2802854,534246911,639105535,1483563335,0.40565773844718933,-0.914466142654419,34304,-55.25135040283203
2802864,534247936,638056960,1533697096,0.41574525833129883,-0.9035773277282715,50176,-55.26557159423828
2802874,535298558,640156160,1584159304,0.4170399606227875,-0.8966379761695862,15360,-55.26930618286133
2802884,535296510,641205759,1433101129,0.4094318449497223,-0.9028348922729492,15360,-55.275028228759766
2802894,532151808,635960833,1550475335,0.4150526821613312,-0.8908583521842957,15360,-55.296607971191406
2802904,532152830,640156161,1483563590,0.4129565358161926,-0.8925613760948181,15360,-55.32693862915039
2802914,535296511,641203710,1517116999,0.41297590732574463,-0.8889173865318298,15360,-55.337242126464844
2802924,531102207,643300861,1433298500,0.4050869643688202,-0.889241099357605,15360,-55.354652404785156
2802934,529001986,641203711,1483697475,0.4189855456352234,-0.8739617466926575,31232,-55.40306091308594
2802944,530054654,640153087,1617846599,0.4225200414657593,-0.87137371301651,31232,-55.44272232055664
2802954,535299580,641203711,1517314887,0.3932355046272278,-0.900513231754303,57344,-55.46591567993164
2802964,536344065,640153087,1466852168,0.3979611098766327,-0.8987377285957336,10752,-55.466373443603516
2802974,534247936,643298816,1550934855,0.4081558883190155,-0.8810734152793884,31232,-55.469337463378906
2802984,534248959,642250237,1534157896,0.40652257204055786,-0.8833933472633362,31232,-55.47637939453125
2802994,534249981,641201662,1517446981,0.38256940245628357,-0.8976272940635681,31232,-55.49630355834961
2803004,535294466,644346367,1433429831,0.3918311595916748,-0.8956500291824341,50688,-55.499855041503906
2803014,536345086,643298813,1534287427,0.39328035712242126,-0.8947398662567139,7680,-55.50125503540039
2803024,536346110,641202688,1483825733,0.38601428270339966,-0.9021897315979004,7680,-55.4942741394043
2803034,534246913,642251265,1433429315,0.40180590748786926,-0.890775740146637,27136,-55.499755859375
2803044,534249982,644347389,1584488775,0.4010187089443207,-0.8936893939971924,31232,-55.51261901855469
2803054,535297535,642253312,1466984520,0.39276251196861267,-0.8993112444877625,31232,-55.516727447509766
2803064,535294464,644348417,1517643076,0.40678030252456665,-0.8909372687339783,31232,-55.51866149902344
2803074,536346108,642250237,1551196739,0.4046023190021515,-0.9031233787536621,31232,-55.52104187011719
2803084,536345088,640153087,1467115335,0.40001243352890015,-0.9116508364677429,31232,-55.52141189575195
2803094,535292418,643299840,1484088900,0.4329204559326172,-0.8848549127578735,31232,-55.52280044555664
2803104,534245889,640154110,1568041031,0.4452067017555237,-0.8717077970504761,46592,-55.528526306152344
2803114,533202429,640155137,1668571975,0.4453953802585602,-0.8771743774414062,46592,-55.54993438720703
2803124,532156920,643302913,1719295810,0.42979228496551514,-0.8925111293792725,46592,-55.56718444824219
2803134,536346111,640154109,1467444295,0.4051770865917206,-0.9167022705078125,46592,-55.575382232666016
2803144,534247935,642250240,1652122436,0.41946083307266235,-0.8996641635894775,46592,-55.57874298095703
2803154,536346109,643299839,1551460420,0.418443888425827,-0.9124115705490112,46592,-55.58832550048828
2803164,536347133,638057983,1601791301,0.41035744547843933,-0.9146899580955505,46592,-55.58300018310547
2803174,536346112,641203714,1551460165,0.41887667775154114,-0.9088257551193237,46592,-55.57969284057617
2803184,537392639,642252287,1450929476,0.4198501706123352,-0.9105274677276611,46592,-55.57220458984375
2803194,534247936,639107585,1534618436,0.42744773626327515,-0.8955244421958923,46592,-55.57868576049805
2803204,536347133,640155138,1585079875,0.43292033672332764,-0.8968592882156372,46592,-55.58478927612305
2803214,538444284,640155134,1551722051,0.420335590839386,-0.9158992171287537,46592,-55.57254409790039
2803224,535295489,641204738,1534881351,0.42411959171295166,-0.9133191108703613,61440,-55.56721115112305
2803234,532149761,641204737,1668966980,0.45526108145713806,-0.8857622146606445,61440,-55.592411041259766
2803244,532153852,638059007,1685874756,0.43972328305244446,-0.8930259346961975,61440,-55.616329193115234
2803254,534246913,640156162,1568566850,0.44492799043655396,-0.8840810656547546,61440,-55.63534927368164
2803264,536346110,639105536,1652385606,0.44900786876678467,-0.8831378817558289,61440,-55.63917922973633
2803274,536346111,641202688,1585212231,0.4469366669654846,-0.8920444846153259,61440,-55.63173294067383
2803284,537391617,641203711,1568631620,0.4595339000225067,-0.8768335580825806,61440,-55.62187194824219
2803294,535297534,639106559,1736534086,0.46827471256256104,-0.8663642406463623,11264,-55.624717712402344
2803304,539491839,641203714,1568829256,0.4655560255050659,-0.8747076988220215,11264,-55.61246871948242
2803314,536347134,640155134,1635872071,0.460753470659256,-0.8765274286270142,11264,-55.59910202026367
2803324,537392639,639106559,1619226182,0.4601103365421295,-0.8710113763809204,11264,-55.59214401245117
2803334,535296511,642253313,1669689671,0.46565842628479004,-0.8677273392677307,26624,-55.59396743774414
2803344,534249982,637011455,1719955272,0.4598945081233978,-0.8687903881072998,26624,-55.605831146240234
2803354,534248958,640156161,1720020807,0.4619371294975281,-0.8593965172767639,26624,-55.61454391479492
2803364,532152829,637008382,1820749897,0.459829717874527,-0.8587917685508728,42496,-55.63077926635742
2803374,533201407,640156161,1736865097,0.45025092363357544,-0.862858235836029,42496,-55.663658142089844
2803384,535297534,641205761,1753970508,0.4513981342315674,-0.8597308993339539,57856,-55.669315338134766
2803394,536346110,640154111,1804301132,0.4536570906639099,-0.8578818440437317,57856,-55.674034118652344
2803404,535297533,640153087,1753904459,0.45434126257896423,-0.8593963980674744,19968,-55.669593811035156
2803414,533200382,638055934,1753905483,0.4492003619670868,-0.8686553835868835,57856,-55.68391799926758
2803424,536346110,642252289,1703574093,0.44595882296562195,-0.8759572505950928,57856,-55.692665100097656
2803434,537391618,641202688,1569554508,0.45424970984458923,-0.8706985116004944,57856,-55.68691635131836
2803444,537392640,641201663,1737522253,0.4545786380767822,-0.8708279728889465,8192,-55.68233871459961
2803454,538443263,639106559,1720942673,0.4536963403224945,-0.8715741634368896,22528,-55.666664123535156
2803464,537395709,639106560,1821670479,0.4410901367664337,-0.8797808289527893,22528,-55.6579475402832
2803474,535294466,640155136,1754432078,0.4515937268733978,-0.8706360459327698,22528,-55.66117477416992
2803484,533198335,644348417,1905688655,0.4667191505432129,-0.8557078838348389,38400,-55.679039001464844
2803494,534248957,638055935,1922465358,0.46907296776771545,-0.8645147681236267,38400,-55.70016860961914
2803504,537398779,643298816,1973124690,0.4528200030326843,-0.8823720812797546,53760,-55.70088195800781
2803514,537393664,640152062,1855620179,0.4374964237213135,-0.8972667455673218,53760,-55.68983840942383
2803524,535294465,643297791,1939703380,0.4462074935436249,-0.8907163143157959,4096,-55.69204330444336
2803534,536346109,641202686,1973322835,0.4405772089958191,-0.8949536681175232,4096,-55.691463470458984
2803544,534248959,639107584,1973192021,0.4407144784927368,-0.8984526991844177,4096,-55.69634246826172
2803554,533201405,638057985,2040234835,0.4438779056072235,-0.8982409834861755,4096,-55.71525573730469
2803564,532151807,637008385,2124251735,0.4542028307914734,-0.8905853033065796,19456,-55.73719787597656
2803574,536348156,641203715,2107538515,0.45479902625083923,-0.8991395235061646,4096,-55.74873733520508
2803584,538443261,643300865,1939899730,0.44384312629699707,-0.9134521484375,4096,-55.74131774902344
2803594,536342020,645395966,1822789970,0.45749402046203613,-0.894282341003418,19456,-55.725807189941406
2803604,534240772,644347390,1872858191,0.48954638838768005,-0.8639223575592041,4096,-55.73258972167969
2803614,532151810,640155132,2006615890,0.49759358167648315,-0.828241229057312,4096,-55.761775970458984
2803624,537396732,635959806,2090958161,0.4913252890110016,-0.8273584842681885,4096,-55.76292419433594
2803634,537404919,640154112,2124315220,0.43184709548950195,-0.8846695423126221,4096,-55.75465774536133
2803644,540545536,643299840,1956283225,0.4066678583621979,-0.8985074758529663,4096,-55.73820495605469
2803654,538444289,638057985,2024113236,0.3991958200931549,-0.8723840713500977,19456,-55.710269927978516
2803664,539488761,640157183,1906804300,0.40191009640693665,-0.8928202390670776,4096,-55.69322204589844
2803674,537387525,638059003,1771802455,0.4373520612716675,-0.8793116807937622,4096,-55.675567626953125
2803684,535294467,638055932,1956349270,0.453605979681015,-0.8544125556945801,4096,-55.67278289794922
2803694,536350204,638055935,2107800655,0.4372755289077759,-0.85100919008255,4096,-55.67673873901367
2803704,536348157,646444546,1923255380,0.4205823838710785,-0.8841586112976074,19456,-55.672332763671875
2803714,539489797,645396994,1906739796,0.4326178729534149,-0.8522836565971375,19456,-55.6566047668457
2803724,538440191,639107583,2024047700,0.4600331783294678,-0.8390612602233887,19456,-55.63943099975586
2803734,536346110,642251261,1990297686,0.45448145270347595,-0.8542501330375671,19456,-55.63191223144531
2803744,536351228,642251263,2141357146,0.43516993522644043,-0.8638025522232056,17152,-55.62810134887695
2803754,537397760,645395971,1822725721,0.40650805830955505,-0.8917500972747803,17152,-55.62160873413086
2803764,538448386,643299841,2091156826,0.4021422863006592,-0.8807231187820435,17152,-55.607303619384766
2803774,537402880,641200638,2091026011,0.3415204882621765,-0.8797990679740906,17152,-55.59783935546875
2803784,538449406,641201662,2074380122,0.30225175619125366,-0.8942195177078247,17152,-55.59210968017578
2803794,539492867,642253313,1907134291,0.2620255649089813,-0.8742738962173462,17152,-55.570404052734375
2803804,538455553,645396993,2175107161,0.22090429067611694,-0.8506499528884888,17152,-55.55586242675781
2803814,540555774,643297792,2158264157,0.10706412047147751,-0.8564362525939941,17152,-55.526336669921875
2803824,540558839,645396991,2124907096,0.007730487268418074,-0.897720217704773,17152,-55.50270462036133
2803834,539506183,643300863,1923254105,-0.13160750269889832,-0.8816558718681335,19456,-55.470619201660156
2803844,539509253,640154112,2124710747,-0.2155826836824417,-0.8387266397476196,17152,-55.4567985534668
2803854,540554758,643298816,2124513376,-0.32515949010849,-0.7768461108207703,17152,-55.42531967163086
2803864,539508224,639105533,2141356125,-0.41742873191833496,-0.7624883651733398,17152,-55.40765380859375
2803874,541604348,633864699,2158394461,-0.55104660987854,-0.763523519039154,17152,-55.36751937866211
2803884,540556792,633862654,2208726106,-0.6360257267951965,-0.7976934313774109,17152,-55.34458541870117
2803894,539506166,643300863,2192210776,-0.7675444483757019,-0.8647412657737732,17152,-55.315616607666016
2803904,540553730,642253308,2107671136,-0.8437157273292542,-0.8730156421661377,17152,-55.29193115234375
2803914,541597188,635961851,2174843490,-0.9308257699012756,-0.8203611969947815,17152,-55.253448486328125
2803924,539504128,641202685,2141945942,-1.0186574459075928,-0.7962924838066101,17152,-55.230133056640625
2803934,539513339,641202686,2326296927,-1.165602207183838,-0.8114045858383179,57600,-55.20228958129883
2803944,538460665,639107583,2292612447,-1.2568033933639526,-0.8373944759368896,57600,-55.18888473510742
2803954,537411072,643300863,2309390692,-1.3940460681915283,-0.83962482213974,32768,-55.17445755004883
2803964,536359427,646443517,2259125601,-1.478556513786316,-0.8188875913619995,32768,-55.17288589477539
2803974,534259203,643301886,2275969892,-1.5727505683898926,-0.7807254195213318,7680,-55.18288040161133
2803984,532165124,638057983,2359591522,-1.624222993850708,-0.740980863571167,32768,-55.19995880126953
2803994,531111424,640154109,2342815327,-1.6941742897033691,-0.7274082899093628,32768,-55.238975524902344
2804004,527967749,639106556,2308933732,-1.7387105226516724,-0.7134462594985962,32768,-55.27996826171875
2804014,527963657,642255362,2308869217,-1.784171223640442,-0.6352378129959106,32768,-55.3466682434082
2804024,527964683,646447614,2225114467,-1.8255560398101807,-0.5756232142448425,32768,-55.39365005493164
2804034,527964689,641205751,2208076642,-1.9156688451766968,-0.43545499444007874,32768,-55.461875915527344
2804044,527964689,634913276,2191298661,-1.9619675874710083,-0.3360553979873657,32768,-55.50724792480469
2804054,524819986,637007358,2291831137,-2.013929843902588,-0.17402668297290802,32768,-55.58319091796875
2804064,523775504,638059005,2291764582,-2.0638773441314697,-0.07996714115142822,32768,-55.64892578125
2804074,522721812,643301888,2308215907,-2.1185219287872314,0.08941381424665451,32768,-55.748714447021484
2804084,521680400,640155131,2375125867,-2.1739871501922607,0.18806566298007965,32768,-55.825592041015625
2804094,523776524,641203708,2425458278,-2.287482738494873,0.30678752064704895,32768,-55.93456268310547
2804104,521685510,641203710,2358807907,-2.4000535011291504,0.3512105643749237,32768,-56.00565719604492
2804114,523788808,638061050,2509277542,-2.5782394409179688,0.4294619560241699,32768,-56.105648040771484
2804124,523784711,637010430,2458683247,-2.675752878189087,0.4611186683177948,32768,-56.17657470703125
2804134,524819978,640158204,2358481508,-2.801671266555786,0.5561721920967102,32768,-56.26380157470703
2804144,525870605,640159225,2257818473,-2.874729633331299,0.6242486238479614,32768,-56.32084274291992
2804154,524816917,642253307,2324403563,-2.9109549522399902,0.7888163328170776,32768,-56.404544830322266
2804164,526907923,639107577,2157418852,-2.9394874572753906,0.8978832960128784,32768,-56.46012878417969
2804174,527957525,641201661,2241042533,-2.928731918334961,1.0793875455856323,32768,-56.53030014038086
2804184,527954445,634910202,2257884008,-2.9093029499053955,1.1620022058486938,32768,-56.57503128051758
2804194,527956484,635958780,2375520096,-2.9025096893310547,1.2302244901657104,32768,-56.64103317260742
2804204,530058740,637008380,2442889056,-2.9189562797546387,1.1810561418533325,32768,-56.675628662109375
2804214,531115496,637008380,2627698267,-3.0022740364074707,1.0206403732299805,32768,-56.72150802612305
2804224,530076123,639105535,2728228703,-3.086472272872925,0.8164287805557251,32768,-56.74864959716797
2804234,532165083,640156157,2762044761,-3.1952192783355713,0.5031352639198303,32768,-56.786048889160156
2804244,531115485,645399041,2594275162,-3.263808012008667,0.2855279743671417,32768,-56.8100700378418
2804254,534252013,643303934,2476901466,-3.305753469467163,0.09457039833068848,32768,-56.83122253417969
2804264,533193204,642253310,2359331932,-3.2844817638397217,0.016166558489203453,32768,-56.84617233276367
2804274,533187075,644347387,2292158556,-3.1836202144622803,0.011821752414107323,32768,-56.8675422668457
2804284,533180936,639106551,2274922852,-3.0708060264587402,0.03461612015962601,32768,-56.88541793823242
2804294,532120083,642251262,2057347162,-2.8591625690460205,0.1628650575876236,32768,-56.91419219970703
2804304,531078673,646447610,2107743322,-2.728477954864502,0.25828516483306885,32768,-56.94150161743164
2804314,532137500,643302905,2174064997,-2.5597591400146484,0.4662999212741852,32768,-56.975120544433594
2804324,535288339,642251258,2375322216,-2.480769157409668,0.5949727892875671,32768,-56.98837661743164
2804334,534238737,639106556,2291437928,-2.399359703063965,0.7458236813545227,32768,-57.000919342041016
2804344,534238729,638057980,2141559127,-2.3825087547302246,0.8169760704040527,32768,-57.0077018737793
2804354,535296527,638057983,2107480927,-2.340463161468506,0.9191577434539795,32768,-57.01711654663086
2804364,535301646,639108606,2425522026,-2.3003876209259033,1.005043387413025,32768,-57.02406311035156
2804374,536342033,640156162,2324336242,-2.259028434753418,1.1371638774871826,32768,-57.03050994873047
2804384,536338954,641203709,2107480672,-2.262946128845215,1.2121292352676392,32768,-57.029380798339844
2804394,536347146,643301884,2074123102,-2.2713398933410645,1.3075652122497559,32768,-57.02474594116211
2804404,538451460,645398015,2458551412,-2.256990432739258,1.337529182434082,32768,-57.021995544433594
2804414,535297534,639107581,2358479977,-2.277935266494751,1.3401532173156738,32768,-57.01656723022461
2804424,534255096,641204732,2292552022,-2.3429534435272217,1.3165541887283325,32768,-57.021724700927734
2804434,533215735,640158203,2493024098,-2.4285435676574707,1.249276041984558,32768,-57.04115295410156
2804444,533219827,635965948,2642967666,-2.495074987411499,1.1849842071533203,32768,-57.056705474853516
2804454,533208563,639110652,2476377952,-2.6146390438079834,1.0918517112731934,32768,-57.07718276977539
2804464,533222897,637012471,2459732063,-2.746138572692871,1.0147634744644165,32768,-57.091758728027344
2804474,535321069,637009402,2744546662,-2.922555685043335,0.8728018999099731,32768,-57.097896575927734
2804484,533225956,631768567,2761258598,-3.0614500045776367,0.7298622131347656,32768,-57.109798431396484
2804494,533215712,632815098,2711845463,-3.247584342956543,0.48674511909484863,32768,-57.128414154052734
2804504,532169188,638060025,2526381412,-3.3546202182769775,0.3022029399871826,32768,-57.148109436035156
2804514,532164082,638061048,2643820386,-3.4614973068237305,0.14761394262313843,32768,-57.18165588378906
2804524,529008114,640160252,2660400997,-3.4627461433410645,0.06326620280742645,32768,-57.21220016479492
2804534,528996857,640161273,2510130263,-3.4334187507629395,-0.004295742604881525,32768,-57.267093658447266
2804544,527953404,643304957,2459536732,-3.402531385421753,-0.028356188908219337,32768,-57.3084831237793
2804554,528991761,646447612,2308413533,-3.2892231941223145,0.06605282425880432,32768,-57.369598388671875
2804564,527928853,637009401,2157616988,-3.161383628845215,0.1854609251022339,32768,-57.410240173339844
2804574,528974376,640153085,1989323872,-2.9091689586639404,0.4749591648578644,32768,-57.47235870361328
2804584,527928871,640154104,2140119397,-2.716233253479004,0.6904087662696838,32768,-57.519508361816406
2804594,527915562,632815098,1989062242,-2.4040751457214355,1.0301672220230103,32768,-57.590736389160156
2804604,530011676,639105534,1923329362,-2.2149839401245117,1.2188136577606201,32768,-57.6273078918457
2804614,531090975,635962876,2139726698,-1.9842052459716797,1.466442584991455,32768,-57.679813385009766
2804624,530038291,640157185,2290784362,-1.8552591800689697,1.5905330181121826,32768,-57.71105194091797
2804634,532139531,645398016,2174132317,-1.769740343093872,1.7039440870285034,32768,-57.754451751708984
2804644,532158976,642253306,2392363357,-1.7917743921279907,1.7325873374938965,32768,-57.78110122680664
2804654,532172281,643301887,2576320612,-1.9020057916641235,1.6901484727859497,32768,-57.807552337646484
2804664,534268400,642257404,2643689827,-1.993351697921753,1.6333608627319336,32768,-57.821937561035156
2804674,534264299,638061052,2577304413,-2.1773488521575928,1.4927544593811035,7680,-57.828983306884766
2804684,537420263,646446591,2677703268,-2.3008217811584473,1.3660026788711548,7680,-57.823089599609375
2804694,540562924,641205754,2626780267,-2.473609685897827,1.180100440979004,32768,-57.795318603515625
2804704,539509227,640156157,2610200422,-2.5786948204040527,1.0599961280822754,32768,-57.773311614990234
2804714,541601261,641204733,2543550307,-2.7000253200531006,0.8891955614089966,32768,-57.730674743652344
2804724,542644720,641206781,2493154657,-2.743086576461792,0.7957930564880371,32768,-57.6975212097168
2804734,542636534,645399041,2376173662,-2.7504096031188965,0.7045267224311829,32768,-57.64307403564453
2804744,542638585,646449660,2476771938,-2.737398862838745,0.6725888848304749,7680,-57.61323165893555
2804754,542631427,645400062,2308541286,-2.677588939666748,0.6798337697982788,32768,-57.55826950073242
2804764,542622212,644349436,2275381342,-2.6038951873779297,0.7230665683746338,32768,-57.52103042602539
2804774,542613001,638057978,2057476446,-2.454482078552246,0.8024947643280029,32768,-57.46519470214844
2804784,541576712,639107581,2275251812,-2.367142915725708,0.8577026724815369,7680,-57.43873596191406
2804794,541573639,637011450,2358939243,-2.2174813747406006,0.9427353143692017,7680,-57.40115737915039
2804804,540524030,638057984,2242353498,-2.158233165740967,0.9519492387771606,7680,-57.37480163574219
2804814,540539388,642253311,2443939933,-2.088332414627075,0.9353026747703552,48384,-57.34154510498047
2804824,539494905,640157181,2677834858,-2.0463221073150635,0.9092068076133728,48384,-57.323692321777344
2804834,538444282,644350464,2643756403,-2.0321059226989746,0.8644639253616333,48384,-57.296783447265625
2804844,538437108,643301882,2443678302,-2.03279972076416,0.8197588324546814,48384,-57.28498077392578
2804854,540547591,647493117,2259068269,-2.0715510845184326,0.8111795783042908,63488,-57.26272201538086
2804864,537410056,647494140,2761198204,-2.0873591899871826,0.859735369682312,63488,-57.24962615966797
2804874,539492877,641203712,2459606654,-2.1267826557159424,0.9445154666900635,38400,-57.22971725463867
2804884,539494923,646448637,2528027245,-2.169063091278076,1.0375316143035889,13568,-57.20726776123047
2804894,541601303,640157181,2408753811,-2.2362568378448486,1.19297456741333,54016,-57.17076873779297
2804904,538453525,643303933,2644353156,-2.289670705795288,1.339540719985962,54016,-57.14693069458008
2804914,539505179,644350461,2392305291,-2.4079887866973877,1.5451116561889648,54016,-57.126522064208984
2804924,539518493,644350460,2794362516,-2.4932944774627686,1.7194229364395142,54016,-57.10599899291992
2804934,539519509,644348417,2777717401,-2.6928229331970215,1.9154975414276123,28928,-57.07286071777344
2804944,540583435,643298813,2929758856,-2.9090397357940674,2.016855478286743,28928,-57.036441802978516
2804954,542697992,641206777,2944632740,-3.338258743286133,2.08829927444458,54016,-56.979190826416016
2804964,543745545,643303929,3062139046,-3.6482160091400146,2.149338483810425,28928,-56.928401947021484
2804974,544791050,646449660,2777846686,-4.144515037536621,2.236176013946533,28928,-56.845821380615234
2804984,546896399,645396990,3061745071,-4.44534158706665,2.313171625137329,28928,-56.778663635253906
2804994,547931665,645392896,2777452456,-4.903082847595215,2.44641375541687,28928,-56.670799255371094
2805004,550034964,645393915,2861010601,-5.202979564666748,2.5519278049468994,28928,-56.590126037597656
2805014,552107544,648543736,2626327216,-5.542294502258301,2.7378811836242676,28928,-56.45039749145508
2805024,553147927,645395965,2560335000,-5.715625762939453,2.886303424835205,28928,-56.35358428955078
2805034,554180112,644347394,2626785196,-5.770354270935059,3.043131113052368,28928,-56.20517349243164
2805044,554157581,646446589,2376903566,-5.7583465576171875,3.1281628608703613,3584,-56.10956954956055
2805054,554155529,644352509,2560661667,-5.582285404205322,3.2303268909454346,3584,-55.97069549560547
2805064,554135041,642254339,2444273035,-5.405781269073486,3.270063877105713,3584,-55.88132095336914
2805074,553096701,643300863,2494471317,-5.114378929138184,3.266139030456543,3584,-55.751705169677734
2805084,553088506,643300861,2544279446,-4.9066643714904785,3.2355685234069824,3584,-55.672149658203125
