Timestamp,compactImu.a_xyz,compactImu.l_xyz,motorCompact.pwms,stabilizer.pitch,stabilizer.roll,stabilizer.thrust,stabilizer.yaw
202401,536346111,641202688,0,0.5896594524383545,-0.3666752278804779,0,9.88707447052002
202411,536346111,642251264,0,0.5899161100387573,-0.36721271276474,0,9.88741397857666
202421,536346111,642251264,0,0.5894191861152649,-0.3678712546825409,0,9.885973930358887
202431,536346111,641202688,0,0.5885581374168396,-0.3686491549015045,0,9.88558292388916
202441,536346111,641202688,0,0.5892511606216431,-0.3686693608760834,0,9.885748863220215
202451,536346111,641202688,0,0.5900532007217407,-0.3685615360736847,0,9.885700225830078
202461,536346111,641202688,0,0.5904417634010315,-0.3674609661102295,0,9.885529518127441
202471,536346110,641202688,0,0.5915994644165039,-0.3677625060081482,0,9.88564395904541
202481,536346111,641202688,0,0.5928388833999634,-0.36983659863471985,0,9.885748863220215
202491,536346111,641202688,0,0.5936521887779236,-0.37116941809654236,0,9.886154174804688
202501,536346111,641202688,0,0.5944225788116455,-0.3722701668739319,0,9.886862754821777
202511,536346111,641202688,0,0.5935100317001343,-0.37292376160621643,0,9.886919975280762
202521,536346111,641202688,0,0.5925936698913574,-0.37260007858276367,0,9.887589454650879
202531,536346111,641202688,0,0.5925816893577576,-0.3727482557296753,0,9.887511253356934
202541,536346111,641202688,0,0.5927833318710327,-0.3732234537601471,0,9.888219833374023
202551,536346111,641202688,0,0.592618465423584,-0.3731876313686371,0,9.888617515563965
202561,536346111,641202688,0,0.592316746711731,-0.37348106503486633,0,9.889547348022461
202571,536346111,641202688,0,0.5918735861778259,-0.37365496158599854,0,9.889571189880371
202581,536346111,641202688,0,0.5926123261451721,-0.3739926517009735,0,9.889451026916504
202591,536346111,641202688,0,0.5927810668945312,-0.37311071157455444,0,9.889617919921875
202601,536346111,641202688,0,0.5931519865989685,-0.3731418251991272,0,9.890519142150879
202611,536346111,641202688,0,0.5929710865020752,-0.37311890721321106,0,9.891419410705566
202621,536346111,641202688,0,0.5918253064155579,-0.37291067838668823,0,9.892391204833984
202631,536346111,641202688,0,0.591871976852417,-0.37332555651664734,0,9.893105506896973
202641,536346111,641202688,0,0.5918697118759155,-0.3733714520931244,0,9.892683982849121
202651,536346111,641202688,0,0.5917273759841919,-0.37284567952156067,0,9.892690658569336
202661,536346111,641202688,0,0.5922781825065613,-0.37366384267807007,0,9.893694877624512
202671,536346111,641202688,0,0.5932409167289734,-0.37432724237442017,0,9.893885612487793
202681,536346111,641202688,0,0.5937710404396057,-0.373923659324646,0,9.894753456115723
202691,536346111,641202688,0,0.5932248830795288,-0.37290287017822266,0,9.894789695739746
202701,536346111,641202688,0,0.5927770137786865,-0.3735312223434448,0,9.894380569458008
202711,536346111,641202688,0,0.5934062600135803,-0.3741976022720337,0,9.893671989440918
202721,536346111,641202688,0,0.5924625992774963,-0.37492555379867554,0,9.893864631652832
202731,536346111,641202688,0,0.592564582824707,-0.37477973103523254,0,9.894331932067871
202741,536346111,642251264,0,0.5934204459190369,-0.37558192014694214,0,9.895060539245605
202751,536346111,641202688,0,0.5938323140144348,-0.37651392817497253,0,9.894281387329102
202761,536346111,641202688,0,0.5945917367935181,-0.37634360790252686,0,9.894426345825195
202771,536346111,641202688,0,0.5950222611427307,-0.37556302547454834,0,9.893932342529297
202781,536346111,641202688,0,0.5964219570159912,-0.3763815462589264,0,9.894372940063477
202791,536346111,641202688,0,0.5970258116722107,-0.37682801485061646,0,9.894451141357422
202801,536346111,641202688,0,0.598090410232544,-0.376677930355072,0,9.894657135009766
202811,536346111,641202688,0,0.5982083082199097,-0.3766539990901947,0,9.895272254943848
202821,535297535,641202688,0,0.598402202129364,-0.3772786557674408,0,9.894652366638184
202831,536346111,641202688,0,0.5975360870361328,-0.3779025673866272,0,9.894737243652344
202841,536346111,641202688,0,0.5976813435554504,-0.37928688526153564,0,9.895627975463867
202851,536346111,641202688,0,0.5987599492073059,-0.3791199326515198,0,9.895739555358887
202861,536346111,641202688,0,0.5994548201560974,-0.3792417347431183,0,9.895929336547852
202871,536346111,641202688,0,0.599964439868927,-0.3793315589427948,0,9.896244049072266
202881,536346111,641202688,0,0.6008113622665405,-0.3798592984676361,0,9.894930839538574
202891,536346111,641202688,0,0.6013954877853394,-0.38023141026496887,0,9.895050048828125
202901,536346111,641202688,0,0.6020850539207458,-0.3798893392086029,0,9.894170761108398
202911,536346111,641202688,0,0.6019860506057739,-0.379107803106308,0,9.894536972045898
202921,536346111,641202688,0,0.6014747023582458,-0.3791007697582245,0,9.894819259643555
202931,536346111,641202688,0,0.6010938882827759,-0.3787910044193268,0,9.896003723144531
202941,536346111,641202688,0,0.6009610295295715,-0.378214567899704,0,9.895771026611328
202951,536346111,641202688,0,0.6011559963226318,-0.3787529468536377,0,9.895198822021484
202961,536346111,641202688,0,0.6020735502243042,-0.3781231641769409,0,9.894773483276367
202971,536346111,641202688,0,0.6021208167076111,-0.3784014582633972,0,9.895014762878418
202981,536346111,641202688,0,0.6022393107414246,-0.37834322452545166,0,9.894610404968262
202991,536346111,641202688,0,0.6033957600593567,-0.3779897093772888,0,9.89477252960205
203001,536346111,641202688,0,0.6033066511154175,-0.378866970539093,0,9.895721435546875
203011,536346111,641202688,0,0.602521538734436,-0.37882858514785767,0,9.89635944366455
203021,536346111,641202688,0,0.6017663478851318,-0.37951406836509705,0,9.89686393737793
203031,536346111,641202688,0,0.6012895107269287,-0.38018813729286194,0,9.89686107635498
203041,536346111,641202688,0,0.6018721461296082,-0.37961891293525696,0,9.897552490234375
203051,536346111,641202688,0,0.6029764413833618,-0.3786811828613281,0,9.897201538085938
203061,536346111,641202688,0,0.6036002039909363,-0.378406822681427,0,9.897931098937988
203071,536346111,641202688,0,0.603909432888031,-0.3788667619228363,0,9.898368835449219
203081,536346111,641202688,0,0.6036481857299805,-0.3795609176158905,0,9.899266242980957
203091,536346111,641202688,0,0.6033785343170166,-0.37913262844085693,0,9.89946174621582
203101,536346111,641202688,0,0.6022579073905945,-0.37908414006233215,0,9.899821281433105
203111,536346111,641202688,0,0.6017369031906128,-0.37861284613609314,0,9.89989948272705
203121,536346111,641202688,0,0.6008608937263489,-0.3787226974964142,0,9.90024471282959
203131,536346111,641202688,0,0.6009276509284973,-0.3798377513885498,0,9.90107250213623
203141,536346111,641202688,0,0.6002092957496643,-0.3791908025741577,0,9.901829719543457
203151,536346111,641202688,0,0.600720226764679,-0.37918347120285034,0,9.901114463806152
203161,536346111,641202688,0,0.6005750894546509,-0.3782675266265869,0,9.901309967041016
203171,536346111,641202688,0,0.6002141833305359,-0.3782843351364136,0,9.901049613952637
203181,536346111,641202688,0,0.6002807021141052,-0.3771078884601593,0,9.901403427124023
203191,536346111,641202688,0,0.6001811623573303,-0.3778016269207001,0,9.900525093078613
203201,536346111,641202688,0,0.599625825881958,-0.37902483344078064,0,9.900776863098145
203211,536346111,641202688,0,0.5989264249801636,-0.37853020429611206,0,9.901191711425781
203221,536346111,641202688,0,0.5991266965866089,-0.37848716974258423,0,9.900449752807617
203231,536346111,641202688,0,0.5991156697273254,-0.37826627492904663,0,9.900720596313477
203241,536346111,641202688,0,0.5991922616958618,-0.3797672390937805,0,9.902036666870117
203251,536346111,641202688,0,0.5989700555801392,-0.380279541015625,0,9.902422904968262
203261,536346111,641202688,0,0.5982374548912048,-0.38080504536628723,0,9.903654098510742
203271,536346111,641202688,0,0.5978204607963562,-0.3801414966583252,0,9.904369354248047
203281,536346111,642251264,0,0.5970268845558167,-0.3795744776725769,0,9.90478515625
203291,536346111,642251264,0,0.5964377522468567,-0.37953898310661316,0,9.904735565185547
203301,536346111,641202688,0,0.5959935784339905,-0.37930047512054443,0,9.905022621154785
203311,536346111,641202688,0,0.5950381755828857,-0.3791876435279846,0,9.905378341674805
203321,536346111,641202688,0,0.5940519571304321,-0.3795693516731262,0,9.905888557434082
203331,536346111,641202688,0,0.5933203101158142,-0.3799799680709839,0,9.906061172485352
203341,536346111,641202688,0,0.5935388207435608,-0.3794042468070984,0,9.905623435974121
203351,536346111,641202688,0,0.5938008427619934,-0.3799244165420532,0,9.904840469360352
203361,536346111,641202688,0,0.5942222476005554,-0.3792545199394226,0,9.905991554260254
203371,536346111,641202688,0,0.5940404534339905,-0.37918800115585327,0,9.906439781188965
203381,536346111,641202688,0,0.5936710238456726,-0.3793570101261139,0,9.906933784484863
203391,536346111,641202688,0,0.5935074687004089,-0.3793219327926636,0,9.90664005279541
203401,536346111,642251264,0,0.5933394432067871,-0.3799411654472351,0,9.906257629394531
203411,536346111,641202688,0,0.5926306843757629,-0.38076940178871155,0,9.906367301940918
203421,536346111,641202688,0,0.592709481716156,-0.3810926675796509,0,9.906622886657715
203431,536346111,641202688,0,0.5922049283981323,-0.3806661367416382,0,9.906587600708008
203441,536346111,641202688,0,0.5914415717124939,-0.3800586462020874,0,9.906477928161621
203451,536346111,641202688,0,0.5912617444992065,-0.3800249993801117,0,9.906964302062988
203461,536346111,642251264,0,0.5920406579971313,-0.3800031840801239,0,9.907758712768555
203471,536346111,641202688,0,0.5925101041793823,-0.3788483142852783,0,9.907649040222168
203481,536346111,641202688,0,0.5930218696594238,-0.37851423025131226,0,9.908408164978027
203491,536346111,641202688,0,0.5922136306762695,-0.37933677434921265,0,9.90899658203125
203501,536346111,641202688,0,0.5906949043273926,-0.3787151575088501,0,9.909831047058105
203511,536346111,641202688,0,0.5899447202682495,-0.3786739110946655,0,9.911128044128418
203521,536346111,641202688,0,0.5894199013710022,-0.3789997398853302,0,9.912646293640137
203531,536346111,641202688,0,0.589346706867218,-0.379378080368042,0,9.91268253326416
203541,536346110,641202688,0,0.589889407157898,-0.3809479773044586,0,9.913389205932617
203551,536346111,641202688,0,0.5902014374732971,-0.3814578652381897,0,9.914142608642578
203561,536346111,641202688,0,0.5907096862792969,-0.3820341229438782,0,9.915475845336914
203571,536346111,641202688,0,0.5907340049743652,-0.38225892186164856,0,9.915513038635254
203581,536346111,641202688,0,0.5916234850883484,-0.38307228684425354,0,9.915895462036133
203591,536346111,641202688,0,0.5910996198654175,-0.3836449086666107,0,9.916669845581055
203601,536346111,641202688,0,0.5904293656349182,-0.3834016025066376,0,9.917336463928223
203611,536346111,641202688,0,0.5898025035858154,-0.3834400177001953,0,9.917625427246094
203621,536346111,641202688,0,0.5895624756813049,-0.38456153869628906,0,9.917253494262695
203631,536346111,641202688,0,0.5899044871330261,-0.38517242670059204,0,9.918037414550781
203641,536346111,641203712,0,0.590106189250946,-0.3841991126537323,0,9.919271469116211
203651,545780226,643307011,0,0.593417763710022,-0.3700634837150574,0,9.939474105834961
203661,564645368,646455808,0,0.6622253060340881,-0.32929131388664246,0,10.110533714294434
203671,559380984,653794806,0,0.7668384313583374,-0.3450543284416199,0,10.259316444396973
203681,548866556,652742129,0,1.1355066299438477,-0.37218645215034485,0,10.407262802124023
203691,553048581,644356595,0,1.478920340538025,-0.3535962998867035,0,10.480098724365234
203701,566678020,645407225,0,2.090102434158325,-0.2497839629650116,0,10.672730445861816
203711,557236724,648544765,0,2.5142829418182373,-0.28198716044425964,0,10.843505859375
203721,534163963,638039559,0,3.1868865489959717,-0.37155747413635254,0,10.920890808105469
203731,522658300,625448464,0,3.591053009033203,-0.41681796312332153,0,10.873568534851074
203741,506970604,626490905,0,3.9387996196746826,-0.5553938150405884,0,10.715462684631348
203751,496528839,634886674,0,3.95723295211792,-0.7804750800132751,0,10.529582023620605
203761,497620361,642226698,0,3.552046537399292,-1.5562169551849365,0,10.20191478729248
203771,507091298,641180160,0,3.051919937133789,-2.372352123260498,0,9.99997615814209
203781,518626684,645375482,0,2.1428442001342773,-3.6567435264587402,0,9.763839721679688
203791,534286752,655856123,0,1.7000373601913452,-4.31482458114624,0,9.684028625488281
203801,549922262,657949180,0,1.7654889822006226,-4.92812967300415,0,9.747836112976074
203811,564531714,646408701,0,2.2703495025634766,-5.068663597106934,0,9.908180236816406
203821,580237851,635920890,0,3.3934524059295654,-4.998589515686035,0,10.310296058654785
203831,594954764,634874360,0,4.102698802947998,-4.930019855499268,0,10.653393745422363
203841,607598038,630678012,0,4.691545486450195,-5.149942398071289,0,11.244733810424805
203851,618148265,626488828,0,4.7673444747924805,-5.619922161102295,0,11.681530952453613
203861,622381462,634880512,0,4.368289947509766,-6.518496990203857,0,12.32995319366455
203871,624484727,647458313,0,3.9685566425323486,-7.2711005210876465,0,12.7587308883667
203881,626568568,641167881,0,3.452536106109619,-8.527116775512695,0,13.419657707214355
203891,626546075,629634568,0,3.1762914657592773,-9.262704849243164,0,13.866791725158691
203901,627560893,633831944,0,3.014836549758911,-10.017045021057129,0,14.586396217346191
203911,623336912,643269130,0,3.083158493041992,-10.369831085205078,0,15.086731910705566
203921,618071516,642218506,0,3.4056875705718994,-10.777329444885254,0,15.840917587280273
203931,615978475,635931143,0,3.670813798904419,-10.979783058166504,0,16.33258628845215
203941,614960620,636979717,0,3.8990166187286377,-11.198891639709473,0,17.034242630004883
203951,614974943,641170951,0,3.9158272743225098,-11.396676063537598,0,17.472143173217773
203961,613941727,644317703,0,3.8326683044433594,-11.742804527282715,0,18.099550247192383
203971,616050158,645367302,0,3.7147011756896973,-11.92508602142334,0,18.513107299804688
203981,616063486,644318726,0,3.4090709686279297,-12.040450096130371,0,19.110275268554688
203991,613971458,644316679,0,3.172503709793091,-12.066229820251465,0,19.49275779724121
204001,616072708,642221572,0,2.7750585079193115,-12.0917387008667,0,20.05833625793457
204011,620278288,640124418,0,2.455221652984619,-12.058011054992676,0,20.440690994262695
204021,627609115,640122370,0,1.9677397012710571,-11.913288116455078,0,21.06374740600586
204031,634938917,638027265,0,1.6890318393707275,-11.757522583007812,0,21.53181266784668
204041,640172598,634886658,0,1.3523324728012085,-11.396404266357422,0,22.302335739135742
204051,646447671,634891781,0,1.1895378828048706,-11.093342781066895,0,22.85784149169922
204061,650636855,632802824,0,1.058430790901184,-10.636079788208008,0,23.758384704589844
204071,643301942,631762445,0,0.977263867855072,-10.304879188537598,0,24.349462509155273
204081,629673503,632816146,0,0.8507416844367981,-9.892334938049316,0,25.136844635009766
204091,611857931,631771669,0,0.772849440574646,-9.760004043579102,0,25.57505226135254
204101,590902792,630726165,0,0.5440873503684998,-9.604106903076172,0,26.049959182739258
204111,574118399,631774741,0,0.3891587555408478,-9.535192489624023,0,26.25748634338379
204121,558370305,630725138,0,0.30044129490852356,-9.47043514251709,0,26.47408676147461
204131,545769994,627578381,0,0.3434838056564331,-9.381586074829102,0,26.553735733032227
204141,544689672,625478154,0,0.6101627349853516,-9.233963012695312,0,26.65717887878418
204151,548857350,621281799,0,0.9342073202133179,-9.156270027160645,0,26.76264762878418
204161,555139586,618136070,0,1.5583815574645996,-9.063474655151367,0,26.990097045898438
204171,567719403,616040966,0,1.9966646432876587,-9.073222160339355,0,27.194223403930664
204181,574030280,612892168,0,2.5761873722076416,-9.361332893371582,0,27.57646369934082
204191,567762338,610789899,0,2.839158773422241,-9.764185905456543,0,27.808626174926758
204201,565665146,612882957,0,3.1355159282684326,-10.728775978088379,0,28.099973678588867
204211,566781379,674749957,0,3.3910653591156006,-11.538281440734863,0,28.31778907775879
204221,564794903,767046146,0,2.112116575241089,-11.091703414916992,0,28.22901725769043
204231,569895319,738711064,0,1.7089169025421143,-11.365571975708008,0,28.313642501831055
204241,556214827,621282825,0,2.1300907135009766,-11.634105682373047,0,28.604753494262695
204251,543742621,584590847,0,1.8436365127563477,-10.75439167022705,0,28.599828720092773
204261,548876826,607631894,0,2.0230062007904053,-9.980422973632812,0,28.720443725585938
204271,536423019,638066186,0,1.9526981115341187,-9.678718566894531,0,28.733047485351562
204281,529123889,652749317,0,1.1898478269577026,-8.853464126586914,0,28.599056243896484
204291,525888096,664279567,0,0.6273969411849976,-8.541977882385254,0,28.428083419799805
204301,539495010,649611776,0,0.5992852449417114,-7.643281936645508,0,28.411190032958984
204311,565711513,620256757,0,0.6179398894309998,-6.853222846984863,0,28.502159118652344
204321,565685914,637013501,0,0.6202487945556641,-5.44927978515625,0,28.765785217285156
204331,546831015,640160242,0,0.6198232769966125,-4.519233703613281,0,28.86441993713379
204341,552065684,647503355,0,0.5926448106765747,-3.1722166538238525,0,28.97952651977539
204351,555239095,620228097,0,0.5859946608543396,-2.1981143951416016,0,29.071073532104492
204361,546821800,692574725,0,0.5596796274185181,-0.43218573927879333,0,29.196760177612305
204371,539474404,626523650,0,0.6976202726364136,-0.27568554878234863,0,29.241453170776367
204381,533196300,630727167,0,0.5810043811798096,-0.28772491216659546,0,29.242385864257812
204391,533202430,642263549,0,0.5784769654273987,-0.26787424087524414,0,29.21921730041504
204401,531103230,646452735,0,0.5806427597999573,-0.23135210573673248,0,29.209243774414062
204411,539493884,647493120,0,0.5745582580566406,-0.23851990699768066,0,29.190303802490234
204421,532150783,644349438,0,0.5773854851722717,-0.2368900179862976,0,29.20391845703125
204431,542638589,640151040,0,0.5714157819747925,-0.24749353528022766,0,29.203596115112305
204441,530054655,640157183,0,0.5768070220947266,-0.2389180213212967,0,29.20728874206543
204451,541587967,640152064,0,0.5747052431106567,-0.24506211280822754,0,29.214628219604492
204461,531103231,640155135,0,0.5731406807899475,-0.23948796093463898,0,29.204566955566406
204471,541587966,642250239,0,0.5746922492980957,-0.24625827372074127,0,29.221757888793945
204481,533200383,641202688,0,0.5712475776672363,-0.242105633020401,0,29.20342254638672
204491,538442239,641202687,0,0.5733511447906494,-0.2484268993139267,0,29.224695205688477
204501,537394687,641200641,0,0.5710327625274658,-0.24635662138462067,0,29.211315155029297
204511,533200383,641204734,0,0.5728223919868469,-0.25139108300209045,0,29.229196548461914
204521,539490815,642249217,0,0.570597231388092,-0.2502497136592865,0,29.218547821044922
204531,533200383,641203710,0,0.5701906085014343,-0.2504749894142151,0,29.22650909423828
204541,539490815,642251265,0,0.5703617334365845,-0.2508808672428131,0,29.225231170654297
204551,533200383,641202687,0,0.5691371560096741,-0.2507740557193756,0,29.2224063873291
204561,538442239,641202688,0,0.5708865523338318,-0.25466543436050415,0,29.2283935546875
204571,534248959,641202687,0,0.5687434077262878,-0.25353825092315674,0,29.220731735229492
204581,536345087,641203711,0,0.5700188279151917,-0.2553184926509857,0,29.2293758392334
204591,536346111,641201664,0,0.5680881142616272,-0.25418248772621155,0,29.221229553222656
204601,535297535,641203711,0,0.5700810551643372,-0.2568918764591217,0,29.229578018188477
204611,537394686,641201664,0,0.5687299370765686,-0.258088082075119,0,29.223957061767578
204621,535297535,641202688,0,0.5691193342208862,-0.2598304748535156,0,29.228174209594727
204631,537394686,641201664,0,0.5688855051994324,-0.2615486979484558,0,29.227676391601562
204641,535297535,641202688,0,0.5693281888961792,-0.26298901438713074,0,29.228492736816406
204651,536346111,641202687,0,0.5686352252960205,-0.26395750045776367,0,29.230714797973633
204661,536346111,641202688,0,0.5669926404953003,-0.26557987928390503,0,29.230411529541016
204671,536346111,641202687,0,0.5665045380592346,-0.2653382122516632,0,29.232091903686523
204681,536346111,642251264,0,0.5659893751144409,-0.26582542061805725,0,29.232646942138672
204691,536346111,641202687,0,0.5649943947792053,-0.26676610112190247,0,29.233810424804688
204701,536346111,641202688,0,0.5643070936203003,-0.2679905891418457,0,29.23492431640625
204711,535297535,641202687,0,0.5631112456321716,-0.2690431773662567,0,29.234554290771484
204721,536346111,642251264,0,0.5623777508735657,-0.27166062593460083,0,29.235435485839844
204731,536346111,641202688,0,0.5620784759521484,-0.27241793274879456,0,29.23508071899414
204741,536346111,641202688,0,0.56185382604599,-0.27323952317237854,0,29.23692512512207
204751,536346111,641202688,0,0.5618611574172974,-0.27324533462524414,0,29.23634147644043
204761,536346111,641202688,0,0.5618981122970581,-0.2747073173522949,0,29.23797607421875
204771,536346111,641202687,0,0.5609126687049866,-0.27474790811538696,0,29.238706588745117
204781,536346111,641202688,0,0.559379518032074,-0.27634575963020325,0,29.23898696899414
204791,536346111,641202688,0,0.5579825639724731,-0.27656763792037964,0,29.239463806152344
204801,536346111,642251264,0,0.5565809607505798,-0.27706798911094666,0,29.238935470581055
204811,536346111,642251264,0,0.5559092164039612,-0.2780022621154785,0,29.23963737487793
204821,536346111,641202688,0,0.5544428825378418,-0.28042134642601013,0,29.24049949645996
204831,536346111,641202688,0,0.5536544919013977,-0.2811577618122101,0,29.241743087768555
204841,536346111,641202688,0,0.5524770617485046,-0.2817345857620239,0,29.242088317871094
204851,536346111,641202688,0,0.5523781180381775,-0.282135933637619,0,29.241901397705078
204861,536346111,641202688,0,0.5518277883529663,-0.2831898033618927,0,29.24335289001465
204871,536346111,641202687,0,0.5509088635444641,-0.2832210659980774,0,29.243972778320312
204881,536346111,641202688,0,0.5503544211387634,-0.2845912575721741,0,29.245094299316406
204891,536346111,641202688,0,0.5509042739868164,-0.285083144903183,0,29.246118545532227
204901,536346111,641202688,0,0.5503701567649841,-0.28575456142425537,0,29.248205184936523
204911,536346111,641202688,0,0.550165057182312,-0.28594154119491577,0,29.24867820739746
204921,536346111,641202688,0,0.5484966039657593,-0.28609034419059753,0,29.249645233154297
204931,536346111,641202688,0,0.548076331615448,-0.28715386986732483,0,29.24973487854004
204941,536346111,641202688,0,0.5476087927818298,-0.28830111026763916,0,29.250728607177734
204951,536346111,641202688,0,0.547621488571167,-0.289712518453598,0,29.251157760620117
204961,536346111,641202688,0,0.5461223721504211,-0.29184690117836,0,29.251628875732422
204971,536346111,641202688,0,0.5459305644035339,-0.29210734367370605,0,29.25201988220215
204981,536346111,641202688,0,0.5457807183265686,-0.29274463653564453,0,29.254150390625
204991,536346111,641202688,0,0.5458371639251709,-0.2935856282711029,0,29.254793167114258
205001,536346111,641202688,0,0.5447285771369934,-0.2959120273590088,0,29.2545166015625
205011,536346111,641202688,0,0.5449921488761902,-0.2963981330394745,0,29.254562377929688
205021,536346111,641202688,0,0.5432689189910889,-0.2970324456691742,0,29.255189895629883
205031,535297535,641202688,0,0.5424804091453552,-0.2976609766483307,0,29.254133224487305
205041,536346111,641202688,0,0.541429340839386,-0.29893773794174194,0,29.254257202148438
205051,536346111,641202688,0,0.5405502319335938,-0.30017563700675964,0,29.253353118896484
205061,536346111,642251264,0,0.5401651859283447,-0.3019828796386719,0,29.25333595275879
205071,536346111,641202688,0,0.5405632257461548,-0.3032284677028656,0,29.253610610961914
205081,536346111,641202688,0,0.5404877066612244,-0.30334916710853577,0,29.253860473632812
205091,536346111,641202688,0,0.540375292301178,-0.3038776218891144,0,29.253450393676758
205101,536346111,641202688,0,0.5391363501548767,-0.3057080805301666,0,29.253971099853516
205111,536346111,641202688,0,0.5388277173042297,-0.30611082911491394,0,29.254066467285156
205121,536346111,641202688,0,0.5380646586418152,-0.3072992265224457,0,29.254764556884766
205131,536346111,641202688,0,0.5375003218650818,-0.3078027367591858,0,29.2557315826416
205141,536346111,641202688,0,0.536221981048584,-0.30847907066345215,0,29.256546020507812
205151,536346111,642251264,0,0.5358424782752991,-0.30985209345817566,0,29.256921768188477
205161,536346111,642251264,0,0.5357061624526978,-0.31065458059310913,0,29.257352828979492
205171,536346111,641202688,0,0.5359565019607544,-0.3121219575405121,0,29.25697135925293
205181,536346111,641202688,0,0.5359225273132324,-0.312957227230072,0,29.25752830505371
205191,536346111,641202688,0,0.5360995531082153,-0.31322333216667175,0,29.257278442382812
205201,536346111,642251264,0,0.5361351370811462,-0.31399375200271606,0,29.256906509399414
205211,536346111,641202688,0,0.535603940486908,-0.31478649377822876,0,29.257396697998047
205221,536346111,641202688,0,0.5354487299919128,-0.31561654806137085,0,29.257869720458984
205231,536346111,641202688,0,0.5362546443939209,-0.3159376382827759,0,29.258159637451172
205241,536346111,641202688,0,0.5360218286514282,-0.316969633102417,0,29.259260177612305
205251,536346111,641202688,0,0.5355863571166992,-0.3172178864479065,0,29.25969696044922
205261,536346111,641202688,0,0.5352511405944824,-0.3176399767398834,0,29.25994873046875
205271,536346111,641202688,0,0.5343565344810486,-0.3184380829334259,0,29.260194778442383
205281,536346111,641202688,0,0.5329703688621521,-0.31869107484817505,0,29.2605037689209
205291,536346111,641202688,0,0.5327224731445312,-0.3193579316139221,0,29.260711669921875
205301,536346111,641202688,0,0.5318753123283386,-0.31986647844314575,0,29.262025833129883
205311,536346111,641202688,0,0.5317844152450562,-0.320669561624527,0,29.262401580810547
205321,536346111,641202688,0,0.531606137752533,-0.3215722441673279,0,29.262855529785156
205331,536346111,641202688,0,0.53080815076828,-0.32220494747161865,0,29.263296127319336
205341,536346111,641202688,0,0.5303934216499329,-0.32259896397590637,0,29.26447868347168
205351,536346111,641202688,0,0.530595600605011,-0.3226378560066223,0,29.264739990234375
205361,536346111,641202688,0,0.5299995541572571,-0.3240926265716553,0,29.26478385925293
205371,536346111,641202688,0,0.5299921631813049,-0.3247949182987213,0,29.26472282409668
205381,536346111,641202688,0,0.5299358367919922,-0.32477161288261414,0,29.265430450439453
205391,536346111,642251264,0,0.529191792011261,-0.3254792094230652,0,29.264850616455078
205401,536346111,641202688,0,0.5292685031890869,-0.32649311423301697,0,29.265226364135742
205411,536346111,641202688,0,0.5290001630783081,-0.32670482993125916,0,29.265228271484375
205421,536346111,641202688,0,0.5303043723106384,-0.3269211947917938,0,29.265235900878906
205431,536346111,641202688,0,0.5299162268638611,-0.3265034556388855,0,29.26590347290039
205441,536346111,641202688,0,0.5292854309082031,-0.32679829001426697,0,29.26576042175293
205451,536346111,641202688,0,0.5291215181350708,-0.32760700583457947,0,29.266071319580078
205461,536346111,641202688,0,0.5285575985908508,-0.3279825747013092,0,29.266815185546875
205471,536345087,641202688,0,0.528354823589325,-0.3279722332954407,0,29.267135620117188
205481,536346111,641202688,0,0.5283910036087036,-0.32965701818466187,0,29.26696014404297
205491,536346111,642251264,0,0.527789831161499,-0.33011114597320557,0,29.26750373840332
205501,536346111,641202688,0,0.5268769264221191,-0.3305279016494751,0,29.26849937438965
205511,536346111,641202688,0,0.5260429382324219,-0.3308177888393402,0,29.269067764282227
205521,536346111,641202688,0,0.5254079699516296,-0.3318471610546112,0,29.269508361816406
205531,536346111,641202688,0,0.5254891514778137,-0.33210641145706177,0,29.270009994506836
205541,536346111,641202688,0,0.5253145694732666,-0.3325332999229431,0,29.27113914489746
205551,536346111,641202688,0,0.525040328502655,-0.3334037661552429,0,29.2718505859375
205561,536346111,641202688,0,0.524517834186554,-0.3342311978340149,0,29.271713256835938
205571,536346111,641202688,0,0.5238877534866333,-0.3354552388191223,0,29.271493911743164
205581,536346111,641202688,0,0.5227189660072327,-0.33649829030036926,0,29.271095275878906
205591,536346111,642251264,0,0.5214861035346985,-0.33685821294784546,0,29.272024154663086
205601,536346111,641202688,0,0.520936131477356,-0.3371823728084564,0,29.273509979248047
205611,536346111,641202688,0,0.5208401679992676,-0.33775341510772705,0,29.273468017578125
205621,536346111,641202688,0,0.5206787586212158,-0.33877885341644287,0,29.27458381652832
205631,536346111,641202688,0,0.5213242769241333,-0.33969488739967346,0,29.27552032470703
205641,536346111,641202688,0,0.5212388634681702,-0.3394153118133545,0,29.27581214904785
205651,536346111,641202688,0,0.5208247900009155,-0.339483380317688,0,29.276493072509766
205661,536346111,642251264,0,0.5200772881507874,-0.34020382165908813,0,29.27879524230957
205671,536346111,641202688,0,0.5194575190544128,-0.3415229618549347,0,29.280075073242188
205681,536346111,641202688,0,0.519572913646698,-0.3423558175563812,0,29.27983856201172
205691,536346111,641202688,0,0.5193451642990112,-0.3428896367549896,0,29.279346466064453
205701,536346111,641202688,0,0.5187395215034485,-0.34375450015068054,0,29.279781341552734
205711,536346111,641202688,0,0.5187540054321289,-0.34411972761154175,0,29.2791690826416
205721,536346111,641202688,0,0.5184406638145447,-0.34530627727508545,0,29.27988052368164
205731,536346111,641202688,0,0.5183151364326477,-0.34646767377853394,0,29.28016471862793
205741,536346111,641202688,0,0.5182296633720398,-0.34778186678886414,0,29.280672073364258
205751,536346111,641202688,0,0.5181854367256165,-0.3484469950199127,0,29.280824661254883
205761,536346110,641202688,0,0.5179716348648071,-0.3503762185573578,0,29.280750274658203
205771,536346111,641202688,0,0.5178186893463135,-0.35215112566947937,0,29.280899047851562
205781,536346111,641202688,0,0.5181413292884827,-0.3529735803604126,0,29.281587600708008
205791,536346111,641202688,0,0.5176045298576355,-0.3537886142730713,0,29.282024383544922
205801,536346111,641202688,0,0.5172845721244812,-0.35414618253707886,0,29.28351593017578
205811,536346111,641202688,0,0.5173557996749878,-0.35528209805488586,0,29.284160614013672
205821,536346111,641202688,0,0.5177767872810364,-0.35670921206474304,0,29.28580093383789
205831,536346111,641202688,0,0.5170340538024902,-0.35689646005630493,0,29.285776138305664
205841,536346111,641202688,0,0.5179266929626465,-0.35764551162719727,0,29.2862548828125
205851,536346111,641202688,0,0.5185742974281311,-0.35825660824775696,0,29.286592483520508
205861,536346111,641202688,0,0.5193608403205872,-0.3581417202949524,0,29.286672592163086
205871,536346111,641202688,0,0.5195872187614441,-0.3584426939487457,0,29.28757095336914
205881,536346111,641202688,0,0.519818902015686,-0.3589480519294739,0,29.287208557128906
205891,536346111,641202688,0,0.5198715329170227,-0.3596079349517822,0,29.287328720092773
205901,536346111,641202688,0,0.5188156366348267,-0.360786110162735,0,29.287044525146484
205911,536346111,641202688,0,0.5182841420173645,-0.36122938990592957,0,29.287731170654297
205921,536346111,641202688,0,0.5188646912574768,-0.36142686009407043,0,29.288164138793945
205931,536346111,641202688,0,0.5190402269363403,-0.36175641417503357,0,29.288246154785156
205941,536346111,641202688,0,0.5187841653823853,-0.36309680342674255,0,29.288833618164062
205951,536346111,642251264,0,0.5187544226646423,-0.3634033203125,0,29.289934158325195
205961,536346111,641202688,0,0.5187898278236389,-0.3650262951850891,0,29.290706634521484
205971,536346111,641202688,0,0.5185433030128479,-0.3656023442745209,0,29.29117202758789
205981,536346111,642251264,0,0.5191248059272766,-0.3660537600517273,0,29.291202545166016
205991,536346111,641202688,0,0.5192258358001709,-0.36651965975761414,0,29.291866302490234
206001,536346111,641202688,0,0.5187327265739441,-0.3667016923427582,0,29.29337501525879
206011,536346111,641202688,0,0.5182181000709534,-0.3668740391731262,0,29.293842315673828
206021,536346111,641202688,0,0.5173217058181763,-0.36786291003227234,0,29.293933868408203
206031,536346111,642251264,0,0.5169041752815247,-0.3677033483982086,0,29.293601989746094
206041,536346111,642251264,0,0.5167380571365356,-0.3688881993293762,0,29.29438018798828
206051,536346111,641202688,0,0.5166952610015869,-0.3689188063144684,0,29.295642852783203
206061,536346111,641202688,0,0.5162988305091858,-0.3698263168334961,0,29.297107696533203
206071,536346111,641202688,0,0.5162889957427979,-0.37054648995399475,0,29.297643661499023
206081,536346111,641202688,0,0.5160523653030396,-0.3709382712841034,0,29.29864501953125
206091,536346111,641202688,0,0.5156389474868774,-0.371276319026947,0,29.29798126220703
206101,536346111,641202688,0,0.5145455598831177,-0.3721614480018616,0,29.29815673828125
206111,536346111,641202688,0,0.5142132639884949,-0.372681587934494,0,29.298368453979492
206121,536346111,641202688,0,0.5131822824478149,-0.3737632632255554,0,29.2987003326416
206131,536346111,641202688,0,0.5129880309104919,-0.3738209009170532,0,29.298559188842773
206141,536346111,641202688,0,0.512839674949646,-0.37312188744544983,0,29.30005645751953
206151,536346111,642251264,0,0.5124828815460205,-0.3732491731643677,0,29.301105499267578
206161,536346111,641202688,0,0.5122814178466797,-0.3739480674266815,0,29.3001651763916
206171,536346111,641202688,0,0.5120473504066467,-0.3743681311607361,0,29.300310134887695
206181,536346111,641202688,0,0.511618971824646,-0.3748491704463959,0,29.299711227416992
206191,536346111,641202688,0,0.511131763458252,-0.37431010603904724,0,29.299625396728516
206201,536346111,642251264,0,0.5107293725013733,-0.37508729100227356,0,29.299856185913086
206211,536346111,641202688,0,0.5102623701095581,-0.37507104873657227,0,29.30022621154785
206221,536346111,641202688,0,0.5100125670433044,-0.375007688999176,0,29.300609588623047
206231,536346111,641202688,0,0.5099055171012878,-0.37522441148757935,0,29.301694869995117
206241,536346111,641202688,0,0.509326159954071,-0.37701401114463806,0,29.301509857177734
206251,536346111,641202688,0,0.5089251399040222,-0.3774070143699646,0,29.302059173583984
206261,536346111,641202688,0,0.5086678266525269,-0.37748444080352783,0,29.301145553588867
206271,536346111,641202688,0,0.5087330937385559,-0.3782874345779419,0,29.30137062072754
206281,536346111,641202688,0,0.50758296251297,-0.3790590465068817,0,29.301349639892578
206291,536346111,641202688,0,0.507125198841095,-0.379817396402359,0,29.30167007446289
206301,536346111,641202688,0,0.5064811110496521,-0.3791477084159851,0,29.30160140991211
206311,536346111,641202688,0,0.5058930516242981,-0.3791872262954712,0,29.301237106323242
206321,536346111,641202688,0,0.5055204033851624,-0.38061410188674927,0,29.301130294799805
206331,536346111,641202688,0,0.5058718919754028,-0.38109153509140015,0,29.300626754760742
206341,536346111,641202688,0,0.505742073059082,-0.3817428648471832,0,29.300718307495117
206351,536346111,641202688,0,0.5058070421218872,-0.3826940059661865,0,29.30099105834961
206361,536346111,641202688,0,0.5058965682983398,-0.38220322132110596,0,29.30171012878418
206371,536346111,641202688,0,0.5057165026664734,-0.382223516702652,0,29.302108764648438
206381,536346111,641202688,0,0.5048187971115112,-0.3834218680858612,0,29.30269432067871
206391,536346111,641202688,0,0.5046100616455078,-0.38369497656822205,0,29.30303192138672
206401,536346111,641202688,0,0.5045772194862366,-0.3841701149940491,0,29.302858352661133
206411,536346111,641202688,0,0.5051997900009155,-0.38465264439582825,0,29.302865982055664
206421,536346111,641202688,0,0.5043656826019287,-0.3840915858745575,0,29.30287742614746
206431,536346111,641202688,0,0.5042076706886292,-0.3839022219181061,0,29.304189682006836
206441,536346111,641202688,0,0.5036525130271912,-0.38416457176208496,0,29.304332733154297
206451,536346111,641202688,0,0.50286465883255,-0.38492026925086975,0,29.30437660217285
206461,536346111,641202688,0,0.502479076385498,-0.3861834406852722,0,29.305206298828125
206471,536346111,641202688,0,0.5022982358932495,-0.38660088181495667,0,29.30586814880371
206481,536346111,641202688,0,0.5024420619010925,-0.3870683014392853,0,29.306821823120117
206491,536346111,641202688,0,0.5020294189453125,-0.38775867223739624,0,29.30718421936035
206501,536346111,641202688,0,0.50290447473526,-0.38855400681495667,0,29.307069778442383
206511,536346111,641202688,0,0.5024431347846985,-0.38885143399238586,0,29.306957244873047
206521,536346111,641202688,0,0.5017290711402893,-0.3895871639251709,0,29.30637550354004
206531,536346111,641202688,0,0.5018489360809326,-0.3896285593509674,0,29.306325912475586
206541,536346111,642251264,0,0.5011582970619202,-0.39171838760375977,0,29.306360244750977
206551,536346111,641202688,0,0.5013854503631592,-0.3925618529319763,0,29.306562423706055
206561,536346111,641202688,0,0.501713216304779,-0.3930611312389374,0,29.30844497680664
206571,536346111,641202688,0,0.5019248723983765,-0.3935271203517914,0,29.308605194091797
206581,536346111,641202688,0,0.5017682909965515,-0.3941694498062134,0,29.308494567871094
206591,536346111,641202688,0,0.501504123210907,-0.3948344886302948,0,29.30893898010254
206601,536346111,641202688,0,0.501468300819397,-0.3956091105937958,0,29.309709548950195
206611,536346111,641202688,0,0.5009868741035461,-0.39636391401290894,0,29.31098175048828
206621,536346111,641202688,0,0.5016164183616638,-0.3971816301345825,0,29.311498641967773
206631,536346111,641202688,0,0.5012108087539673,-0.39784330129623413,0,29.311389923095703
206641,536346111,641202688,0,0.5011370182037354,-0.3985709846019745,0,29.312129974365234
206651,536346111,641202688,0,0.5009196400642395,-0.3994302749633789,0,29.313587188720703
206661,536346111,641202688,0,0.5016790628433228,-0.39956429600715637,0,29.314298629760742
206671,536346111,641202688,0,0.5017220377922058,-0.3998640179634094,0,29.314311981201172
206681,536346111,641202688,0,0.5017071962356567,-0.40051978826522827,0,29.31432342529297
206691,536346111,641202688,0,0.501600444316864,-0.4010896682739258,0,29.315061569213867
206701,536346111,641202688,0,0.5016995668411255,-0.4022054970264435,0,29.31682014465332
206711,536346111,641202688,0,0.501945972442627,-0.4027913212776184,0,29.31721305847168
206721,536346111,641202688,0,0.5018764138221741,-0.40221601724624634,0,29.316181182861328
206731,536346111,641202688,0,0.5017595887184143,-0.40223777294158936,0,29.316312789916992
206741,536346111,641202688,0,0.5011124610900879,-0.4030817151069641,0,29.317060470581055
206751,536346111,641202688,0,0.5010026097297668,-0.4032916724681854,0,29.317262649536133
206761,536346111,641202688,0,0.5013960599899292,-0.4043220579624176,0,29.317350387573242
206771,536346111,641202688,0,0.5011899471282959,-0.40425166487693787,0,29.31749725341797
206781,536346111,641202688,0,0.5012744069099426,-0.4037769138813019,0,29.316909790039062
206791,536346111,641202688,0,0.5013296604156494,-0.404051810503006,0,29.317262649536133
206801,536346111,641202688,0,0.5017055869102478,-0.4043678343296051,0,29.31679344177246
206811,536346111,641202688,0,0.5014050602912903,-0.40474382042884827,0,29.316734313964844
206821,536346111,641202688,0,0.5011060237884521,-0.40494686365127563,0,29.317485809326172
206831,536346111,641202688,0,0.5011688470840454,-0.4048498272895813,0,29.3183650970459
206841,536346111,641202688,0,0.5005995035171509,-0.4048720598220825,0,29.320232391357422
206851,536346111,641202688,0,0.5006222724914551,-0.4046557545661926,0,29.320568084716797
206861,536346111,641202688,0,0.5006063580513,-0.4040195047855377,0,29.321414947509766
206871,536346111,641202688,0,0.5007421970367432,-0.4036004841327667,0,29.321557998657227
206881,536346111,641202688,0,0.5002022981643677,-0.4040259122848511,0,29.32185173034668
206891,536346111,641202688,0,0.4993721544742584,-0.403781920671463,0,29.32142448425293
206901,536346111,641202688,0,0.4986302852630615,-0.403196781873703,0,29.32187843322754
206911,536346111,641202688,0,0.49888846278190613,-0.402958482503891,0,29.321165084838867
206921,536346111,641202688,0,0.49862048029899597,-0.4041493535041809,0,29.321674346923828
206931,536346111,641202688,0,0.498826265335083,-0.40459638833999634,0,29.32289695739746
206941,536346111,641202687,0,0.49828919768333435,-0.4044919013977051,0,29.323360443115234
206951,536346111,641202688,0,0.4976625442504883,-0.40491002798080444,0,29.323341369628906
206961,536346111,641202688,0,0.49719032645225525,-0.4054892361164093,0,29.323667526245117
206971,536346111,641202688,0,0.4972926378250122,-0.40580424666404724,0,29.324527740478516
206981,536346111,640154112,0,0.49730852246284485,-0.40596672892570496,0,29.324630737304688
206991,536346111,641202688,0,0.4961380660533905,-0.40555909276008606,0,29.325157165527344
207001,536346111,643299841,0,0.4941715598106384,-0.4058976471424103,0,29.326025009155273
207011,536345086,639105536,0,0.4941328763961792,-0.4098283052444458,0,29.32586097717285
207021,536345087,639105535,0,0.4984778165817261,-0.408576637506485,0,29.328275680541992
207031,536346111,645396991,0,0.5021834969520569,-0.4063093066215515,0,29.327680587768555
207041,536347134,645398015,0,0.49382323026657104,-0.4065904915332794,0,29.329092025756836
207051,536346111,637008383,0,0.4884594976902008,-0.4087187349796295,0,29.328887939453125
207061,536346111,638057984,0,0.48477819561958313,-0.40282416343688965,0,29.32964515686035
207071,536346110,644347393,0,0.48725757002830505,-0.3995893895626068,0,29.326791763305664
207081,535297534,643298817,0,0.48952266573905945,-0.40465864539146423,0,29.32809066772461
207091,536346111,635957761,0,0.4907446503639221,-0.4113825857639313,0,29.328039169311523
207101,535296511,640154111,0,0.49396371841430664,-0.4116213321685791,0,29.327194213867188
207111,536346110,644349439,0,0.4959265887737274,-0.4102925658226013,0,29.32786750793457
207121,536346110,642252287,0,0.49116259813308716,-0.4096595048904419,0,29.32784080505371
207131,536346111,640155134,0,0.4872642159461975,-0.40959644317626953,0,29.331336975097656
207141,536345087,640154111,0,0.4847683310508728,-0.40866342186927795,0,29.329421997070312
207151,536346111,642250240,0,0.48526087403297424,-0.40985971689224243,0,29.330026626586914
207161,536346110,642250241,0,0.48515844345092773,-0.4145740568637848,0,29.330463409423828
207171,536346111,640154113,0,0.48531198501586914,-0.4160781800746918,0,29.330860137939453
207181,536345087,639105537,0,0.4903689920902252,-0.41612809896469116,0,29.3309268951416
207191,536346111,643299840,0,0.49420401453971863,-0.4144984185695648,0,29.331754684448242
207201,536346111,642251263,0,0.4930810332298279,-0.4159072935581207,0,29.33318519592285
207211,536346111,641202686,0,0.48975497484207153,-0.4168991446495056,0,29.33350372314453
207221,536345087,641202687,0,0.48801568150520325,-0.4173443913459778,0,29.333906173706055
207231,536346111,642252287,0,0.4874270260334015,-0.41711246967315674,0,29.33294105529785
207241,536346111,642252288,0,0.4851570129394531,-0.4164586067199707,0,29.332563400268555
207251,536346111,641202688,0,0.48463329672813416,-0.41612643003463745,0,29.33256721496582
207261,536345087,641202688,0,0.48751100897789,-0.41637709736824036,0,29.332622528076172
207271,536346111,642250240,0,0.4893454313278198,-0.41783642768859863,0,29.33296012878418
207281,536346111,641202688,0,0.4913274347782135,-0.4212651550769806,0,29.331825256347656
207291,536346111,641202688,0,0.4918827414512634,-0.42211979627609253,0,29.33264923095703
207301,536346111,641202687,0,0.49083811044692993,-0.4209679663181305,0,29.33343505859375
207311,536346111,642251263,0,0.49004465341567993,-0.4202769994735718,0,29.334442138671875
207321,536346111,642251263,0,0.4878583550453186,-0.41948214173316956,0,29.335588455200195
207331,536346111,641202687,0,0.4868059754371643,-0.42050281167030334,0,29.335153579711914
207341,536346111,641202687,0,0.4845241606235504,-0.4215008318424225,0,29.33562469482422
207351,536346111,641202688,0,0.4837706387042999,-0.4215275049209595,0,29.335845947265625
207361,536346111,642251264,0,0.485196977853775,-0.42278000712394714,0,29.336273193359375
207371,536346111,642251264,0,0.48578375577926636,-0.4234052002429962,0,29.337413787841797
207381,536346111,641202688,0,0.48526427149772644,-0.42559337615966797,0,29.338109970092773
207391,536346111,641202688,0,0.48521897196769714,-0.42625463008880615,0,29.337472915649414
207401,536346111,642251263,0,0.48531827330589294,-0.42614099383354187,0,29.337615966796875
207411,536346111,641202687,0,0.4835093021392822,-0.4258299767971039,0,29.33830451965332
207421,536346111,641202687,0,0.4816017150878906,-0.42604687809944153,0,29.339641571044922
207431,536346111,641202687,0,0.48071709275245667,-0.4249514043331146,0,29.34037971496582
207441,536346111,642251264,0,0.4806095361709595,-0.4244495630264282,0,29.34166145324707
207451,536346110,642251264,0,0.480664998292923,-0.42592063546180725,0,29.341670989990234
207461,536346111,641202688,0,0.48015686869621277,-0.4270893335342407,0,29.342676162719727
207471,536346111,641202688,0,0.4810962677001953,-0.4281720221042633,0,29.342819213867188
207481,536346111,642251264,0,0.4820660948753357,-0.4286618232727051,0,29.343475341796875
207491,536346111,641202688,0,0.48256468772888184,-0.4291250705718994,0,29.342891693115234
207501,536346111,641202687,0,0.48170551657676697,-0.4303109347820282,0,29.34246063232422
207511,536346111,641202687,0,0.4810934066772461,-0.4300190210342407,0,29.342649459838867
207521,536346111,642251263,0,0.480598509311676,-0.4305814504623413,0,29.3428955078125
207531,536346111,641202688,0,0.479973703622818,-0.43076783418655396,0,29.342960357666016
207541,536346111,642251264,0,0.47982335090637207,-0.43235138058662415,0,29.344284057617188
207551,536346111,642251264,0,0.4803229570388794,-0.43304571509361267,0,29.344308853149414
207561,536346111,641202688,0,0.48036301136016846,-0.43357837200164795,0,29.3443660736084
207571,536346111,641202688,0,0.48078277707099915,-0.4338109791278839,0,29.34395408630371
207581,536346111,642251264,0,0.48053598403930664,-0.4346733093261719,0,29.34442710876465
207591,536346111,642251263,0,0.47950923442840576,-0.4348585903644562,0,29.344205856323242
207601,536346111,641202687,0,0.47959721088409424,-0.4355018138885498,0,29.34482765197754
207611,536346111,641202687,0,0.4786030650138855,-0.4357575476169586,0,29.34491539001465
207621,536346111,641202688,0,0.4775084853172302,-0.4356933832168579,0,29.34562873840332
207631,536346111,641202688,0,0.47686588764190674,-0.4348064064979553,0,29.34608268737793
207641,536346111,641202688,0,0.47659653425216675,-0.43505343794822693,0,29.346113204956055
207651,536346111,641202688,0,0.47693172097206116,-0.4358535706996918,0,29.347400665283203
207661,536346110,641202688,0,0.47752442955970764,-0.43697014451026917,0,29.34832000732422
207671,536346111,641202688,0,0.47753971815109253,-0.43871647119522095,0,29.34833335876465
207681,536346111,641202688,0,0.47716695070266724,-0.4384816288948059,0,29.348182678222656
207691,536346111,642251264,0,0.4776301085948944,-0.4386439621448517,0,29.348508834838867
207701,536346111,642251264,0,0.4770212471485138,-0.4385131597518921,0,29.349214553833008
207711,536346111,641202688,0,0.47692176699638367,-0.43841612339019775,0,29.34941864013672
207721,536346111,641202688,0,0.47619569301605225,-0.43762627243995667,0,29.35009765625
207731,536346111,641202688,0,0.4764764904975891,-0.43792837858200073,0,29.350671768188477
207741,536346111,641202688,0,0.4767974019050598,-0.4399031698703766,0,29.350942611694336
207751,536346111,641202688,0,0.4772987365722656,-0.43913131952285767,0,29.35124397277832
207761,536346111,641202688,0,0.4766221344470978,-0.43933290243148804,0,29.35297393798828
207771,536346111,641202688,0,0.4771708846092224,-0.43920114636421204,0,29.35407257080078
207781,536346111,641202687,0,0.4758320450782776,-0.43976759910583496,0,29.35529327392578
207791,536346111,641202687,0,0.4749954640865326,-0.43942195177078247,0,29.35602378845215
207801,536346111,641202687,0,0.4735301733016968,-0.4406723976135254,0,29.35711669921875
207811,536346111,641202688,0,0.473930299282074,-0.4411749243736267,0,29.357789993286133
207821,536346111,641202688,0,0.47422945499420166,-0.44205939769744873,0,29.35802459716797
207831,536346111,641202688,0,0.4757417142391205,-0.44356870651245117,0,29.357481002807617
207841,536346111,642251264,0,0.47608086466789246,-0.44453051686286926,0,29.35826301574707
207851,536346111,641202688,0,0.47621655464172363,-0.44564202427864075,0,29.359420776367188
207861,536346111,641202688,0,0.47576704621315,-0.44507256150245667,0,29.360700607299805
207871,536346111,641202688,0,0.47561970353126526,-0.4447844922542572,0,29.36134910583496
207881,536346111,641202688,0,0.47431305050849915,-0.44414374232292175,0,29.361509323120117
207891,536346111,641202688,0,0.47399649024009705,-0.4441998600959778,0,29.361759185791016
207901,536346111,641202688,0,0.47446539998054504,-0.4442089796066284,0,29.361631393432617
207911,536346111,641202688,0,0.47418367862701416,-0.4444628655910492,0,29.361186981201172
207921,536346111,641202688,0,0.4742544889450073,-0.44534796476364136,0,29.36187171936035
207931,536346111,641202688,0,0.4746769666671753,-0.4463014602661133,0,29.36271858215332
207941,536346111,641202688,0,0.47502636909484863,-0.44624069333076477,0,29.363677978515625
207951,536346111,641202688,0,0.47518453001976013,-0.4465988576412201,0,29.363759994506836
207961,536346111,642251264,0,0.47432053089141846,-0.4471965432167053,0,29.36544418334961
207971,536346111,641202688,0,0.4740988314151764,-0.4476180970668793,0,29.365694046020508
207981,536346111,641202687,0,0.47336122393608093,-0.4477235972881317,0,29.3642635345459
207991,536346111,641202688,0,0.47273772954940796,-0.4487602710723877,0,29.365154266357422
208001,536346111,641202688,0,0.4729849696159363,-0.4483882486820221,0,29.36578369140625
208011,536346111,641202688,0,0.4732322692871094,-0.4488130509853363,0,29.366226196289062
208021,536346110,641202688,0,0.47328469157218933,-0.45094603300094604,0,29.367116928100586
208031,536346111,641202688,0,0.47421175241470337,-0.4525274932384491,0,29.36738395690918
208041,536346111,641202688,0,0.4741353988647461,-0.45215901732444763,0,29.368928909301758
208051,536346111,641202688,0,0.47438016533851624,-0.4519929885864258,0,29.369739532470703
208061,536346111,641202688,0,0.47397375106811523,-0.45277103781700134,0,29.369815826416016
208071,536346111,641202688,0,0.47376155853271484,-0.4529038071632385,0,29.369997024536133
208081,536346111,642251264,0,0.4723697304725647,-0.4538450837135315,0,29.3709774017334
208091,536346111,641202688,0,0.4715881943702698,-0.4541560411453247,0,29.37058448791504
208101,536346111,641202688,0,0.4707823097705841,-0.4540155529975891,0,29.37102508544922
208111,536346111,641202688,0,0.4702235162258148,-0.4540056586265564,0,29.370920181274414
208121,536346111,642251264,0,0.47054368257522583,-0.4542849659919739,0,29.371150970458984
208131,536346111,641202688,0,0.47046220302581787,-0.4545570909976959,0,29.371326446533203
208141,536346111,641202688,0,0.47074633836746216,-0.4552621841430664,0,29.3709774017334
208151,536346111,641202688,0,0.4707487225532532,-0.45454737544059753,0,29.37082862854004
208161,536346111,641202688,0,0.470401406288147,-0.4544227123260498,0,29.370670318603516
208171,536346111,641202688,0,0.47060054540634155,-0.45380717515945435,0,29.37058448791504
208181,536346111,641202688,0,0.4704320430755615,-0.45522740483283997,0,29.371362686157227
208191,536346111,641202688,0,0.4696498215198517,-0.455995112657547,0,29.37200164794922
208201,536346111,641202688,0,0.4693896770477295,-0.4576220214366913,0,29.373184204101562
208211,536346111,641202688,0,0.4694446623325348,-0.45897018909454346,0,29.373998641967773
208221,536346111,641202688,0,0.46996167302131653,-0.46001285314559937,0,29.37397575378418
208231,536346111,641202688,0,0.4696524739265442,-0.4601980745792389,0,29.374494552612305
208241,536346111,641202688,0,0.469113290309906,-0.45982876420021057,0,29.374786376953125
208251,536346111,641202688,0,0.4691615104675293,-0.4588627219200134,0,29.374156951904297
208261,535297535,641202688,0,0.468951016664505,-0.4598642885684967,0,29.373762130737305
208271,536346111,641202688,0,0.46874603629112244,-0.46118107438087463,0,29.372268676757812
208281,536346111,641202688,0,0.46890562772750854,-0.462136834859848,0,29.373559951782227
208291,536346111,642251264,0,0.4685856103897095,-0.46210092306137085,0,29.37407684326172
208301,536346111,641202688,0,0.46896061301231384,-0.4632701575756073,0,29.375152587890625
208311,536346111,641202688,0,0.46835535764694214,-0.4634179174900055,0,29.375621795654297
208321,536346111,641202688,0,0.4688663184642792,-0.4635933041572571,0,29.37649917602539
208331,536346111,641202688,0,0.46876904368400574,-0.46371200680732727,0,29.376422882080078
208341,536346111,642251264,0,0.46923527121543884,-0.4645610749721527,0,29.37779998779297
208351,536346111,641202688,0,0.4693177044391632,-0.4646350145339966,0,29.378028869628906
208361,536346111,641202688,0,0.4690520465373993,-0.4645940959453583,0,29.378700256347656
208371,536346111,641202688,0,0.46960151195526123,-0.4643253684043884,0,29.37882423400879
208381,536346111,641202688,0,0.4710303246974945,-0.46505048871040344,0,29.37966537475586
208391,536346111,641202688,0,0.4714301824569702,-0.4648030400276184,0,29.38132095336914
208401,536346111,641202688,0,0.472814679145813,-0.4648739695549011,0,29.381553649902344
208411,536346111,641202688,0,0.4729766845703125,-0.46526679396629333,0,29.38141632080078
208421,536346111,641202687,0,0.4726423919200897,-0.4661608040332794,0,29.381227493286133
208431,536346111,641202687,0,0.47172582149505615,-0.46643030643463135,0,29.381816864013672
208441,536346111,642251264,0,0.4708001911640167,-0.466214120388031,0,29.382951736450195
208451,536346111,642251264,0,0.47020596265792847,-0.46592873334884644,0,29.383255004882812
208461,536346111,641202688,0,0.4700775444507599,-0.4671233296394348,0,29.38390350341797
208471,536346111,641202688,0,0.4697897434234619,-0.4671901762485504,0,29.38498878479004
208481,536346111,641202688,0,0.4701820909976959,-0.46804237365722656,0,29.385026931762695
208491,536346111,642251264,0,0.4703080356121063,-0.4679533541202545,0,29.385765075683594
208501,536346111,641202688,0,0.4698841869831085,-0.467938631772995,0,29.386383056640625
208511,536346111,641202688,0,0.46972328424453735,-0.46758800745010376,0,29.386743545532227
208521,536346111,642251264,0,0.4698479175567627,-0.46707749366760254,0,29.38657569885254
208531,536346111,641202688,0,0.4690974950790405,-0.4667383134365082,0,29.38766860961914
208541,536346111,641202688,0,0.4689720869064331,-0.4662182927131653,0,29.389755249023438
208551,536346111,641202688,0,0.4689129889011383,-0.4669196903705597,0,29.390649795532227
208561,536346111,641202688,0,0.4687879979610443,-0.46814876794815063,0,29.391611099243164
208571,536346111,641202688,0,0.4687134325504303,-0.4681043326854706,0,29.392871856689453
208581,536346111,641202688,0,0.468572735786438,-0.46987468004226685,0,29.393930435180664
208591,536346111,641202688,0,0.46833664178848267,-0.47100523114204407,0,29.39463996887207
208601,536346111,641202688,0,0.468261182308197,-0.4711681008338928,0,29.39472198486328
208611,536346111,641202688,0,0.4680742621421814,-0.4720127284526825,0,29.395418167114258
208621,536346111,641202688,0,0.46847307682037354,-0.4721471667289734,0,29.39451789855957
208631,536346111,641202688,0,0.4683409631252289,-0.47162652015686035,0,29.394365310668945
208641,536346111,641202688,0,0.46858325600624084,-0.4714747667312622,0,29.395586013793945
208651,536346111,641202688,0,0.46936652064323425,-0.47239768505096436,0,29.395524978637695
208661,536346111,642251264,0,0.4707961678504944,-0.4721524119377136,0,29.39583969116211
208671,536346111,642251264,0,0.4707914888858795,-0.4722626805305481,0,29.39581871032715
208681,536346111,641202688,0,0.471396267414093,-0.47154471278190613,0,29.395370483398438
208691,536346111,641202688,0,0.4709232747554779,-0.47106367349624634,0,29.395462036132812
208701,536346111,641202688,0,0.47025707364082336,-0.47021880745887756,0,29.3945369720459
208711,536346111,642251264,0,0.46934404969215393,-0.4707801043987274,0,29.394577026367188
208721,536346111,641202688,0,0.4684026837348938,-0.47089579701423645,0,29.395551681518555
208731,536346111,641202688,0,0.4681725800037384,-0.4706757962703705,0,29.396366119384766
208741,536346111,641202688,0,0.46819746494293213,-0.4701634347438812,0,29.396242141723633
208751,536346111,642251264,0,0.46875467896461487,-0.47025513648986816,0,29.397335052490234
208761,536346110,641202688,0,0.46883735060691833,-0.4714503288269043,0,29.399120330810547
208771,536346111,641202688,0,0.4685066044330597,-0.471693754196167,0,29.400156021118164
208781,536346111,641202688,0,0.4683164656162262,-0.47254252433776855,0,29.401336669921875
208791,536346111,641202688,0,0.4678921401500702,-0.4721110761165619,0,29.401968002319336
208801,536346111,641202688,0,0.46722647547721863,-0.4728953540325165,0,29.40199089050293
208811,536346111,641202688,0,0.4670046865940094,-0.47313839197158813,0,29.402891159057617
208821,536346111,642251264,0,0.4670707881450653,-0.47182273864746094,0,29.40313720703125
208831,536346111,641202688,0,0.466686487197876,-0.4716939926147461,0,29.403379440307617
208841,536346111,641202688,0,0.46622052788734436,-0.4716329872608185,0,29.40418815612793
208851,536346111,641202688,0,0.4658426344394684,-0.4721097946166992,0,29.40419578552246
208861,536346111,641202688,0,0.4652355909347534,-0.47224166989326477,0,29.404890060424805
208871,536346111,641202688,0,0.46409308910369873,-0.4727891981601715,0,29.404314041137695
208881,536346110,641202688,0,0.4638892412185669,-0.4736544191837311,0,29.404464721679688
208891,536346111,641202688,0,0.4637987017631531,-0.47384628653526306,0,29.404296875
208901,536346111,641202688,0,0.46374714374542236,-0.4725847542285919,0,29.404027938842773
208911,536346111,641202688,0,0.46273675560951233,-0.4729720950126648,0,29.403682708740234
208921,536346111,641202687,0,0.4619371294975281,-0.4740844666957855,0,29.403583526611328
208931,536346111,641202688,0,0.462476521730423,-0.47408002614974976,0,29.40418815612793
208941,536346111,641202688,0,0.46185365319252014,-0.4745529890060425,0,29.40510368347168
208951,536346111,641202688,0,0.4621235430240631,-0.4744946360588074,0,29.405378341674805
208961,536346111,641202688,0,0.4638768434524536,-0.47491222620010376,0,29.40500259399414
208971,536346111,641202688,0,0.4642708897590637,-0.4758492410182953,0,29.40467643737793
208981,536346111,641202688,0,0.4633352756500244,-0.4765140116214752,0,29.404382705688477
208991,536346111,641202687,0,0.46278050541877747,-0.4763711392879486,0,29.403968811035156
209001,536346111,641202687,0,0.46101558208465576,-0.47515419125556946,0,29.40385627746582
209011,536346111,641202688,0,0.46062996983528137,-0.4747253358364105,0,29.40479850769043
209021,536346111,641202688,0,0.46016037464141846,-0.4753133952617645,0,29.40521812438965
209031,536346111,642251264,0,0.4597877860069275,-0.4754113554954529,0,29.406028747558594
209041,536346111,641202688,0,0.4601638615131378,-0.4753519594669342,0,29.405784606933594
209051,536346111,641202688,0,0.45946750044822693,-0.47532138228416443,0,29.406816482543945
209061,536346111,641202688,0,0.45979034900665283,-0.4761907458305359,0,29.407642364501953
209071,536346111,641202688,0,0.45996248722076416,-0.4761430323123932,0,29.407447814941406
209081,536346111,641202688,0,0.46074628829956055,-0.4764135777950287,0,29.407474517822266
209091,536346111,641202688,0,0.4604453444480896,-0.4767918884754181,0,29.406356811523438
209101,536346111,642251264,0,0.45966267585754395,-0.4768962860107422,0,29.405677795410156
209111,536346111,642251264,0,0.4585067629814148,-0.47695618867874146,0,29.406295776367188
209121,536346111,641202688,0,0.4581986367702484,-0.4774186313152313,0,29.406599044799805
209131,536346111,641202688,0,0.45838961005210876,-0.478522390127182,0,29.407304763793945
