Timestamp,compactImu.a_xyz,compactImu.l_xyz,motorCompact.pwms,stabilizer.pitch,stabilizer.roll,stabilizer.thrust,stabilizer.yaw
247370,535297535,641202688,0,-0.35377782583236694,0.24863877892494202,0,136.1514129638672
247382,535297535,641202688,0,-0.35382020473480225,0.24851176142692566,0,136.1478729248047
247386,535297535,641203712,0,-0.35390204191207886,0.24853461980819702,0,136.14715576171875
247390,535297535,641203712,0,-0.3542567193508148,0.24843572080135345,0,136.14646911621094
247396,535297535,641202687,0,-0.3541860580444336,0.24799129366874695,0,136.14559936523438
247400,536346111,641202687,0,-0.3543573021888733,0.24782218039035797,0,136.14480590820312
247410,535297535,640154112,0,-0.3547079563140869,0.247991144657135,0,136.14280700683594
247422,535297535,641203712,0,-0.35553643107414246,0.2485966682434082,0,136.1392822265625
247426,535297535,641202688,0,-0.35579854249954224,0.24884027242660522,0,136.13824462890625
247430,536346111,641202688,0,-0.3556758165359497,0.24902915954589844,0,136.1378936767578
247442,535297535,641203712,0,-0.3556962311267853,0.2502756416797638,0,136.13470458984375
247446,535297535,641203712,0,-0.35545122623443604,0.2509578764438629,0,136.13375854492188
247450,535297535,641203712,0,-0.35527488589286804,0.2510596811771393,0,136.1331787109375
247462,535297535,641203712,0,-0.3550672233104706,0.25174105167388916,0,136.12986755371094
247466,535297535,641203712,0,-0.3550289273262024,0.2523372769355774,0,136.1290283203125
247470,536346111,641203712,0,-0.355141282081604,0.25283026695251465,0,136.12869262695312
247480,535297535,641202688,0,-0.3553808033466339,0.2527669072151184,0,136.1273956298828
247484,535297535,640154112,0,-0.35544028878211975,0.252420037984848,0,136.1266326904297
247488,535297535,640154112,0,-0.35539963841438293,0.25229811668395996,0,136.12542724609375
247492,535297535,640154112,0,-0.35524940490722656,0.25197258591651917,0,136.12411499023438
247500,535297535,641202688,0,-0.3547433912754059,0.2519594430923462,0,136.12254333496094
247504,535297535,641202688,0,-0.35446783900260925,0.2524218261241913,0,136.12152099609375
247508,535297535,641202688,0,-0.353983074426651,0.2526262104511261,0,136.12045288085938
247512,535297535,641203712,0,-0.35366153717041016,0.25265565514564514,0,136.11929321289062
247516,535297535,641202688,0,-0.3533095121383667,0.2529202103614807,0,136.1182098388672
247520,535297535,641202688,0,-0.35285696387290955,0.2532619535923004,0,136.1175537109375
247524,535297535,641202688,0,-0.3530276119709015,0.25308364629745483,0,136.1167755126953
247528,535297535,641202688,0,-0.3531953990459442,0.252698689699173,0,136.11619567871094
247532,535297535,641202688,0,-0.35330891609191895,0.2524346709251404,0,136.11553955078125
247536,535297535,641202688,0,-0.35348883271217346,0.2522733807563782,0,136.1148223876953
247540,535297535,641202688,0,-0.35345667600631714,0.251914381980896,0,136.1138153076172
247546,535297535,641202688,0,-0.35388973355293274,0.2514151930809021,0,136.11190795898438
247550,535297535,640154112,0,-0.3534797728061676,0.25098916888237,0,136.11093139648438
247562,535297535,641202688,0,-0.3538583517074585,0.2504820227622986,0,136.10804748535156
247566,535297535,641202688,0,-0.35347092151641846,0.2498549520969391,0,136.10733032226562
247570,535297535,641202688,0,-0.3533688187599182,0.24989350140094757,0,136.10626220703125
247576,536346111,641202688,0,-0.3530389666557312,0.25049781799316406,0,136.1055908203125
247592,536346111,640155136,0,-0.35338881611824036,0.2504366338253021,0,136.10186767578125
247596,535297535,641203712,0,-0.3533238172531128,0.2515917122364044,0,136.10147094726562
247600,535297535,641202688,0,-0.3539162576198578,0.25190916657447815,0,136.09837341308594
247602,535297535,641202688,0,-0.3540455400943756,0.2514062523841858,0,136.09742736816406
247606,536346111,641202688,0,-0.35399070382118225,0.2505128085613251,0,136.0977783203125
247610,535297535,641203712,0,-0.3537212908267975,0.2513357102870941,0,136.0970458984375
247614,535297535,641203712,0,-0.3539881706237793,0.25196900963783264,0,136.095458984375
247618,535297535,641203712,0,-0.3542879819869995,0.2524004876613617,0,136.09442138671875
247622,535297535,641203712,0,-0.3542913794517517,0.2525072991847992,0,136.0939178466797
247626,535297535,641202688,0,-0.35448408126831055,0.25297051668167114,0,136.092529296875
247630,535297535,641202688,0,-0.35477492213249207,0.25277236104011536,0,136.09107971191406
247634,536346111,641203712,0,-0.3544017970561981,0.2526834309101105,0,136.09051513671875
247642,535297535,641202688,0,-0.3550751507282257,0.252939373254776,0,136.08807373046875
247646,536346111,641202688,0,-0.3546850085258484,0.2525500953197479,0,136.08767700195312
247650,535297535,641202688,0,-0.3539174497127533,0.25307711958885193,0,136.0865020751953
247662,536346111,641202688,0,-0.354693204164505,0.252167284488678,0,136.08294677734375
247682,535297535,640154112,0,-0.354763388633728,0.2519236207008362,0,136.07826232910156
247686,535297535,640155136,0,-0.3547961115837097,0.2520843744277954,0,136.07693481445312
247690,535297535,640155136,0,-0.35469862818717957,0.25214168429374695,0,136.07595825195312
247700,535297535,640154112,0,-0.3545113503932953,0.2521412968635559,0,136.07423400878906
247704,535297535,641202688,0,-0.35463446378707886,0.25228235125541687,0,136.0734100341797
247708,535297535,641202688,0,-0.35479193925857544,0.253089964389801,0,136.07252502441406
247712,535297535,641202688,0,-0.3547306954860687,0.2531908452510834,0,136.0709991455078
247716,535297535,641203712,0,-0.35434892773628235,0.25309669971466064,0,136.06973266601562
247720,535297535,641203712,0,-0.3539911210536957,0.2532481253147125,0,136.06924438476562
247732,535297535,641203712,0,-0.35398080945014954,0.25389474630355835,0,136.06646728515625
247736,535297535,641203712,0,-0.3537614047527313,0.25441253185272217,0,136.0653076171875
247740,535297535,641203712,0,-0.35384654998779297,0.2547326683998108,0,136.06419372558594
247750,535297535,641202688,0,-0.35475727915763855,0.25513750314712524,0,136.0617218017578
247754,535297535,641202688,0,-0.3542062044143677,0.25521305203437805,0,136.06082153320312
247758,535297535,641202688,0,-0.35417354106903076,0.2557758092880249,0,136.05979919433594
247762,535297535,641202687,0,-0.35441267490386963,0.255718469619751,0,136.05831909179688
247766,535297535,641202687,0,-0.35493049025535583,0.2554609179496765,0,136.05686950683594
247770,535297535,641202687,0,-0.35504046082496643,0.25551649928092957,0,136.05599975585938
247774,535297535,641202687,0,-0.35490041971206665,0.2558768093585968,0,136.05528259277344
247778,535297535,641202687,0,-0.35519251227378845,0.2557770609855652,0,136.05433654785156
247786,535297535,641202688,0,-0.35542258620262146,0.2559185028076172,0,136.05247497558594
247790,535297535,641202688,0,-0.3550378382205963,0.25611889362335205,0,136.05165100097656
247794,535297535,641202688,0,-0.3546595275402069,0.25616809725761414,0,136.05091857910156
247798,535297535,641202688,0,-0.35419413447380066,0.25572407245635986,0,136.05023193359375
247802,535297535,641202688,0,-0.35379135608673096,0.25547152757644653,0,136.04957580566406
247806,535297535,641202688,0,-0.3539505898952484,0.25508132576942444,0,136.04840087890625
247810,535297535,641203712,0,-0.35390129685401917,0.2547544240951538,0,136.04708862304688
247814,535297535,641203712,0,-0.35376879572868347,0.25459837913513184,0,136.0458984375
247818,535297535,641203712,0,-0.3538396954536438,0.25494349002838135,0,136.04493713378906
247822,535297535,641203712,0,-0.35385265946388245,0.25491467118263245,0,136.04403686523438
247826,535297535,641203712,0,-0.3537496328353882,0.25496840476989746,0,136.043212890625
247830,535297535,641202688,0,-0.35356369614601135,0.2554730772972107,0,136.04229736328125
247840,535297535,641202688,0,-0.35359522700309753,0.2563166618347168,0,136.04075622558594
247844,535297535,641202688,0,-0.3535611033439636,0.2561604976654053,0,136.0399169921875
247848,535297535,641202688,0,-0.3535960614681244,0.2556050419807434,0,136.03897094726562
247852,535297535,641202688,0,-0.3537856638431549,0.2553749978542328,0,136.0378875732422
247856,535297535,641202688,0,-0.3538616895675659,0.2555066645145416,0,136.03712463378906
247860,535297535,641202688,0,-0.35405775904655457,0.2557801902294159,0,136.03614807128906
247872,535297535,641202688,0,-0.35400766134262085,0.2553226351737976,0,136.0330047607422
247876,535297535,641202688,0,-0.3541240990161896,0.255778431892395,0,136.0319366455078
247892,535297535,641202688,0,-0.3541354835033417,0.25590530037879944,0,136.0284423828125
247896,536346111,641202688,0,-0.353861004114151,0.2561318874359131,0,136.0277099609375
247900,535297535,641202688,0,-0.3536354601383209,0.2562277615070343,0,136.0271759033203
247902,535297535,641202688,0,-0.3536357581615448,0.2559937834739685,0,136.0262451171875
247906,535297535,641202688,0,-0.35364845395088196,0.2558237910270691,0,136.0254669189453
247910,535297535,641203712,0,-0.35394996404647827,0.25627708435058594,0,136.0248565673828
247914,535297535,641203712,0,-0.35417798161506653,0.2567809820175171,0,136.0237579345703
247918,535297535,641203712,0,-0.3540903627872467,0.25724607706069946,0,136.02236938476562
247922,535297535,641203712,0,-0.3539167046546936,0.25732186436653137,0,136.02134704589844
247926,535297535,641203712,0,-0.3539324104785919,0.25715702772140503,0,136.02044677734375
247930,535297535,641203712,0,-0.3540705144405365,0.2568444013595581,0,136.01947021484375
247942,535297535,641202688,0,-0.3549487888813019,0.25562411546707153,0,136.0153350830078
247946,535297535,641202688,0,-0.35499197244644165,0.25489935278892517,0,136.01419067382812
247950,535297535,641202688,0,-0.3550366759300232,0.2542344033718109,0,136.0131072998047
247962,535297535,641202688,0,-0.3546743392944336,0.25374287366867065,0,136.01048278808594
247966,536346111,641202688,0,-0.35459423065185547,0.2537716031074524,0,136.00994873046875
247968,535297535,641202688,0,-0.35459423065185547,0.2537716031074524,0,136.00994873046875
247972,535297535,640154112,0,-0.3547055125236511,0.25326642394065857,0,136.00924682617188
247976,535297535,641202688,0,-0.354632705450058,0.25237348675727844,0,136.00848388671875
247980,535297535,641202688,0,-0.35445669293403625,0.25219497084617615,0,136.00772094726562
247992,535297535,641202688,0,-0.3550301492214203,0.2520335018634796,0,136.00497436523438
247996,535297535,641202688,0,-0.35478675365448,0.25224554538726807,0,136.00416564941406
248000,535297535,641202688,0,-0.3543848991394043,0.2527247965335846,0,136.00352478027344
248002,535297535,641202688,0,-0.35453155636787415,0.2533068358898163,0,136.00253295898438
248006,535297535,641202688,0,-0.3549060821533203,0.2536049783229828,0,136.00143432617188
248010,535297535,641203712,0,-0.3549719750881195,0.253865122795105,0,136.0002899169922
248014,535297535,641203712,0,-0.35477742552757263,0.2540449798107147,0,135.99887084960938
248018,535297535,641203712,0,-0.35478341579437256,0.2540012001991272,0,135.99761962890625
248022,535297535,641203712,0,-0.35464102029800415,0.2541148364543915,0,135.99620056152344
248026,535297535,641203712,0,-0.35452622175216675,0.25447797775268555,0,135.99502563476562
248030,535297535,641203712,0,-0.3546852171421051,0.25455477833747864,0,135.99403381347656
248042,535297535,641202688,0,-0.3548869788646698,0.254366397857666,0,135.99160766601562
248046,535297535,641202688,0,-0.3548876643180847,0.2543541193008423,0,135.99085998535156
248052,536346111,641202688,0,-0.354805052280426,0.2543332278728485,0,135.99000549316406
248056,535297535,641202688,0,-0.35449761152267456,0.2544744610786438,0,135.98948669433594
248060,535297535,641202688,0,-0.35468918085098267,0.2543151378631592,0,135.9886016845703
248064,535297535,641202688,0,-0.35474127531051636,0.25343072414398193,0,135.98780822753906
248072,535297535,641202688,0,-0.35522618889808655,0.25312483310699463,0,135.9864044189453
248076,535297535,641202688,0,-0.3554963171482086,0.2533642649650574,0,135.98570251464844
248092,535297535,641202688,0,-0.3555859625339508,0.2524164021015167,0,135.98133850097656
248096,535297535,641202688,0,-0.3555735647678375,0.2523094713687897,0,135.98031616210938
248100,535297535,641202688,0,-0.35565462708473206,0.2518785297870636,0,135.979248046875
248112,535297535,641202688,0,-0.3552371561527252,0.2522158920764923,0,135.97586059570312
248116,535297535,641202688,0,-0.35511037707328796,0.252074658870697,0,135.97467041015625
248120,535297535,640154112,0,-0.35528209805488586,0.2522927522659302,0,135.97361755371094
248132,535297535,641202688,0,-0.35538408160209656,0.25120893120765686,0,135.97108459472656
248136,535297535,641202688,0,-0.355251669883728,0.25097692012786865,0,135.9702911376953
248140,535297535,641202688,0,-0.3551280200481415,0.2508366107940674,0,135.96932983398438
248146,535297535,641202688,0,-0.35463422536849976,0.2512401044368744,0,135.96783447265625
248150,535297535,641202688,0,-0.3546462655067444,0.25152209401130676,0,135.96714782714844
248152,535297535,641202688,0,-0.3546462655067444,0.25152209401130676,0,135.96714782714844
248162,535297535,641202688,0,-0.35478073358535767,0.25205838680267334,0,135.96499633789062
248166,536346111,641202688,0,-0.3547136187553406,0.2523635923862457,0,135.96441650390625
248170,535297535,641202688,0,-0.3543812334537506,0.25227367877960205,0,135.9639892578125
248180,535297535,641203712,0,-0.3541001081466675,0.2526428699493408,0,135.96173095703125
248184,535297535,641203712,0,-0.3541059195995331,0.25259655714035034,0,135.96046447753906
248188,535297535,641203712,0,-0.35404178500175476,0.25299808382987976,0,135.9592742919922
248192,535297535,641203712,0,-0.35384100675582886,0.25318992137908936,0,135.95823669433594
248196,535297535,641203712,0,-0.35371917486190796,0.25324302911758423,0,135.9572296142578
248200,535297535,641202688,0,-0.3537682294845581,0.25318625569343567,0,135.95614624023438
248212,535297535,641202688,0,-0.3538193702697754,0.2525142729282379,0,135.95382690429688
248214,535297535,641202688,0,-0.35416242480278015,0.2522434592247009,0,135.953125
248218,535297535,641203712,0,-0.35449206829071045,0.25217583775520325,0,135.95248413085938
248222,535297535,641202688,0,-0.3544163703918457,0.2520219385623932,0,135.95188903808594
248226,535297535,641202688,0,-0.3540405035018921,0.25221115350723267,0,135.95114135742188
248230,535297535,641202688,0,-0.35402804613113403,0.2523111402988434,0,135.95013427734375
248236,535297535,641202688,0,-0.3541640043258667,0.25270962715148926,0,135.9491424560547
248240,535297535,641202688,0,-0.3540433645248413,0.252591609954834,0,135.94775390625
248244,535297535,641202688,0,-0.35393404960632324,0.25274911522865295,0,135.94631958007812
248248,535297535,641202687,0,-0.35407882928848267,0.2523685395717621,0,135.9449462890625
248252,535297535,641202687,0,-0.3542948067188263,0.2525019943714142,0,135.94384765625
248256,536346111,641202688,0,-0.3545988202095032,0.25273388624191284,0,135.94287109375
248260,535297535,641202688,0,-0.3544241189956665,0.252753883600235,0,135.9424285888672
248264,535297535,641202688,0,-0.35467973351478577,0.2529159188270569,0,135.94158935546875
248272,535297535,641202688,0,-0.3554411828517914,0.25248271226882935,0,135.9391632080078
248276,535297535,641202688,0,-0.35551804304122925,0.2525191605091095,0,135.93826293945312
248292,536346111,641202688,0,-0.35476216673851013,0.25239109992980957,0,135.93417358398438
248296,535297535,641202688,0,-0.3548002243041992,0.25224927067756653,0,135.93356323242188
248300,535297535,641202688,0,-0.35500019788742065,0.2520209550857544,0,135.932373046875
248310,535297535,641202688,0,-0.3551480770111084,0.25263869762420654,0,135.92906188964844
248314,535297535,641202688,0,-0.35519397258758545,0.25286442041397095,0,135.92840576171875
248322,535297535,640154112,0,-0.35458633303642273,0.2534869611263275,0,135.9268341064453
248326,536346111,641202688,0,-0.35447993874549866,0.2538480758666992,0,135.92630004882812
248330,535297535,641202688,0,-0.35449841618537903,0.2538160979747772,0,135.92520141601562
248342,535297535,641203712,0,-0.35481515526771545,0.2541574537754059,0,135.92279052734375
248346,535297535,641203712,0,-0.35473209619522095,0.2543848752975464,0,135.9220428466797
248350,535297535,641203712,0,-0.35498180985450745,0.25455009937286377,0,135.9212646484375
248354,535297535,641202688,0,-0.35477620363235474,0.2544252574443817,0,135.92030334472656
248360,535297535,641202688,0,-0.3547123670578003,0.25414448976516724,0,135.91949462890625
248364,535297535,641202688,0,-0.3547717034816742,0.2536754608154297,0,135.9184112548828
248368,535297535,641202688,0,-0.35505738854408264,0.2534806728363037,0,135.91720581054688
248372,535297535,641202688,0,-0.355320006608963,0.253356009721756,0,135.91624450683594
248376,535297535,641202688,0,-0.35493242740631104,0.25300800800323486,0,135.91554260253906
248380,535297535,641202688,0,-0.3548583686351776,0.25268739461898804,0,135.9141845703125
248384,535297535,641202688,0,-0.35505419969558716,0.2522087097167969,0,135.9126739501953
248388,535297535,641202688,0,-0.3551707863807678,0.25197625160217285,0,135.911376953125
248392,535297535,641202688,0,-0.35536324977874756,0.2521149516105652,0,135.91009521484375
248396,535297535,641202688,0,-0.35502922534942627,0.2520582675933838,0,135.9087371826172
248400,535297535,641202688,0,-0.3550407290458679,0.252144455909729,0,135.90789794921875
248404,536346111,641202688,0,-0.35537540912628174,0.2519044578075409,0,135.90728759765625
248408,536346111,641202688,0,-0.3557620346546173,0.25169306993484497,0,135.90682983398438
248412,535297535,641202688,0,-0.3563072383403778,0.25184476375579834,0,135.90611267089844
248422,535297535,641203712,0,-0.3567965626716614,0.25176772475242615,0,135.9034423828125
248426,535297535,641203712,0,-0.3566623330116272,0.251583069562912,0,135.90269470214844
248430,535297535,641203712,0,-0.35681062936782837,0.25179487466812134,0,135.90167236328125
248434,535297535,641203712,0,-0.3570845127105713,0.2519212067127228,0,135.90052795410156
248438,535297535,641203712,0,-0.3573763966560364,0.2516786754131317,0,135.89971923828125
248442,535297535,641202688,0,-0.3574669063091278,0.2521879971027374,0,135.89892578125
248446,535297535,641202688,0,-0.35755985975265503,0.2527388632297516,0,135.89810180664062
248450,535297535,641203712,0,-0.3576905429363251,0.2531418204307556,0,135.8970947265625
248454,535297535,641203712,0,-0.3575552999973297,0.2534274160861969,0,135.89613342285156
248458,535297535,641203712,0,-0.3574273884296417,0.2531801462173462,0,135.89511108398438
248462,535297535,641202688,0,-0.3571215271949768,0.2529783546924591,0,135.89430236816406
248466,535297535,641202688,0,-0.3566148579120636,0.2529353201389313,0,135.89332580566406
248470,535297535,641202688,0,-0.35629546642303467,0.25235745310783386,0,135.89263916015625
248482,535297535,640154112,0,-0.3560805916786194,0.25229504704475403,0,135.89012145996094
248486,535297535,641202688,0,-0.355898916721344,0.25253787636756897,0,135.8893280029297
248490,535297535,641202688,0,-0.3556283116340637,0.2528705894947052,0,135.8884735107422
248502,536346111,641202688,0,-0.35486793518066406,0.25241392850875854,0,135.88589477539062
248506,535297535,641202688,0,-0.3549511730670929,0.2520436942577362,0,135.8853759765625
248510,535297535,641202688,0,-0.3550255596637726,0.2524482011795044,0,135.88461303710938
248522,535297535,641202688,0,-0.3544943928718567,0.2532462775707245,0,135.88111877441406
248526,535297535,641202688,0,-0.3544897735118866,0.2531885504722595,0,135.88009643554688
248530,536346111,641202688,0,-0.35440024733543396,0.2526981234550476,0,135.8795623779297
248542,535297535,641202688,0,-0.3541516661643982,0.2526575028896332,0,135.8760223388672
248546,535297535,641202688,0,-0.3537050187587738,0.25230810046195984,0,135.87501525878906
248550,535297535,641202688,0,-0.3534950315952301,0.25234127044677734,0,135.87420654296875
248562,535297535,640154112,0,-0.3531897962093353,0.25245901942253113,0,135.87168884277344
248572,535297535,640154112,0,-0.35331422090530396,0.25273799896240234,0,135.86911010742188
248576,535297535,641203712,0,-0.3531814515590668,0.25309252738952637,0,135.86781311035156
248586,535297535,641203712,0,-0.3528881371021271,0.25428879261016846,0,135.86434936523438
248590,535297535,641202688,0,-0.3528304100036621,0.2548369765281677,0,135.863525390625
248594,535297535,641202688,0,-0.3527715504169464,0.2554903030395508,0,135.86294555664062
248598,536346111,641202688,0,-0.35263335704803467,0.2556225061416626,0,135.86239624023438
248612,536346111,641202688,0,-0.35253649950027466,0.25474536418914795,0,135.8607940673828
248616,536346111,641202688,0,-0.35227489471435547,0.2549493908882141,0,135.86029052734375
248620,536346111,641202688,0,-0.3522844910621643,0.2550709843635559,0,135.86012268066406
248632,535297535,641203712,0,-0.3521740436553955,0.25534704327583313,0,135.85733032226562
248636,535297535,641203712,0,-0.35205456614494324,0.25502902269363403,0,135.85580444335938
248640,535297535,641202688,0,-0.35213619470596313,0.2545863389968872,0,135.85464477539062
248652,535297535,641203712,0,-0.3520742654800415,0.2548869550228119,0,135.85137939453125
248656,535297535,641203712,0,-0.3524976372718811,0.2549600601196289,0,135.85035705566406
248660,535297535,641203712,0,-0.352909117937088,0.2554769217967987,0,135.8492889404297
248672,535297535,641202688,0,-0.3521464467048645,0.2558801472187042,0,135.8466796875
248676,535297535,641202688,0,-0.35202088952064514,0.25610917806625366,0,135.84556579589844
248692,535297535,641202688,0,-0.35195913910865784,0.2570900321006775,0,135.84202575683594
248696,535297535,641202688,0,-0.3524150252342224,0.25705671310424805,0,135.84115600585938
248698,535297535,641203712,0,-0.3526253402233124,0.25678977370262146,0,135.84024047851562
248702,535297535,640154112,0,-0.35264602303504944,0.25648587942123413,0,135.83900451660156
248706,535297535,641202688,0,-0.3525097668170929,0.256176620721817,0,135.8378143310547
248708,535297535,641202688,0,-0.3525097668170929,0.256176620721817,0,135.8378143310547
248712,535297535,641202688,0,-0.3521215617656708,0.2551872730255127,0,135.83660888671875
248716,535297535,641202688,0,-0.35198020935058594,0.2546989917755127,0,135.83551025390625
248720,535297535,641203712,0,-0.3522292673587799,0.25485166907310486,0,135.8343048095703
248732,536346111,641202688,0,-0.3523062467575073,0.2544380724430084,0,135.8318634033203
248736,536346111,641202688,0,-0.35244518518447876,0.2543119192123413,0,135.83143615722656
248740,536346111,641202688,0,-0.35258811712265015,0.25397518277168274,0,135.83096313476562
248746,535297535,641202688,0,-0.35293397307395935,0.253322571516037,0,135.83009338378906
248750,535297535,641202688,0,-0.35333016514778137,0.25334519147872925,0,135.8293914794922
248754,535297535,641202688,0,-0.3534594476222992,0.25276312232017517,0,135.82815551757812
248758,535297535,641202688,0,-0.3533215820789337,0.252788782119751,0,135.8271942138672
248762,535297535,641203712,0,-0.35338926315307617,0.2526857554912567,0,135.826416015625
248766,535297535,641203712,0,-0.353718101978302,0.25287187099456787,0,135.825439453125
248770,535297535,641203712,0,-0.35439494252204895,0.2530021667480469,0,135.8245391845703
248774,535297535,641203712,0,-0.3546983301639557,0.2531202435493469,0,135.82345581054688
248778,535297535,641203712,0,-0.35462698340415955,0.2530744671821594,0,135.822265625
248782,535297535,641203712,0,-0.3546610474586487,0.25318074226379395,0,135.82150268554688
248786,535297535,641202688,0,-0.35504019260406494,0.2532130777835846,0,135.82098388671875
248790,535297535,641202688,0,-0.3550854027271271,0.25313836336135864,0,135.8203582763672
248794,535297535,641202688,0,-0.35477226972579956,0.2531832158565521,0,135.8195037841797
248798,535297535,641202688,0,-0.3544497489929199,0.2535634934902191,0,135.81845092773438
248802,535297535,641202688,0,-0.354373961687088,0.2533973455429077,0,135.81727600097656
248806,535297535,641202688,0,-0.35442662239074707,0.25355538725852966,0,135.81649780273438
248810,536346111,641202688,0,-0.354213684797287,0.25339409708976746,0,135.8159942626953
248822,535297535,641202688,0,-0.3538370728492737,0.2535080313682556,0,135.81324768066406
248826,536346111,641202688,0,-0.3541167378425598,0.25374099612236023,0,135.81271362304688
248830,535297535,641202688,0,-0.3546726405620575,0.2536579966545105,0,135.81211853027344
248842,535297535,641203712,0,-0.3548382520675659,0.25289496779441833,0,135.80941772460938
248846,535297535,641203711,0,-0.3554427921772003,0.2526996433734894,0,135.80857849121094
248850,535297535,641203711,0,-0.35562604665756226,0.2528965473175049,0,135.80767822265625
248860,535297535,641203711,0,-0.3563533127307892,0.2530539631843567,0,135.80572509765625
248872,535297535,641202688,0,-0.3568219244480133,0.2528884708881378,0,135.8030548095703
248876,535297535,641202688,0,-0.35644862055778503,0.25289955735206604,0,135.80210876464844
248892,535297535,641202688,0,-0.3558996319770813,0.2541084289550781,0,135.79800415039062
248896,535297535,641202688,0,-0.3558639585971832,0.2539880573749542,0,135.79666137695312
248900,535297535,641202688,0,-0.3559167981147766,0.2538910508155823,0,135.79576110839844
248912,535297535,641202688,0,-0.35661327838897705,0.25376376509666443,0,135.7931365966797
248916,535297535,641202688,0,-0.35658013820648193,0.2540046274662018,0,135.79212951660156
248920,536346111,641202688,0,-0.3566824197769165,0.25414904952049255,0,135.79129028320312
248932,536346111,641202688,0,-0.3557283878326416,0.2543518841266632,0,135.7894744873047
248936,535297535,641202688,0,-0.3555520474910736,0.253936231136322,0,135.78875732421875
248940,535297535,641202688,0,-0.35522833466529846,0.25331929326057434,0,135.7875518798828
248944,535297535,641202688,0,-0.3553716242313385,0.2531943619251251,0,135.7869110107422
248948,535297535,641203712,0,-0.35523316264152527,0.2529833912849426,0,135.78604125976562
248952,535297535,641203712,0,-0.3548140823841095,0.25291815400123596,0,135.7849578857422
248956,535297535,641202688,0,-0.35426080226898193,0.252807080745697,0,135.7838592529297
248962,535297535,641202688,0,-0.3543393611907959,0.2524999678134918,0,135.7821807861328
248966,535297535,641202688,0,-0.35441747307777405,0.25221315026283264,0,135.78143310546875
248970,535297535,641202688,0,-0.35451850295066833,0.25220710039138794,0,135.78050231933594
248982,536346111,641202688,0,-0.354323148727417,0.25224220752716064,0,135.77891540527344
248986,535297535,641202688,0,-0.35470375418663025,0.25220105051994324,0,135.77798461914062
248990,535297535,641203712,0,-0.3550295829772949,0.25233280658721924,0,135.77691650390625
248998,535297535,641202688,0,-0.35461583733558655,0.2512112557888031,0,135.77490234375
249002,535297535,641202688,0,-0.354715496301651,0.2511245608329773,0,135.77413940429688
249006,535297535,641202688,0,-0.35507842898368835,0.25137314200401306,0,135.77352905273438
249010,535297535,641202688,0,-0.35548609495162964,0.2513755261898041,0,135.77256774902344
249014,535297535,641202688,0,-0.3553420603275299,0.25141432881355286,0,135.77171325683594
249018,535297535,641202688,0,-0.3550640344619751,0.25158122181892395,0,135.7708740234375
249022,535297535,641203712,0,-0.3550390303134918,0.2516695559024811,0,135.76986694335938
249026,535297535,641203712,0,-0.3549920916557312,0.251783162355423,0,135.76882934570312
249030,535297535,641203712,0,-0.3551168143749237,0.25174975395202637,0,135.76771545410156
249034,535297535,641202688,0,-0.35486090183258057,0.25140467286109924,0,135.76683044433594
249038,535297535,641202688,0,-0.3548792004585266,0.25139281153678894,0,135.76602172851562
249042,535297535,641202688,0,-0.3550269305706024,0.2516261637210846,0,135.76495361328125
249046,535297535,641202688,0,-0.3552026152610779,0.25161975622177124,0,135.763916015625
249050,535297535,641202688,0,-0.3556149899959564,0.2512913942337036,0,135.7630157470703
249054,535297535,641202688,0,-0.3558807671070099,0.25151386857032776,0,135.7618865966797
249058,535297535,641202688,0,-0.35635238885879517,0.25127866864204407,0,135.76077270507812
249062,535297535,641202688,0,-0.35673120617866516,0.25102540850639343,0,135.7600555419922
249066,535297535,641203712,0,-0.35687190294265747,0.2513311207294464,0,135.75946044921875
249070,535297535,641203712,0,-0.3570230007171631,0.251574844121933,0,135.7586212158203
249074,535297535,641202688,0,-0.35750046372413635,0.25177201628685,0,135.7577362060547
249078,535297535,641202688,0,-0.3573947250843048,0.25179585814476013,0,135.7567596435547
249082,535297535,641202688,0,-0.35725003480911255,0.25228655338287354,0,135.75592041015625
249086,535297535,641202688,0,-0.35728275775909424,0.252303808927536,0,135.75486755371094
249090,535297535,641203712,0,-0.3573340177536011,0.2522886097431183,0,135.7535858154297
249102,536346111,641203712,0,-0.35759639739990234,0.2523793578147888,0,135.75167846679688
249106,535297535,641203712,0,-0.3574848771095276,0.25239571928977966,0,135.7510986328125
249110,535297535,641203712,0,-0.35762348771095276,0.2524813413619995,0,135.74986267089844
249122,536346111,641203712,0,-0.35784101486206055,0.2524944841861725,0,135.747314453125
249126,535297535,641203712,0,-0.3578660190105438,0.252331018447876,0,135.74676513671875
249130,535297535,641202687,0,-0.35797303915023804,0.2522430419921875,0,135.74571228027344
249142,535297535,641202688,0,-0.35878169536590576,0.25209879875183105,0,135.74346923828125
249146,535297535,641202688,0,-0.3590577244758606,0.2516147792339325,0,135.74256896972656
249148,535297535,641202688,0,-0.3590577244758606,0.2516147792339325,0,135.74256896972656
249152,535297535,641202688,0,-0.35907313227653503,0.2514846622943878,0,135.74176025390625
249156,535297535,641202688,0,-0.3590620160102844,0.25160956382751465,0,135.74073791503906
249160,535297535,641202688,0,-0.35908985137939453,0.25164371728897095,0,135.7396240234375
249164,535297535,641202688,0,-0.35878986120224,0.25123581290245056,0,135.73831176757812
249170,535297535,641202688,0,-0.35938751697540283,0.2505732476711273,0,135.73587036132812
249174,535297535,641202688,0,-0.35913944244384766,0.2506689727306366,0,135.7350311279297
249178,535297535,641202688,0,-0.3591597080230713,0.2506702244281769,0,135.73410034179688
249182,535297535,641202688,0,-0.3589050769805908,0.2509872019290924,0,135.73304748535156
249186,535297535,641202688,0,-0.3584992289543152,0.25127431750297546,0,135.7323455810547
249188,535297535,641202688,0,-0.3584992289543152,0.25127431750297546,0,135.7323455810547
249192,535297535,641202688,0,-0.3583521246910095,0.25107434391975403,0,135.7313232421875
249196,535297535,641202688,0,-0.3581770360469818,0.2507721781730652,0,135.72987365722656
249200,535298559,641202688,0,-0.35842761397361755,0.250942587852478,0,135.7284698486328
249212,535297535,641202688,0,-0.359502911567688,0.2501075267791748,0,135.72682189941406
249216,535297535,641202688,0,-0.3589208126068115,0.2502745985984802,0,135.7261962890625
249220,535297535,641202688,0,-0.35820454359054565,0.25037798285484314,0,135.72552490234375
249232,535297535,641202688,0,-0.3575100004673004,0.24991168081760406,0,135.7224884033203
249236,535297535,641203712,0,-0.35744667053222656,0.24977941811084747,0,135.72171020507812
249238,535297535,641203711,0,-0.35768720507621765,0.2493414431810379,0,135.72080993652344
249242,535297535,641203711,0,-0.3577284514904022,0.24914343655109406,0,135.71966552734375
249246,535297535,641202688,0,-0.3578455448150635,0.24868148565292358,0,135.71852111816406
249250,535297535,641202688,0,-0.35824403166770935,0.24888809025287628,0,135.71726989746094
249260,535297535,641203712,0,-0.35895633697509766,0.24920180439949036,0,135.71556091308594
249272,535297535,641202688,0,-0.3591611385345459,0.248473659157753,0,135.71371459960938
249276,536346111,641202688,0,-0.35914358496665955,0.2481098771095276,0,135.71282958984375
249292,536346111,641202688,0,-0.35908830165863037,0.24758803844451904,0,135.71014404296875
249296,536346111,641203712,0,-0.3586595356464386,0.2473284900188446,0,135.70970153808594
249298,536346111,641203712,0,-0.35827142000198364,0.247158944606781,0,135.7093048095703
249302,535297535,641202688,0,-0.35856255888938904,0.24678432941436768,0,135.70872497558594
249306,535297535,641202688,0,-0.358737051486969,0.2468271255493164,0,135.70809936523438
249310,535297535,641202688,0,-0.35878899693489075,0.2464754283428192,0,135.70741271972656
249322,535297535,641202688,0,-0.35847893357276917,0.2452695369720459,0,135.7056121826172
249326,535297535,641202688,0,-0.3588126003742218,0.2452947050333023,0,135.70481872558594
249330,536346111,641202688,0,-0.3587884306907654,0.24558688700199127,0,135.70428466796875
249336,535297535,641202688,0,-0.3587847054004669,0.24604114890098572,0,135.70362854003906
249340,535297535,641202688,0,-0.35894814133644104,0.24643166363239288,0,135.70278930664062
249344,535297535,640154112,0,-0.3590022921562195,0.2463640570640564,0,135.7016143798828
249348,535297535,640154112,0,-0.35907652974128723,0.24629731476306915,0,135.70037841796875
249352,535297535,641202688,0,-0.359161376953125,0.2463439553976059,0,135.6994171142578
249356,535297535,641202688,0,-0.3588480055332184,0.24629107117652893,0,135.69837951660156
249360,535297535,641202688,0,-0.3589039742946625,0.24620814621448517,0,135.69700622558594
249372,535297535,641203712,0,-0.35936155915260315,0.246230348944664,0,135.69435119628906
249374,536346111,641203712,0,-0.3592323362827301,0.24650068581104279,0,135.69386291503906
249380,535297535,641202688,0,-0.35927993059158325,0.24685503542423248,0,135.69313049316406
249392,535297535,641202688,0,-0.3599430024623871,0.24718676507472992,0,135.69142150878906
249396,535297535,641202688,0,-0.3600573241710663,0.24701327085494995,0,135.6908416748047
249398,536346111,641202688,0,-0.360154926776886,0.24668100476264954,0,135.69033813476562
249402,535297535,641202688,0,-0.3605320155620575,0.24602380394935608,0,135.6897735595703
249406,535297535,641202688,0,-0.3606167137622833,0.24556195735931396,0,135.6888885498047
249410,535297535,641202688,0,-0.36065199971199036,0.2456737607717514,0,135.6874237060547
249414,535297535,641202688,0,-0.3610704243183136,0.24611325562000275,0,135.68629455566406
249418,535297535,641203712,0,-0.3613610565662384,0.24633581936359406,0,135.68508911132812
249422,535297535,641202688,0,-0.3613714575767517,0.24681255221366882,0,135.68418884277344
249426,535297535,641202688,0,-0.36130568385124207,0.24701590836048126,0,135.6831512451172
249430,535297535,641202688,0,-0.36122748255729675,0.24739015102386475,0,135.68211364746094
249434,535297535,640154112,0,-0.3612614870071411,0.24740074574947357,0,135.6813201904297
249438,535297535,641202688,0,-0.3614693582057953,0.24720977246761322,0,135.6807098388672
249442,535297535,641203712,0,-0.36150360107421875,0.24732497334480286,0,135.67974853515625
249446,535297535,641202688,0,-0.3615124821662903,0.24744263291358948,0,135.6785430908203
249450,535297535,641202688,0,-0.3615870475769043,0.24761557579040527,0,135.67767333984375
249454,535297535,641202688,0,-0.3618464767932892,0.247833251953125,0,135.67701721191406
249458,536346111,641202688,0,-0.3618372678756714,0.2480415254831314,0,135.676513671875
249462,535297535,641203712,0,-0.3621620833873749,0.24829135835170746,0,135.67587280273438
249466,535297535,641203712,0,-0.3622910678386688,0.2484256625175476,0,135.67507934570312
249470,535297535,641203712,0,-0.3621656000614166,0.2480507791042328,0,135.67425537109375
249482,535297535,640154112,0,-0.36242201924324036,0.24745723605155945,0,135.67178344726562
249486,535297535,640154112,0,-0.3624516427516937,0.24715295433998108,0,135.66998291015625
249490,535297535,641202688,0,-0.3621612787246704,0.24659092724323273,0,135.66921997070312
249502,535297535,641203712,0,-0.3618544936180115,0.24573147296905518,0,135.66575622558594
249506,535297535,641202688,0,-0.3618868887424469,0.24523013830184937,0,135.6647186279297
249510,535297535,641203712,0,-0.361674964427948,0.24504393339157104,0,135.66348266601562
249522,536346111,641202688,0,-0.36206069588661194,0.2448166310787201,0,135.66131591796875
249526,535297535,641202688,0,-0.362222820520401,0.24507340788841248,0,135.660888671875
249530,535297535,641202688,0,-0.3625595271587372,0.24486425518989563,0,135.66004943847656
249542,535297535,641202688,0,-0.363092303276062,0.24319544434547424,0,135.65704345703125
249546,536346111,641202688,0,-0.36321043968200684,0.2428930550813675,0,135.6563720703125
249550,535297535,641202688,0,-0.3634006679058075,0.24286344647407532,0,135.65577697753906
249558,535297535,641202688,0,-0.3635748624801636,0.24396555125713348,0,135.65435791015625
249562,535297535,641202688,0,-0.36374568939208984,0.24432460963726044,0,135.65335083007812
249566,535297535,641203712,0,-0.36428165435791016,0.24434120953083038,0,135.65243530273438
249570,535297535,641203711,0,-0.36451974511146545,0.24446336925029755,0,135.651611328125
249576,535297535,641203712,0,-0.3648401200771332,0.24454709887504578,0,135.65072631835938
249580,535297535,641203712,0,-0.36519676446914673,0.24437573552131653,0,135.64976501464844
249584,535297535,641203712,0,-0.36517268419265747,0.24407002329826355,0,135.6488037109375
249592,536346111,641202688,0,-0.3660200238227844,0.24426999688148499,0,135.646728515625
249596,536346111,641202688,0,-0.3663119077682495,0.24447306990623474,0,135.64633178710938
249598,536346111,641202688,0,-0.3666835427284241,0.24434679746627808,0,135.6459503173828
249602,535297535,641202688,0,-0.3667726516723633,0.24410031735897064,0,135.64491271972656
249606,535297535,641202688,0,-0.3665004372596741,0.24451714754104614,0,135.64414978027344
249610,535297535,641202688,0,-0.3662353754043579,0.24451476335525513,0,135.64332580566406
249622,536346111,641202688,0,-0.3660777807235718,0.24472665786743164,0,135.64028930664062
249624,536346111,641202688,0,-0.3660777807235718,0.24472665786743164,0,135.64028930664062
249630,535297535,641202688,0,-0.3666011691093445,0.2439752072095871,0,135.63882446289062
249634,535297535,641202688,0,-0.3665699064731598,0.24354518949985504,0,135.6380157470703
249640,536346111,641202688,0,-0.36648866534233093,0.24336029589176178,0,135.6371612548828
249644,535297535,641202688,0,-0.3665545880794525,0.24337086081504822,0,135.6366424560547
249650,535297535,641202688,0,-0.3665781021118164,0.24300728738307953,0,135.63478088378906
249654,535297535,641202688,0,-0.3664167821407318,0.2430455982685089,0,135.63381958007812
249658,535297535,641202688,0,-0.3666496276855469,0.2432570606470108,0,135.6326446533203
249662,535297535,641202688,0,-0.3670490086078644,0.24370057880878448,0,135.63169860839844
249666,535297535,641202688,0,-0.3671036958694458,0.24408462643623352,0,135.6306610107422
249670,535297535,641202688,0,-0.36697208881378174,0.24405907094478607,0,135.62945556640625
249672,535297535,641202688,0,-0.36697208881378174,0.24405907094478607,0,135.62945556640625
249676,535297535,641202688,0,-0.3667873442173004,0.24355442821979523,0,135.62843322753906
249692,535297535,641203712,0,-0.3669165074825287,0.24333660304546356,0,135.62477111816406
249694,535297535,641203712,0,-0.36655324697494507,0.24340856075286865,0,135.6238555908203
249698,535297535,641203712,0,-0.3665691614151001,0.2439112514257431,0,135.6231231689453
249702,535297535,641203712,0,-0.366997629404068,0.24437767267227173,0,135.62234497070312
249706,535297535,641203712,0,-0.3672772943973541,0.24473229050636292,0,135.62164306640625
249710,535297535,641203712,0,-0.3676188588142395,0.24507178366184235,0,135.62074279785156
249722,535297535,641202688,0,-0.36744365096092224,0.24587860703468323,0,135.61859130859375
249724,535297535,641202688,0,-0.36744365096092224,0.24587860703468323,0,135.61859130859375
249728,535297535,641202688,0,-0.36716386675834656,0.24585208296775818,0,135.6177978515625
249732,535297535,641202688,0,-0.3665771186351776,0.2458554059267044,0,135.616943359375
249736,535297535,641202688,0,-0.3663715124130249,0.24601058661937714,0,135.6161346435547
249740,535297535,641202688,0,-0.3664388358592987,0.24626410007476807,0,135.61529541015625
249742,535297535,641202688,0,-0.36645591259002686,0.24608735740184784,0,135.61451721191406
249746,535297535,641202688,0,-0.36635565757751465,0.24626633524894714,0,135.61343383789062
249748,535297535,641202688,0,-0.36635565757751465,0.24626633524894714,0,135.61343383789062
249752,535297535,641202688,0,-0.3666093647480011,0.24657998979091644,0,135.61279296875
249756,535297535,641202688,0,-0.3668854534626007,0.24679316580295563,0,135.61175537109375
249760,535297535,641202688,0,-0.36697500944137573,0.2465869039297104,0,135.61050415039062
249772,535297535,641202688,0,-0.36717647314071655,0.2461540848016739,0,135.60879516601562
249774,535298559,641202688,0,-0.3678479790687561,0.2456876039505005,0,135.6075439453125
249782,535297535,641202688,0,-0.36857861280441284,0.24468837678432465,0,135.60531616210938
249784,535297535,641202688,0,-0.36857861280441284,0.24468837678432465,0,135.60531616210938
249792,535297535,641202688,0,-0.3691810965538025,0.24440549314022064,0,135.603515625
249794,535297535,641202688,0,-0.36905860900878906,0.2445273995399475,0,135.6028594970703
249798,535297535,641202688,0,-0.3687911331653595,0.24489592015743256,0,135.60205078125
249802,535297535,641202688,0,-0.3685445487499237,0.24504007399082184,0,135.60121154785156
249806,535297535,641202688,0,-0.36824941635131836,0.2453065663576126,0,135.6002655029297
249810,535297535,641202688,0,-0.3682527542114258,0.24527029693126678,0,135.59939575195312
249822,535297535,641203712,0,-0.3682141602039337,0.24447302520275116,0,135.59674072265625
249826,535297535,641203712,0,-0.3680228888988495,0.24412901699543,0,135.59605407714844
249830,535297535,641202688,0,-0.3677003085613251,0.2443433701992035,0,135.59532165527344
249842,536346111,641202688,0,-0.365863174200058,0.24570438265800476,0,135.59396362304688
249844,536346111,641202688,0,-0.365863174200058,0.24570438265800476,0,135.59396362304688
249848,535297535,641202688,0,-0.3659295439720154,0.24553360044956207,0,135.59352111816406
249852,535297535,641202688,0,-0.36594974994659424,0.24498127400875092,0,135.5928192138672
249856,535297535,641202688,0,-0.36558517813682556,0.24469789862632751,0,135.5918731689453
249860,535297535,641202688,0,-0.36533090472221375,0.2445949912071228,0,135.591064453125
249864,535297535,641203712,0,-0.3652016818523407,0.2444932609796524,0,135.5904541015625
249868,535297535,641203712,0,-0.3655122220516205,0.24446412920951843,0,135.5894317626953
249872,535297535,641202688,0,-0.365740031003952,0.24445897340774536,0,135.5883331298828
249876,535297535,641203712,0,-0.36598441004753113,0.24430686235427856,0,135.58758544921875
249892,535297535,641202688,0,-0.36662641167640686,0.24366989731788635,0,135.58438110351562
249896,535297535,641202688,0,-0.3672093152999878,0.24341176450252533,0,135.5835418701172
249900,536346111,641202688,0,-0.36732229590415955,0.2432366907596588,0,135.58287048339844
249902,536346111,641202688,0,-0.36709123849868774,0.24344252049922943,0,135.5823974609375
249906,536346111,641203712,0,-0.3671134412288666,0.24362003803253174,0,135.58213806152344
249910,535297535,641203712,0,-0.3673100769519806,0.24365636706352234,0,135.5816192626953
249914,535297535,641203712,0,-0.36765536665916443,0.244134783744812,0,135.58091735839844
249922,535297535,641202688,0,-0.3679214119911194,0.2444700449705124,0,135.5796356201172
249926,535297535,641202688,0,-0.3677056133747101,0.24426527321338654,0,135.578857421875
249928,535297535,641202688,0,-0.3677056133747101,0.24426527321338654,0,135.578857421875
249932,535297535,640154112,0,-0.36741727590560913,0.2438349723815918,0,135.5779571533203
249936,535297535,640154112,0,-0.36733609437942505,0.2434236705303192,0,135.5769500732422
249940,535297535,641202688,0,-0.3674948513507843,0.2433040738105774,0,135.5760498046875
249944,536346111,641202688,0,-0.367859810590744,0.24360322952270508,0,135.5754852294922
249950,535297535,641202688,0,-0.36774134635925293,0.2434949278831482,0,135.57437133789062
249962,535297535,641202688,0,-0.3673798143863678,0.24313071370124817,0,135.57176208496094
249966,535297535,641202688,0,-0.3675578236579895,0.24267403781414032,0,135.57101440429688
249970,535297535,641202688,0,-0.36753448843955994,0.24214746057987213,0,135.5703887939453
249982,535297535,641202688,0,-0.36711058020591736,0.24146099388599396,0,135.56881713867188
249986,535297535,641203712,0,-0.3670388460159302,0.2418767809867859,0,135.5681610107422
249990,535297535,641203712,0,-0.3668672740459442,0.24243222177028656,0,135.56695556640625
250002,535297535,641202688,0,-0.36637866497039795,0.24291937053203583,0,135.56442260742188
250004,536346111,641202688,0,-0.36637866497039795,0.24291937053203583,0,135.56442260742188
250012,535297535,641202688,0,-0.3662913143634796,0.2429235577583313,0,135.5632781982422
250016,535297535,641202688,0,-0.3664751946926117,0.2428429126739502,0,135.56246948242188
250020,536346111,641202688,0,-0.3665732443332672,0.24272437393665314,0,135.56187438964844
250032,535297535,641202688,0,-0.36591818928718567,0.24203455448150635,0,135.5608367919922
250036,535297535,641202688,0,-0.3657577335834503,0.24200133979320526,0,135.5599822998047
250038,535297535,641202688,0,-0.36542627215385437,0.2420669049024582,0,135.55865478515625
250042,535297535,641202688,0,-0.36517801880836487,0.24193668365478516,0,135.55735778808594
250046,535297535,641202688,0,-0.3650323152542114,0.2421838343143463,0,135.55662536621094
250050,535297535,641202688,0,-0.3649251163005829,0.24255001544952393,0,135.55577087402344
250054,535297535,641202688,0,-0.36494180560112,0.2429305762052536,0,135.55484008789062
250058,535297535,641203712,0,-0.3648420572280884,0.2430499941110611,0,135.55389404296875
250062,535297535,640155136,0,-0.36464542150497437,0.24285577237606049,0,135.55288696289062
250066,535297535,641203712,0,-0.3645740747451782,0.24270221590995789,0,135.55184936523438
250070,535297535,641202688,0,-0.36449992656707764,0.24258531630039215,0,135.55084228515625
250074,535297535,641203712,0,-0.3644849956035614,0.24224209785461426,0,135.54946899414062
250078,535297535,641203712,0,-0.3648040294647217,0.2421756535768509,0,135.54840087890625
250082,536346111,641203712,0,-0.3647923469543457,0.24249981343746185,0,135.54791259765625
250086,535297535,641203712,0,-0.3645803928375244,0.24303218722343445,0,135.5470428466797
250090,535297535,641202688,0,-0.3640768229961395,0.24331478774547577,0,135.54632568359375
250094,536346111,641202688,0,-0.36387261748313904,0.24375610053539276,0,135.54586791992188
250098,535297535,641202688,0,-0.3641795217990875,0.24420151114463806,0,135.54510498046875
250102,535297535,641202688,0,-0.364242821931839,0.2443157285451889,0,135.54420471191406
250106,535297535,641202688,0,-0.3639870285987854,0.2443844974040985,0,135.5432586669922
250110,535297535,641202688,0,-0.36390843987464905,0.24398760497570038,0,135.5420684814453
250114,535297535,641202688,0,-0.3639843463897705,0.2439078390598297,0,135.54100036621094
250118,535297535,641202688,0,-0.363936185836792,0.24422535300254822,0,135.54006958007812
250122,535297535,641202688,0,-0.3640563488006592,0.24497443437576294,0,135.53921508789062
250126,535297535,641202688,0,-0.3642902672290802,0.24480752646923065,0,135.53826904296875
250130,535297535,641202688,0,-0.3643544614315033,0.2444981187582016,0,135.5374755859375
250134,535297535,641202688,0,-0.36443889141082764,0.24406073987483978,0,135.53677368164062
250138,535297535,641202688,0,-0.36443501710891724,0.24453085660934448,0,135.5358123779297
250142,536346111,641202688,0,-0.364583283662796,0.24468719959259033,0,135.53549194335938
250146,536346111,641202688,0,-0.3647160530090332,0.24462290108203888,0,135.53564453125
250150,535297535,641202688,0,-0.36501479148864746,0.24445779621601105,0,135.53456115722656
250154,535297535,641202688,0,-0.3650665283203125,0.24434415996074677,0,135.53359985351562
250158,535297535,641202688,0,-0.3651253283023834,0.24454091489315033,0,135.53277587890625
250172,535297535,641202688,0,-0.36453500390052795,0.24392226338386536,0,135.53172302246094
250176,535297535,641202688,0,-0.36456334590911865,0.2435646951198578,0,135.530517578125
250192,535297535,641202688,0,-0.36461907625198364,0.24308155477046967,0,135.52662658691406
250196,535297535,641202688,0,-0.3645648956298828,0.24302829802036285,0,135.52589416503906
250198,535297535,641202688,0,-0.36437931656837463,0.24314481019973755,0,135.52474975585938
250202,535297535,641202688,0,-0.3646146059036255,0.24309980869293213,0,135.52366638183594
250206,535297535,641202688,0,-0.36494511365890503,0.24334578216075897,0,135.52255249023438
250210,535297535,641202688,0,-0.36491745710372925,0.24330663681030273,0,135.52130126953125
250214,535297535,641202688,0,-0.3648897409439087,0.24315060675144196,0,135.52037048339844
250218,535297535,641202688,0,-0.3646186590194702,0.24260343611240387,0,135.51974487304688
250222,535297535,641202688,0,-0.36468157172203064,0.2422139197587967,0,135.51914978027344
250226,535297535,641202688,0,-0.3648478388786316,0.24174004793167114,0,135.5185089111328
250230,535297535,641202688,0,-0.36455950140953064,0.24156180024147034,0,135.5179443359375
250242,535297535,640155136,0,-0.3641982078552246,0.24140560626983643,0,135.51568603515625
250246,535297535,641203712,0,-0.36420688033103943,0.24131204187870026,0,135.5144500732422
250250,535297535,641203712,0,-0.36424800753593445,0.2414296567440033,0,135.51344299316406
250252,535297535,641203712,0,-0.36424800753593445,0.2414296567440033,0,135.51344299316406
250256,536346111,641202688,0,-0.36413660645484924,0.2417445033788681,0,135.51295471191406
250260,536346111,641202688,0,-0.36404961347579956,0.24179881811141968,0,135.5127410888672
250264,536346111,641202688,0,-0.36408910155296326,0.2418648898601532,0,135.5125732421875
250272,536346111,641202688,0,-0.36391234397888184,0.2419501692056656,0,135.51226806640625
250276,535297535,640154112,0,-0.363741934299469,0.24153496325016022,0,135.51182556152344
250286,535297535,640154112,0,-0.363399475812912,0.24113133549690247,0,135.50860595703125
250292,535297535,641202688,0,-0.36341869831085205,0.24157306551933289,0,135.5079803466797
250294,535297535,641202688,0,-0.36306360363960266,0.24187321960926056,0,135.50729370117188
250298,535297535,641203712,0,-0.3628751039505005,0.24229910969734192,0,135.50645446777344
250300,535297535,641203712,0,-0.3628751039505005,0.24229910969734192,0,135.50645446777344
250304,536346111,641203712,0,-0.3624522089958191,0.24282076954841614,0,135.50582885742188
250308,535297535,641203712,0,-0.36181458830833435,0.24329958856105804,0,135.50523376464844
250316,535297535,641203712,0,-0.36077889800071716,0.24382400512695312,0,135.50274658203125
250318,535297535,641203712,0,-0.36078113317489624,0.24411942064762115,0,135.50204467773438
250322,535297535,641202688,0,-0.3609924614429474,0.2448815256357193,0,135.5013885498047
250326,536346111,640155136,0,-0.361003041267395,0.24518322944641113,0,135.5009765625
250330,536346111,641203712,0,-0.36111336946487427,0.24509142339229584,0,135.50070190429688
250342,535297535,641202688,0,-0.36161676049232483,0.24510781466960907,0,135.4978485107422
250344,535297535,641202688,0,-0.36161676049232483,0.24510781466960907,0,135.4978485107422
250348,535297535,641202688,0,-0.36208614706993103,0.24516575038433075,0,135.49717712402344
250352,535297535,641202688,0,-0.3623943030834198,0.24498480558395386,0,135.4962921142578
250356,535297535,641202688,0,-0.3623191714286804,0.24514423310756683,0,135.49520874023438
250360,535297535,641202688,0,-0.3624449670314789,0.24558232724666595,0,135.49407958984375
250366,535297535,641202688,0,-0.36296728253364563,0.24560454487800598,0,135.4925537109375
250368,535297535,641202688,0,-0.36296728253364563,0.24560454487800598,0,135.4925537109375
250376,535297535,641202688,0,-0.36306944489479065,0.24517415463924408,0,135.49147033691406
250378,535297535,641202688,0,-0.3629257082939148,0.245024174451828,0,135.49073791503906
250392,535297535,641202688,0,-0.36344102025032043,0.24524208903312683,0,135.48841857910156
250394,535297535,641202688,0,-0.3633924126625061,0.2454235851764679,0,135.48770141601562
250398,536346111,641202688,0,-0.3631909489631653,0.24543172121047974,0,135.4873504638672
250400,536346111,641202688,0,-0.3631909489631653,0.24543172121047974,0,135.4873504638672
250404,535297535,641202688,0,-0.3631224036216736,0.24530556797981262,0,135.4871368408203
250408,535297535,641202688,0,-0.3630064129829407,0.24547109007835388,0,135.4862518310547
250412,535297535,641202688,0,-0.3629613220691681,0.24584147334098816,0,135.4848175048828
250418,535297535,641202688,0,-0.3630416691303253,0.24635866284370422,0,135.48316955566406
250422,535297535,641202688,0,-0.3631536364555359,0.24626940488815308,0,135.48226928710938
250428,535297535,641202688,0,-0.3632983863353729,0.24581891298294067,0,135.4813995361328
250432,535297535,641202688,0,-0.36313721537590027,0.2457170933485031,0,135.4805908203125
250436,535297535,641202688,0,-0.36290496587753296,0.24551890790462494,0,135.4798126220703
250438,535297535,641202688,0,-0.3630656898021698,0.2457444816827774,0,135.47894287109375
250444,535297535,641202688,0,-0.3637070655822754,0.24567808210849762,0,135.4781036376953
250448,535297535,641202688,0,-0.36345696449279785,0.2456005960702896,0,135.4775390625
250452,535297535,641202688,0,-0.363077312707901,0.24523799121379852,0,135.47691345214844
250456,535297535,641203712,0,-0.3632315695285797,0.2452583760023117,0,135.47625732421875
250458,535297535,640155136,0,-0.36359578371047974,0.24528977274894714,0,135.47537231445312
250470,535297535,641202688,0,-0.3632428050041199,0.24623718857765198,0,135.47227478027344
250474,535297535,641202688,0,-0.363479882478714,0.24596132338047028,0,135.4713897705078
250478,536346111,641202688,0,-0.3633437156677246,0.24542655050754547,0,135.4708251953125
250482,535297535,641202688,0,-0.3633076548576355,0.24514898657798767,0,135.4702911376953
250490,536346111,641202688,0,-0.36331623792648315,0.24481073021888733,0,135.468505859375
250494,536346111,641202688,0,-0.3635920286178589,0.2450409084558487,0,135.4683074951172
250498,535297535,641202688,0,-0.36374080181121826,0.24519814550876617,0,135.46743774414062
250502,535297535,641202688,0,-0.36388692259788513,0.24538323283195496,0,135.4666290283203
250506,536346111,640154112,0,-0.3639664351940155,0.24523785710334778,0,135.46617126464844
250510,536346111,640154112,0,-0.36425891518592834,0.2448376715183258,0,135.46603393554688
250522,535297535,641202688,0,-0.36382055282592773,0.24376899003982544,0,135.4633026123047
250526,536346111,641202688,0,-0.36355096101760864,0.24317975342273712,0,135.46267700195312
250530,536346111,641202688,0,-0.363256573677063,0.24290627241134644,0,135.46240234375
250542,535297535,641202688,0,-0.3629254698753357,0.24232347309589386,0,135.4601593017578
250552,535297535,641202688,0,-0.3620869219303131,0.24120181798934937,0,135.4589385986328
250554,535297535,641202688,0,-0.36173614859580994,0.24145753681659698,0,135.45794677734375
250562,535297535,641203712,0,-0.36169135570526123,0.24116958677768707,0,135.45516967773438
250566,535297535,641203712,0,-0.36175966262817383,0.24080292880535126,0,135.45411682128906
250570,535297535,641203712,0,-0.3615967333316803,0.2409835308790207,0,135.45314025878906
250578,536346111,641203712,0,-0.36125579476356506,0.24207203090190887,0,135.4521026611328
250582,535297535,641202688,0,-0.36099377274513245,0.2423429936170578,0,135.45123291015625
250586,535297535,641202688,0,-0.3609066605567932,0.24219776690006256,0,135.45030212402344
250590,535297535,641202688,0,-0.3607608377933502,0.24182914197444916,0,135.44949340820312
250602,535297535,641202688,0,-0.36101874709129333,0.24211910367012024,0,135.44705200195312
250604,535297535,641202688,0,-0.36101874709129333,0.24211910367012024,0,135.44705200195312
250608,535297535,641202688,0,-0.36082589626312256,0.24214443564414978,0,135.44647216796875
250612,535297535,641202688,0,-0.36064767837524414,0.24244512617588043,0,135.44580078125
250616,535297535,641202688,0,-0.36054426431655884,0.24270930886268616,0,135.44467163085938
250620,536346111,641202688,0,-0.36076751351356506,0.24301274120807648,0,135.44390869140625
250626,535297535,641203712,0,-0.36126551032066345,0.24279054999351501,0,135.44273376464844
250630,536346111,641203712,0,-0.3613908290863037,0.2429874986410141,0,135.4422607421875
250642,535297535,641203711,0,-0.36152100563049316,0.24339249730110168,0,135.43954467773438
250646,535297535,641202687,0,-0.36185893416404724,0.24374748766422272,0,135.4382781982422
250648,535297535,641202687,0,-0.36185893416404724,0.24374748766422272,0,135.4382781982422
250652,535297535,641202688,0,-0.362193763256073,0.2437371164560318,0,135.43731689453125
250656,536346111,641202688,0,-0.36267533898353577,0.24380213022232056,0,135.43679809570312
250660,535297535,641202688,0,-0.362937867641449,0.2437431812286377,0,135.4362335205078
250666,535297535,641202688,0,-0.3634006679058075,0.24395312368869781,0,135.434814453125
250670,535297535,641202688,0,-0.3631885349750519,0.24401065707206726,0,135.43386840820312
250674,535297535,641202688,0,-0.3631120026111603,0.24369190633296967,0,135.4328155517578
250678,535297535,641202688,0,-0.36318349838256836,0.2434573769569397,0,135.43165588378906
250682,535297535,641202688,0,-0.36328181624412537,0.24347622692584991,0,135.43057250976562
250686,536346111,641202688,0,-0.3634118437767029,0.2438056319952011,0,135.4302215576172
250690,535297535,641202688,0,-0.36338862776756287,0.24391432106494904,0,135.42971801757812
250702,535297535,641202688,0,-0.36348921060562134,0.24341139197349548,0,135.42648315429688
250706,536346111,641202688,0,-0.3633819818496704,0.24365860223770142,0,135.42591857910156
250708,535297535,641202688,0,-0.3633819818496704,0.24365860223770142,0,135.42591857910156
250712,535297535,641202688,0,-0.363261878490448,0.24399451911449432,0,135.42514038085938
250716,535297535,641202688,0,-0.3630725145339966,0.24403278529644012,0,135.4243927001953
250720,535297535,641202688,0,-0.3630106449127197,0.24376438558101654,0,135.4235382080078
250724,535297535,641202688,0,-0.3631722033023834,0.24361173808574677,0,135.42282104492188
250728,535297535,641202688,0,-0.3630695044994354,0.2437133491039276,0,135.42210388183594
250732,535297535,641202687,0,-0.3629964292049408,0.2438780665397644,0,135.4215087890625
250736,536346111,640154111,0,-0.3626689612865448,0.24393883347511292,0,135.42083740234375
250740,535297535,640154111,0,-0.36220765113830566,0.24393513798713684,0,135.42034912109375
250744,535297535,641202688,0,-0.36218124628067017,0.2437131553888321,0,135.41969299316406
250748,535297535,641202688,0,-0.36257651448249817,0.2434910535812378,0,135.4187469482422
250752,535297535,641202688,0,-0.3627714514732361,0.24315142631530762,0,135.41773986816406
250756,535297535,641202688,0,-0.3629949390888214,0.24274924397468567,0,135.41677856445312
250760,535297535,641202688,0,-0.3629291355609894,0.24223937094211578,0,135.41561889648438
250762,535297535,641202688,0,-0.36274591088294983,0.24228675663471222,0,135.41439819335938
250766,535297535,641202688,0,-0.36267051100730896,0.24269774556159973,0,135.413330078125
250770,535297535,641202688,0,-0.36262962222099304,0.24331700801849365,0,135.4123992919922
250772,535297535,641202688,0,-0.36262962222099304,0.24331700801849365,0,135.4123992919922
250776,535297535,641202688,0,-0.3627226948738098,0.2428750842809677,0,135.41183471679688
250782,535297535,641202688,0,-0.36313799023628235,0.24284513294696808,0,135.41004943847656
250786,535297535,641202688,0,-0.36338964104652405,0.24237747490406036,0,135.40928649902344
250790,535297535,641202688,0,-0.36371493339538574,0.2418283075094223,0,135.4084930419922
250800,535297535,641202688,0,-0.3641960620880127,0.24241593480110168,0,135.40670776367188
250804,535297535,641203712,0,-0.36399224400520325,0.2422415316104889,0,135.4059600830078
250810,535297535,641203712,0,-0.36378929018974304,0.2411760538816452,0,135.4044952392578
250814,535297535,641203712,0,-0.36384299397468567,0.2412807196378708,0,135.40359497070312
250820,536346111,641202688,0,-0.36391058564186096,0.2413244992494583,0,135.4029541015625
250824,536346111,641202688,0,-0.364022433757782,0.24135220050811768,0,135.40257263183594
250830,536346111,641202688,0,-0.36387088894844055,0.2415824681520462,0,135.4019317626953
