Timestamp,compactImu.a_xyz,compactImu.l_xyz,motorCompact.pwms,stabilizer.pitch,stabilizer.roll,stabilizer.thrust,stabilizer.yaw
129681,536346111,641203711,0,-0.307953954,0.18364656,0,14.40745354
129691,536346111,641203711,0,-0.307147473,0.184048086,0,14.40668106
129701,536346111,641203711,0,-0.306528389,0.183432385,0,14.40573311
129711,536346111,641203711,0,-0.306293517,0.182731047,0,14.40633583
129721,536346111,641203711,0,-0.305669069,0.182312265,0,14.40562916
129731,536346111,641203711,0,-0.304701328,0.182470724,0,14.40601444
129741,536346111,641203711,0,-0.303627849,0.182239756,0,14.40586185
129751,536346111,641203711,0,-0.303546727,0.182225913,0,14.40570164
129761,536346111,641203711,0,-0.303758919,0.182015151,0,14.40709591
129771,536346111,641203711,0,-0.303625494,0.182510719,0,14.40675163
129781,536346111,641203711,0,-0.304765791,0.183879495,0,14.40668488
129791,536346111,641203711,0,-0.305165589,0.184942111,0,14.40654087
129801,536346111,641203711,0,-0.30465129,0.186298281,0,14.4060297
129811,536346111,641203711,0,-0.305124074,0.188438579,0,14.4064312
129821,536346111,641202687,0,-0.306370616,0.190655366,0,14.40553188
129831,536346111,642251263,0,-0.306624264,0.191691592,0,14.40548801
129841,536346111,642252287,0,-0.307877988,0.19250758,0,14.40570068
129851,536346111,642252287,0,-0.308973759,0.194005832,0,14.40542793
129861,536346111,641202687,0,-0.309579164,0.195227355,0,14.40635204
129871,536346111,641203711,0,-0.310275078,0.196144998,0,14.40614223
129881,536346111,640155135,0,-0.311048865,0.198327988,0,14.406003
129891,536346111,640155135,0,-0.311880112,0.200915337,0,14.40525627
129901,536346111,640155135,0,-0.313245952,0.203842625,0,14.40568733
129911,536346111,641203711,0,-0.314208388,0.205049485,0,14.40515995
129921,536346111,641203711,0,-0.315119356,0.205585137,0,14.40373039
129931,536346111,641203711,0,-0.315369904,0.206140339,0,14.40382576
129941,536346111,641203711,0,-0.315278947,0.206070155,0,14.40277863
129951,536346111,641203711,0,-0.314925343,0.205975994,0,14.40289211
129961,536346111,640155135,0,-0.315322667,0.207404912,0,14.40365887
129971,536346111,640155135,0,-0.315171868,0.208154157,0,14.40433598
129981,536346111,640155135,0,-0.315032512,0.207985669,0,14.40495205
129991,536346111,641203711,0,-0.315062374,0.207280278,0,14.40518379
130001,536346111,641203711,0,-0.31502822,0.206116438,0,14.40505791
130011,536346111,641203711,0,-0.315335721,0.205797315,0,14.40538979
130021,536346111,642252287,0,-0.314834267,0.205871537,0,14.4046917
130031,536346111,641203711,0,-0.314131051,0.206299186,0,14.40368843
130041,536346111,641203711,0,-0.313193321,0.205894113,0,14.40504074
130051,536346111,641203711,0,-0.313050866,0.205699429,0,14.40480042
130061,536346111,641203711,0,-0.313017309,0.205319762,0,14.4044981
130071,536346111,641203711,0,-0.311974168,0.205763295,0,14.40441895
130081,536346111,641203711,0,-0.311380446,0.206305057,0,14.40407085
130091,536346111,641203711,0,-0.310874581,0.206591591,0,14.40468025
130101,536346111,642252287,0,-0.311091453,0.206169546,0,14.40382576
130111,536346111,642251263,0,-0.310842603,0.206223235,0,14.40365696
130121,536346111,641203711,0,-0.31050086,0.206297696,0,14.4031992
130131,535297535,641203711,0,-0.310577631,0.206190586,0,14.40249348
130141,536346111,641203711,0,-0.310200453,0.206865877,0,14.40129089
130151,536346111,640155135,0,-0.310594738,0.207257405,0,14.40015697
130161,536346111,640155135,0,-0.310963005,0.206665322,0,14.39959717
130171,536346111,641203711,0,-0.311170608,0.20643729,0,14.3999548
130181,536346111,641203711,0,-0.310769618,0.206022367,0,14.40025425
130191,536346111,642252287,0,-0.310459971,0.205585524,0,14.39989281
130201,536346111,642252287,0,-0.309441864,0.204663441,0,14.40029526
130211,536346111,642252287,0,-0.30900079,0.203957409,0,14.40015125
130221,536346111,641203711,0,-0.307858497,0.203931198,0,14.39944649
130231,536346111,641203711,0,-0.307406127,0.204332709,0,14.39965343
130241,536346111,641203711,0,-0.306192368,0.2040696,0,14.39865971
130251,536346111,641203711,0,-0.305801153,0.203503221,0,14.39791679
130261,536346111,641203711,0,-0.305973411,0.202851355,0,14.39842224
130271,536346111,641203711,0,-0.306754351,0.202566087,0,14.39809322
130281,536346111,641203711,0,-0.307043552,0.202356383,0,14.39785385
130291,536346111,641203711,0,-0.306735903,0.202461883,0,14.39720154
130301,536346111,641203711,0,-0.307401061,0.202829286,0,14.39859486
130311,536346111,641203711,0,-0.307642162,0.202380851,0,14.3988924
130321,536346111,641203711,0,-0.307016224,0.201959506,0,14.39968491
130331,535297535,641203711,0,-0.3064937,0.201742321,0,14.39943695
130341,536346111,641203711,0,-0.305398762,0.202322915,0,14.39842224
130351,535297535,641203711,0,-0.305455238,0.202275872,0,14.39778614
130361,536346111,641203711,0,-0.305406898,0.203340381,0,14.39725685
130371,536346111,641203711,0,-0.304861158,0.202782214,0,14.39672565
130381,536346111,641203711,0,-0.30441463,0.201416388,0,14.39663124
130391,536346111,641203711,0,-0.304502696,0.201101333,0,14.39689255
130401,536346111,641203711,0,-0.305244058,0.201471165,0,14.39722347
130411,536346111,641203711,0,-0.305200875,0.202239886,0,14.3967905
130421,536346111,641203711,0,-0.305189341,0.201587975,0,14.39659309
130431,536346111,641203711,0,-0.304997027,0.201255977,0,14.39657116
130441,536346111,641203711,0,-0.304342389,0.201120302,0,14.39505386
130451,536346111,641203711,0,-0.304313838,0.201825202,0,14.39552593
130461,536346111,641203711,0,-0.304414272,0.202464238,0,14.39545441
130471,536346111,640155135,0,-0.303624541,0.202203944,0,14.39577389
130481,536346111,640155135,0,-0.301881671,0.198805347,0,14.39674473
130491,536346111,640154111,0,-0.301244646,0.195956394,0,14.39720058
130501,536346111,642252287,0,-0.301444471,0.193660945,0,14.39663506
130511,536346111,643300864,0,-0.301432073,0.19384712,0,14.39606667
130521,536346111,643300864,0,-0.301352203,0.196253553,0,14.3958025
130531,536346111,643300863,0,-0.300745636,0.197543904,0,14.39470863
130541,536346111,642251263,0,-0.2997998,0.198614419,0,14.39437389
130551,536346111,641202687,0,-0.299563706,0.198550269,0,14.39402866
130561,536346111,639106559,0,-0.299823731,0.200890586,0,14.39289856
130571,536346111,638057983,0,-0.30043149,0.202470288,0,14.39278793
130581,536346111,639106559,0,-0.302304327,0.20401831,0,14.39241123
130591,536346111,640155135,0,-0.302997172,0.204152301,0,14.39219284
130601,536346111,642252287,0,-0.303085774,0.203849837,0,14.39307785
130611,536346111,643299840,0,-0.302773237,0.203321025,0,14.3930912
130621,536346111,643299840,0,-0.301168114,0.201738238,0,14.39189148
130631,536346111,642251263,0,-0.299741775,0.200876638,0,14.39064884
130641,536346111,641203711,0,-0.299325109,0.200243682,0,14.39091396
130651,536346111,640155135,0,-0.299742013,0.200125203,0,14.3904562
130661,536346111,639106559,0,-0.299769044,0.201125219,0,14.39058495
130671,536346111,639106559,0,-0.300605863,0.200550139,0,14.39059734
130681,536346111,640155135,0,-0.300466716,0.19957532,0,14.39022064
130691,536346111,642252287,0,-0.29997316,0.198600933,0,14.38974285
130701,536346111,643299839,0,-0.298466116,0.197448835,0,14.38891315
130711,536346111,643299839,0,-0.29772073,0.195961863,0,14.38909531
130721,536346111,642252287,0,-0.295447022,0.195987076,0,14.38900089
130731,536346111,641203711,0,-0.294774354,0.196094573,0,14.38864326
130741,535297535,640155135,0,-0.295476526,0.196255714,0,14.38822937
130751,536346111,640155135,0,-0.29531619,0.196300387,0,14.38723755
130761,536346111,639106559,0,-0.295954853,0.197002009,0,14.38814354
130771,536346111,640155135,0,-0.295825213,0.19702585,0,14.38736629
130781,536346111,641203711,0,-0.295973182,0.195087165,0,14.38713646
130791,536346111,642251263,0,-0.295113087,0.193597645,0,14.38665199
130801,536346111,642251263,0,-0.293572277,0.19258742,0,14.38663197
130811,536346111,642251263,0,-0.292673022,0.191801935,0,14.38657093
130821,536346111,641203711,0,-0.29204464,0.191591501,0,14.38562965
130831,536346111,641203711,0,-0.292129487,0.191063151,0,14.38540268
130841,536346111,640155135,0,-0.29243955,0.191729754,0,14.3849535
130851,536346111,640155135,0,-0.292325854,0.192406476,0,14.38362503
130861,536346111,640155135,0,-0.291655838,0.19266893,0,14.3821888
130871,536346111,641203711,0,-0.291933298,0.191339925,0,14.38236141
130881,536346111,642251263,0,-0.291920364,0.189946324,0,14.38256645
130891,536346111,642252287,0,-0.290474266,0.189378574,0,14.38206959
130901,536346111,642252287,0,-0.290292799,0.190380394,0,14.38167953
130911,536346111,641203711,0,-0.290009081,0.190309539,0,14.38182354
130921,536346111,641203711,0,-0.289175928,0.191070721,0,14.38237476
130931,536346111,640155135,0,-0.288623095,0.192474738,0,14.3817091
130941,536346111,640155135,0,-0.288942337,0.193298966,0,14.38148689
130951,536346111,640155135,0,-0.288666487,0.19377847,0,14.38115025
130961,536346111,641203711,0,-0.288454622,0.193845659,0,14.38126469
130971,536346111,641203711,0,-0.287449569,0.193596825,0,14.38169289
130981,536346111,642252287,0,-0.287099719,0.193133324,0,14.38111973
130991,536346111,641203711,0,-0.286837786,0.19261831,0,14.38129139
131001,536346111,641203711,0,-0.287522852,0.191931352,0,14.38194847
131011,536346111,641203711,0,-0.287431508,0.192414492,0,14.38139439
131021,536346111,641203711,0,-0.286561936,0.19230938,0,14.38161659
131031,536346111,641203711,0,-0.286255777,0.192975163,0,14.38159275
131041,536346111,641203711,0,-0.286277652,0.193672135,0,14.38101959
131051,536346111,641202687,0,-0.285941333,0.193077609,0,14.38080215
131061,536346111,641203711,0,-0.285418481,0.192184538,0,14.38109589
131071,536346111,641203711,0,-0.285868168,0.192148283,0,14.38135719
131081,536346111,641203711,0,-0.286208808,0.191243693,0,14.38194752
131091,536346111,641203711,0,-0.286212683,0.191761479,0,14.38153267
131101,536346111,640155135,0,-0.285424411,0.192135662,0,14.38238621
131111,536346111,640155135,0,-0.285389811,0.192269161,0,14.38186932
131121,536346111,641203711,0,-0.285757244,0.193064928,0,14.38089752
131131,536346111,641203711,0,-0.285459787,0.193850502,0,14.38113308
131141,536346111,641203711,0,-0.285129517,0.193479523,0,14.38154411
131151,536346111,641202687,0,-0.284686804,0.193332821,0,14.38162422
131161,536346111,642251263,0,-0.284330368,0.192962497,0,14.38104439
131171,536346111,641203711,0,-0.283988625,0.193148434,0,14.38217449
131181,536346111,641203711,0,-0.28373462,0.192370906,0,14.38280296
131191,536346111,641203711,0,-0.283746958,0.192803219,0,14.38177109
131201,536346111,640155135,0,-0.283966929,0.193778306,0,14.38217068
131211,536346111,640155135,0,-0.283790261,0.193589881,0,14.38264561
131221,536346111,641203711,0,-0.284349442,0.19366318,0,14.38145256
131231,536346111,641202687,0,-0.284746557,0.192949936,0,14.38036728
131241,536346111,641203711,0,-0.284790635,0.192346051,0,14.38037109
131251,536346111,642251263,0,-0.284253955,0.191431642,0,14.38020706
131261,536346111,642252287,0,-0.28386122,0.189912021,0,14.37937164
131271,536346111,641203711,0,-0.283584774,0.189835727,0,14.37940693
131281,536346111,641203711,0,-0.283818245,0.190089241,0,14.37889576
131291,536346111,641203711,0,-0.283466399,0.191238701,0,14.37853909
131301,536346111,640155135,0,-0.283169478,0.191090703,0,14.37718391
131311,535297535,641203711,0,-0.282792687,0.190241084,0,14.37694168
131321,536346111,641203711,0,-0.282292366,0.189224318,0,14.37552452
131331,536346111,641203711,0,-0.281632721,0.188638613,0,14.37589264
131341,536346111,641203711,0,-0.280571878,0.188270137,0,14.37559319
131351,536346111,641203711,0,-0.281358749,0.188670874,0,14.37546158
131361,536346111,641203711,0,-0.280897588,0.189193517,0,14.37560844
131371,536346111,641203711,0,-0.280595124,0.188714117,0,14.37552452
131381,535297535,641203711,0,-0.280813307,0.189034536,0,14.3745594
131391,536346111,640155135,0,-0.281386495,0.188446969,0,14.37318897
131401,536346111,641203711,0,-0.281780958,0.188455865,0,14.37308884
131411,536346111,641203711,0,-0.282167047,0.187436089,0,14.37360954
131421,536346111,641203711,0,-0.281649351,0.18772085,0,14.37395096
131431,536346111,641203711,0,-0.281445175,0.187717021,0,14.3736515
131441,536346111,641202687,0,-0.281974524,0.1868705,0,14.37397766
131451,536346111,641203711,0,-0.281910002,0.187177122,0,14.37410545
131461,536346111,641203711,0,-0.283151984,0.187696934,0,14.37401199
131471,536346111,641203711,0,-0.284066886,0.187582508,0,14.37376499
131481,536346111,641203711,0,-0.284890085,0.187622979,0,14.37439156
131491,536346111,641203711,0,-0.284887135,0.187692955,0,14.37487411
131501,536346111,641203711,0,-0.284449577,0.188281059,0,14.37490845
131511,536346111,641203711,0,-0.284170985,0.188349038,0,14.37530041
131521,536346111,641203711,0,-0.284171849,0.188353941,0,14.37548351
131531,536346111,641203711,0,-0.28442809,0.188015044,0,14.37504673
131541,536346111,641203711,0,-0.284369856,0.187110081,0,14.37510109
131551,536346111,641203711,0,-0.284798741,0.186874509,0,14.37596416
131561,536346111,641203711,0,-0.285277039,0.186086863,0,14.37604713
131571,536346111,641203711,0,-0.285620362,0.185808331,0,14.37631989
131581,536346111,641203711,0,-0.285344809,0.187675089,0,14.37711525
131591,536346111,641203711,0,-0.284791619,0.188463867,0,14.37768269
131601,536346111,641203711,0,-0.28505677,0.188567474,0,14.37780476
131611,536346111,641203711,0,-0.284943521,0.188116267,0,14.37786388
131621,536346111,642252287,0,-0.285131127,0.188252017,0,14.37734699
131631,536346111,641203711,0,-0.285687685,0.188567549,0,14.37710953
131641,535297535,641203711,0,-0.285296261,0.188560516,0,14.37566471
131651,536346111,641203711,0,-0.284665465,0.188698217,0,14.37512779
131661,536346111,641203711,0,-0.284382135,0.188388243,0,14.374897
131671,536346111,641203711,0,-0.284938514,0.188449815,0,14.37455177
131681,536346111,641203711,0,-0.285304487,0.189234614,0,14.37450123
131691,536346111,641203711,0,-0.284732461,0.189368352,0,14.37481594
131701,536346111,641203711,0,-0.284373015,0.188325256,0,14.37538624
131711,536346111,641203711,0,-0.283831686,0.188582063,0,14.37543488
131721,536346111,641203711,0,-0.282125652,0.188221201,0,14.37560272
131731,536346111,641203711,0,-0.281132638,0.188527673,0,14.37602234
131741,536346111,641203711,0,-0.281352758,0.188448578,0,14.37617493
131751,536346111,641203711,0,-0.281046391,0.188068345,0,14.37640381
131761,536346111,641203711,0,-0.280721873,0.187744647,0,14.37664604
131771,536346111,641203711,0,-0.281134397,0.188591629,0,14.37661552
131781,536346111,641203711,0,-0.281531751,0.187804431,0,14.3768158
131791,536346111,641203711,0,-0.282101274,0.18824245,0,14.37778187
131801,536346111,641203711,0,-0.281818211,0.187514156,0,14.3767662
131811,536346111,641203711,0,-0.281782269,0.186696455,0,14.37691784
131821,536346111,641203711,0,-0.280797273,0.188463539,0,14.37662601
131831,536346111,641203711,0,-0.280336291,0.189652741,0,14.37571907
131841,536346111,641203711,0,-0.279432625,0.189685851,0,14.37516212
131851,536346111,641203711,0,-0.279368281,0.189269513,0,14.37468815
131861,535297535,641203711,0,-0.279868126,0.189757064,0,14.37299633
131871,536346111,641203711,0,-0.279908508,0.190264046,0,14.3719492
131881,536346111,641203711,0,-0.280474335,0.190918505,0,14.37082195
131891,536346111,641203711,0,-0.281025082,0.191329286,0,14.37073612
131901,536346111,641203711,0,-0.280664951,0.190888226,0,14.3710556
131911,536346111,641203711,0,-0.27998355,0.190124974,0,14.37188053
131921,535297535,641203711,0,-0.279132932,0.189069688,0,14.3711586
131931,536346111,641203711,0,-0.279266745,0.189292088,0,14.37056541
131941,536346111,641203711,0,-0.278471619,0.188880011,0,14.37016678
131951,536346111,641203711,0,-0.278494,0.189531326,0,14.37020111
131961,536346111,641203711,0,-0.278086811,0.188922271,0,14.3697958
131971,536346111,641203711,0,-0.277314693,0.188425422,0,14.369524
131981,536346111,641203711,0,-0.27736032,0.188343853,0,14.3700161
131991,536346111,641203711,0,-0.277015358,0.187652424,0,14.36970711
132001,536346111,641203711,0,-0.276269168,0.186739415,0,14.36954212
132011,536346111,641203711,0,-0.275750756,0.186160684,0,14.36926079
132021,536346111,641203711,0,-0.275701642,0.187043697,0,14.36929607
132031,536346111,641203711,0,-0.275198072,0.187472388,0,14.36891365
132041,536346111,641203711,0,-0.275225431,0.188603863,0,14.36896896
132051,536346111,641203711,0,-0.275405586,0.189088836,0,14.36876011
132061,536346111,641203711,0,-0.275854528,0.188154459,0,14.36911201
132071,536346111,641203711,0,-0.275862724,0.188083649,0,14.36962318
132081,536346111,641203711,0,-0.275172353,0.187660202,0,14.36921692
132091,536346111,641203711,0,-0.275093675,0.188256606,0,14.36888027
132101,536346111,641202687,0,-0.274801373,0.188228533,0,14.36959553
132111,536346111,641202687,0,-0.274482995,0.187452525,0,14.36979389
132121,536346111,641203711,0,-0.273779958,0.185815275,0,14.36977196
132131,536346111,641203711,0,-0.273717821,0.185017347,0,14.3696146
132141,536346111,641203711,0,-0.273361385,0.184247062,0,14.36983395
132151,536346111,641203711,0,-0.273713112,0.185066253,0,14.37022209
132161,536346111,641203711,0,-0.273874283,0.186178863,0,14.36976433
132171,535297535,641203711,0,-0.273242533,0.186656311,0,14.3690691
132181,536346111,641203711,0,-0.273364604,0.187306359,0,14.36809921
132191,536346111,641203711,0,-0.273275495,0.18692854,0,14.36804771
132201,536346111,641203711,0,-0.273052067,0.187078699,0,14.3678093
132211,536346111,641203711,0,-0.273178995,0.187248036,0,14.36725044
132221,536346111,641203711,0,-0.272168607,0.187248081,0,14.36690521
132231,536346111,641203711,0,-0.271461546,0.187529311,0,14.36656857
132241,536346111,641203711,0,-0.271542042,0.188513011,0,14.36681747
132251,536346111,641203711,0,-0.271100372,0.18847914,0,14.36626244
132261,536346111,641203711,0,-0.270883113,0.189192727,0,14.36571121
132271,535297535,641203711,0,-0.270638853,0.189701438,0,14.36566639
132281,536346111,641203711,0,-0.270459443,0.190350801,0,14.3644371
132291,535297535,641203711,0,-0.27038604,0.189309999,0,14.36464024
132301,535297535,641203711,0,-0.270330399,0.188580006,0,14.36342812
132311,536346111,641203711,0,-0.269963592,0.188686565,0,14.36241913
132321,536346111,641203711,0,-0.268907696,0.189817533,0,14.36077309
132331,536346111,641203711,0,-0.269675434,0.190303519,0,14.36088943
132341,536346111,641203711,0,-0.270525753,0.189276129,0,14.36113453
132351,536346111,641203711,0,-0.270304382,0.189216748,0,14.36063957
132361,536346111,641203711,0,-0.270039797,0.189570963,0,14.35988235
132371,536346111,641203711,0,-0.270067543,0.189014405,0,14.36056137
132381,536346111,641203711,0,-0.270585477,0.188891724,0,14.36023617
132391,536346111,641203711,0,-0.270160913,0.188630328,0,14.35931969
132401,536346111,641203711,0,-0.269669414,0.188765794,0,14.35937691
132411,536346111,641203711,0,-0.26975137,0.18791914,0,14.3601532
132421,536346111,641203711,0,-0.270378679,0.187983304,0,14.3601532
132431,536346111,641203711,0,-0.270218611,0.187884822,0,14.36051559
132441,536346111,641203711,0,-0.270635813,0.187352598,0,14.35954189
132451,536346111,641203711,0,-0.270424455,0.187057987,0,14.35912418
132461,536346111,641203711,0,-0.270584434,0.186392576,0,14.35929394
132471,536346111,641203711,0,-0.271125197,0.185895965,0,14.35955048
132481,536346111,641203711,0,-0.27054739,0.185763985,0,14.35898685
132491,536346111,641203711,0,-0.269922644,0.184791327,0,14.35901546
132501,536346111,641203711,0,-0.269717306,0.185611755,0,14.35890198
132511,536346111,641203711,0,-0.269292563,0.185106248,0,14.35832405
132521,536346111,641203711,0,-0.270215422,0.184484869,0,14.35925007
132531,536346111,641203711,0,-0.270232052,0.184318706,0,14.35936832
132541,536346111,641203711,0,-0.270433843,0.184396282,0,14.3592186
132551,536346111,641203711,0,-0.270473063,0.184533626,0,14.35938644
132561,536346111,641203711,0,-0.269982487,0.184244826,0,14.35967064
132571,536346111,641203711,0,-0.269448787,0.185124159,0,14.3599081
132581,536346111,641203711,0,-0.268914312,0.185172498,0,14.36004543
132591,536346111,641203711,0,-0.268348515,0.185138494,0,14.36003304
132601,536346111,641203711,0,-0.268224865,0.185942888,0,14.36017895
132611,536346111,641203711,0,-0.268534243,0.185136557,0,14.36063004
132621,536346111,641202687,0,-0.267692477,0.184517354,0,14.36054707
132631,536346111,641203711,0,-0.267526746,0.184235692,0,14.36098671
132641,536346111,641203711,0,-0.267902672,0.182908401,0,14.36128902
132651,536346111,641203711,0,-0.268531114,0.182684287,0,14.36173534
132661,536346111,641203711,0,-0.267390579,0.182061583,0,14.36201286
132671,536346111,641203711,0,-0.267236739,0.181790397,0,14.3614378
132681,536346111,641203711,0,-0.267662168,0.182744667,0,14.36123466
132691,536346111,641203711,0,-0.268768907,0.182222724,0,14.36144066
132701,536346111,641203711,0,-0.268607676,0.181958169,0,14.36155987
132711,536346111,641203711,0,-0.268522799,0.181600109,0,14.36126995
132721,536346111,641203711,0,-0.268946946,0.181440577,0,14.36202431
132731,536346111,641203711,0,-0.269204408,0.1815992,0,14.36162663
132741,536346111,641203711,0,-0.269867063,0.182478592,0,14.36101341
132751,536346111,641203711,0,-0.269730359,0.182402506,0,14.36131477
132761,536346111,641203711,0,-0.269397378,0.182008341,0,14.36127281
132771,536346111,641203711,0,-0.268912077,0.18241483,0,14.36155987
132781,536346111,641203711,0,-0.269169152,0.182244614,0,14.36195469
132791,536346111,641203711,0,-0.268735826,0.181692481,0,14.36207581
132801,536346111,641203711,0,-0.269212782,0.18183656,0,14.36251736
132811,536346111,641203711,0,-0.269567192,0.181714103,0,14.36233711
132821,536346111,641203711,0,-0.26805979,0.182115227,0,14.36255455
132831,536346111,641203711,0,-0.268087953,0.181804001,0,14.3627367
132841,536346111,641203711,0,-0.26832971,0.182103425,0,14.36314106
132851,536346111,641203711,0,-0.268071264,0.183164567,0,14.36349201
132861,536346111,641203711,0,-0.26859352,0.183357492,0,14.36246777
132871,535297535,641203711,0,-0.269204557,0.183501676,0,14.36220551
132881,536346111,641203711,0,-0.269057393,0.184037969,0,14.36115456
132891,536346111,641203711,0,-0.268834919,0.184516013,0,14.36110878
132901,536346111,641203711,0,-0.268471479,0.184995264,0,14.36108208
132911,536346111,641203711,0,-0.268266648,0.185284033,0,14.36091518
132921,536346111,641203711,0,-0.266925842,0.185352564,0,14.36143303
132931,536346111,641203711,0,-0.266202569,0.185710564,0,14.36116409
132941,536346111,641203711,0,-0.265850335,0.185796589,0,14.35963345
132951,536346111,641203711,0,-0.266480416,0.185889363,0,14.3589201
132961,536346111,641203711,0,-0.266473323,0.186659157,0,14.35791779
132971,536346111,641203711,0,-0.266082048,0.187282056,0,14.35731316
132981,536346111,641203711,0,-0.266598374,0.188116655,0,14.35754871
132991,536346111,641203711,0,-0.265824169,0.188098654,0,14.3578186
133001,536346111,641203711,0,-0.266220003,0.188471988,0,14.35760021
133011,536346111,641203711,0,-0.267018497,0.189047143,0,14.35743809
133021,536346111,641203711,0,-0.267378122,0.188976511,0,14.35726261
133031,536346111,641203711,0,-0.267335594,0.188882619,0,14.35744381
133041,536346111,641203711,0,-0.268101186,0.189263657,0,14.35877132
133051,536346111,641202687,0,-0.268266648,0.189085439,0,14.359272
133061,536346111,641203711,0,-0.26721859,0.188772798,0,14.35964203
133071,536346111,641203711,0,-0.266530067,0.188478366,0,14.35974789
133081,535297535,641203711,0,-0.266552866,0.18865633,0,14.35810852
133091,536346111,641203711,0,-0.266879529,0.188918605,0,14.35885048
133101,536346111,641203711,0,-0.267061591,0.188639134,0,14.35897446
133111,536346111,641203711,0,-0.267446309,0.187642917,0,14.35894871
133121,536346111,641203711,0,-0.266719967,0.187116593,0,14.35910416
133131,536346111,641203711,0,-0.266238213,0.186865702,0,14.35878181
133141,536346111,641203711,0,-0.265747368,0.187305406,0,14.35827732
133151,536346111,641203711,0,-0.265720993,0.188059136,0,14.35811138
133161,536346111,641203711,0,-0.265673131,0.188744858,0,14.35885525
133171,536346111,641203711,0,-0.26586923,0.18936947,0,14.35828972
133181,536346111,641203711,0,-0.266159862,0.189605862,0,14.35754395
133191,536346111,641203711,0,-0.266142249,0.189588636,0,14.35758591
133201,536346111,641203711,0,-0.266558707,0.189775705,0,14.35713005
133211,536346111,641203711,0,-0.266536355,0.189521864,0,14.35720444
133221,536346111,641202687,0,-0.265360385,0.188832015,0,14.35700417
133231,536346111,641203711,0,-0.265468866,0.189131141,0,14.35641098
133241,536346111,641203711,0,-0.265295058,0.190010488,0,14.3554554
133251,536346111,641203711,0,-0.265733898,0.190062717,0,14.35630226
133261,536346111,641203711,0,-0.266281158,0.191151515,0,14.35618305
133271,536346111,641203711,0,-0.265809089,0.190706402,0,14.35669041
133281,536346111,641203711,0,-0.265470952,0.189323127,0,14.35746479
133291,535297535,641203711,0,-0.265106946,0.189379096,0,14.35630608
133301,536346111,641203711,0,-0.265362173,0.190397412,0,14.3547287
133311,536346111,641203711,0,-0.265797466,0.190977454,0,14.35429192
133321,536346111,641203711,0,-0.266584814,0.19108808,0,14.35402393
133331,536346111,641203711,0,-0.266588956,0.190862209,0,14.35345554
133341,536346111,641203711,0,-0.266902685,0.189877361,0,14.35292149
133351,536346111,641203711,0,-0.267306685,0.189743623,0,14.35318661
133361,535297535,641203711,0,-0.266736001,0.189211011,0,14.35276985
133371,536346111,641203711,0,-0.266315907,0.189610422,0,14.35169792
133381,536346111,641203711,0,-0.26669538,0.188874975,0,14.35090351
133391,536346111,641203711,0,-0.267283499,0.189673349,0,14.3506937
133401,536346111,641203711,0,-0.266839325,0.18992427,0,14.34978104
133411,536346111,641203711,0,-0.267123014,0.191180915,0,14.34949207
133421,536346111,641203711,0,-0.267316401,0.191442624,0,14.34905529
133431,536346111,641203711,0,-0.267344236,0.190481111,0,14.34988594
133441,536346111,641203711,0,-0.266896576,0.190320596,0,14.35004616
133451,535297535,641203711,0,-0.267506897,0.190244704,0,14.34915447
133461,536346111,641203711,0,-0.268057317,0.189633518,0,14.34769249
133471,536346111,641203711,0,-0.268474817,0.190026611,0,14.34671688
133481,536346111,641203711,0,-0.269108772,0.190887332,0,14.3461237
133491,536346111,641203711,0,-0.269862145,0.191252857,0,14.3461237
133501,536346111,641203711,0,-0.270614624,0.191116169,0,14.34595299
133511,536346111,641203711,0,-0.27070263,0.190955356,0,14.34602356
133521,536346111,641202687,0,-0.270249337,0.190510303,0,14.34588814
133531,536346111,641203711,0,-0.27000469,0.19044587,0,14.34519291
133541,535297535,641203711,0,-0.269841403,0.190939471,0,14.34462547
133551,536346111,641203711,0,-0.269969285,0.19008854,0,14.34376144
133561,536346111,641203711,0,-0.269963592,0.189572364,0,14.34390926
133571,536346111,641203711,911562551,-0.270271778,0.18983452,22528,14.34408569
133581,536346111,641203711,1128876355,-0.270881474,0.19004339,22528,14.34272766
133591,536346111,641203711,1229934409,-0.270435899,0.190270245,22528,14.34272766
133601,535297535,641203711,1229868873,-0.270972133,0.191033572,22528,14.34273243
133611,536346111,641202687,1229934153,-0.271809101,0.191371143,22528,14.34291458
133621,536346111,641203711,1213091658,-0.271691024,0.191356182,22528,14.34266186
133631,535297534,641202687,1246776903,-0.272188812,0.191291779,22528,14.34423256
133641,538443264,640154111,1213222218,-0.271779269,0.194134712,22528,14.34724808
133651,535297536,640158206,1196118347,-0.270608544,0.190024436,22528,14.33767509
133661,531103230,641201664,1280135493,-0.270855606,0.193177596,22528,14.33632374
133671,536346111,643300862,1196118093,-0.269180566,0.191781089,22528,14.33380508
133681,536347135,644346366,1212895052,-0.274317741,0.192145243,22528,14.3369112
133691,535298560,641202685,1196249417,-0.277825058,0.191128984,22528,14.3352375
133701,534246912,631765503,1179735108,-0.280422032,0.194634393,22528,14.32730293
133711,535297535,631766528,1246645833,-0.272707969,0.193360522,22528,14.31969261
133721,533202431,645400063,1279938378,-0.276848435,0.195336416,22528,14.30049038
133731,534246910,639106559,1196577347,-0.277798712,0.198404133,22528,14.28788471
133741,532152832,642251262,1246450248,-0.275297374,0.19017157,22528,14.26256466
133751,530053630,640153087,1263620419,-0.276388407,0.1929162,22528,14.23759842
133761,534248960,639105537,1229673033,-0.272307217,0.182574645,22528,14.20030212
133771,534248959,640154111,1230000453,-0.266506225,0.179491863,22528,14.19030094
133781,535295487,641204735,1146246213,-0.271449745,0.184795976,22528,14.18466663
133791,538444286,638054910,1280068169,-0.264130324,0.187480912,50176,14.18456936
133801,538445311,638056959,1196247882,-0.273897618,0.177984118,9216,14.20873928
133811,543685120,643304960,1095847751,-0.269349307,0.186612561,9216,14.23422146
133821,542636542,643300863,1079266115,-0.270216852,0.193925634,61952,14.29374218
133831,539492863,639106560,1179339081,-0.266777813,0.194293693,61952,14.32225513
133841,537395712,639108605,1128680521,-0.274523884,0.192102626,22016,14.33751583
133851,536346111,641204733,1095519043,-0.278433561,0.199996322,49664,14.34846973
133861,542638591,644349437,1061963590,-0.293121248,0.206057012,4096,14.36813164
133871,538444287,648541696,1028279362,-0.301501215,0.198995814,25600,14.39006042
133881,534247936,644349441,1045122108,-0.296785533,0.205072328,48128,14.39177895
133891,536345088,648545795,994921531,-0.289831907,0.213476628,6656,14.38337421
133901,540542460,648546821,1045250877,-0.283905774,0.220580444,29184,14.40430164
133911,544733696,647494147,944457534,-0.278619975,0.218873665,45568,14.43844795
133921,541588991,646443523,927745086,-0.267510712,0.218418464,2560,14.50139332
133931,540540414,643300868,944391227,-0.260331601,0.218269497,23040,14.52917957
133941,541590013,640154112,961167677,-0.267656177,0.204929113,23040,14.5655489
133951,545785342,639106563,0,-0.2671009,0.201193333,0,14.61108208
133961,548926978,644348419,0,-0.248360381,0.213133782,0,14.69919682
133971,548926976,647495169,0,-0.241805062,0.210424259,0,14.77017593
133981,544733694,641203713,0,-0.222890556,0.215489104,0,14.85583305
133991,541588992,634914305,0,-0.211429954,0.209752768,0,14.89050388
134001,542639616,637010430,0,-0.209615365,0.222482368,0,14.94328785
134011,542636543,640157181,0,-0.217859268,0.232867628,0,14.98129749
134021,542636542,643301888,0,-0.218767792,0.235524565,0,15.0359354
134031,540541439,639104513,0,-0.211600795,0.231338382,0,15.06540108
134041,538443263,639105537,0,-0.211092606,0.230838344,0,15.09253311
134051,537393663,644350463,0,-0.217095435,0.235802993,0,15.1025095
134061,537396735,637007360,0,-0.211337239,0.230791837,0,15.11388016
134071,537392639,638056960,0,-0.21196945,0.229153886,0,15.11852837
134081,539492863,643301887,0,-0.210218489,0.231025606,0,15.13558006
134091,538442239,642253309,0,-0.219555944,0.23670727,0,15.15141106
134101,538443263,643301887,0,-0.217111006,0.240794525,0,15.16687489
134111,535297535,641203712,0,-0.221162066,0.239600614,0,15.16900826
134121,532149759,631764480,0,-0.219856068,0.23917529,0,15.15001965
134131,533202431,639105535,0,-0.210823461,0.234412029,0,15.13094521
134141,532150784,649593344,0,-0.22194694,0.231469601,0,15.10335827
134151,532149759,634911232,0,-0.217572257,0.236162722,0,15.0815773
134161,535298557,635958784,0,-0.208753288,0.227391854,0,15.05960369
134171,536348159,646446591,0,-0.211854964,0.223134831,0,15.05827522
134181,536346113,645398014,0,-0.223330274,0.226191834,0,15.06434059
134191,536345087,635958783,0,-0.2239988,0.228964046,0,15.0677042
134201,536345086,634909183,0,-0.219947696,0.22560057,0,15.07194424
134211,537393662,644347390,0,-0.218873098,0.220638171,0,15.07667637
134221,536346110,651688447,0,-0.21701397,0.213700905,0,15.08266735
134231,536346111,650641920,0,-0.217320845,0.213917091,0,15.08729649
134241,535298559,644350464,0,-0.219508901,0.218927875,0,15.08981323
134251,536347136,640156161,0,-0.22035262,0.221466556,0,15.09303188
134261,535298560,639107584,0,-0.220339581,0.228673935,0,15.09259033
134271,535297536,638057984,0,-0.220861092,0.230279744,0,15.09456253
134281,534248960,638057983,0,-0.222147912,0.235330477,0,15.09012413
134291,534248960,638057983,0,-0.222812548,0.235652834,0,15.09051514
134301,534249984,638056959,0,-0.225425974,0.238906369,0,15.08192158
134311,535298560,640154111,0,-0.226502806,0.238848671,0,15.08224392
134321,536347135,641203711,0,-0.229470864,0.240094751,0,15.08038139
134331,536347135,641203711,0,-0.22946991,0.239074558,0,15.08042336
134341,537394687,642252287,0,-0.23253274,0.239824668,0,15.08184624
134351,537394686,642252287,0,-0.234088883,0.239087954,0,15.08032131
134361,537394686,642251264,0,-0.234913707,0.237960041,0,15.08250713
134371,536346111,642250239,0,-0.235439897,0.23813881,0,15.08009434
134381,535297535,641201663,0,-0.234327719,0.233940199,0,15.08146572
134391,535297535,641203711,0,-0.23451598,0.232363299,0,15.08218288
134401,535297536,640157183,0,-0.235104218,0.232859135,0,15.08134365
134411,535297535,641204735,0,-0.235370547,0.232637033,0,15.08181763
134421,536346110,641202688,0,-0.234421864,0.234492719,0,15.08122253
134431,537394687,641201663,0,-0.234940946,0.236307085,0,15.08091927
134441,537394688,641202686,0,-0.234889776,0.233993217,0,15.08370209
134451,534248959,642253310,0,-0.234948516,0.230252504,0,15.08174706
134461,533200382,642252288,0,-0.235517338,0.230845347,0,15.07790184
134471,537394687,641201663,0,-0.237152115,0.234093785,0,15.080863
134481,538443264,641202686,0,-0.237809628,0.234367445,0,15.07886314
134491,534248959,641203711,0,-0.237113237,0.229972392,0,15.07596302
134501,534248958,640154112,0,-0.237937436,0.228891239,0,15.07888699
134511,538443263,640154111,0,-0.237846956,0.228587314,0,15.07418537
134521,537394687,641203710,0,-0.236155108,0.226246193,0,15.07180214
134531,533200382,642252288,0,-0.237964973,0.227354676,0,15.07899952
134541,537394687,641202687,0,-0.239568859,0.228840277,0,15.07890224
134551,538443263,641203710,0,-0.23759456,0.226241872,0,15.07091141
134561,533200382,641203712,0,-0.238213271,0.226298064,0,15.07596684
134571,537394687,641202687,0,-0.239032581,0.2272681,0,15.07944012
134581,537394687,641203710,0,-0.236976802,0.2250873,0,15.07402992
134591,533200383,641203711,0,-0.238033324,0.226192355,0,15.07784081
134601,537394687,641202687,0,-0.239221588,0.227473333,0,15.08003998
134611,536346111,641203711,0,-0.237960637,0.225902632,0,15.07278538
134621,534248959,641203711,0,-0.239085525,0.22507821,0,15.0762043
134631,537394687,641202687,0,-0.238922566,0.227161124,0,15.07481575
134641,535297535,641203711,0,-0.238207623,0.22662501,0,15.07374477
134651,536346111,641202687,0,-0.239141479,0.225786746,0,15.07556915
134661,536346111,641203711,0,-0.239445865,0.226604387,0,15.07205677
134671,535297535,641203711,0,-0.239608794,0.225834429,0,15.07423687
134681,536346111,641202687,0,-0.240557209,0.227537364,0,15.07203197
134691,535297535,641203711,0,-0.240727261,0.226375252,0,15.07291126
134701,536346111,641203711,0,-0.242412135,0.226889595,0,15.07218361
134711,535297535,641203711,0,-0.242298543,0.226573616,0,15.07236481
134721,536346111,641203711,0,-0.243178308,0.226925477,0,15.07188606
134731,535297535,641203711,0,-0.242777884,0.226655796,0,15.07137871
134741,536346111,641202687,0,-0.242812246,0.226377621,0,15.07232189
134751,535297535,641203711,0,-0.242953882,0.225415021,0,15.07122993
134761,536346111,641203711,0,-0.244141236,0.225736171,0,15.0722723
134771,535297535,641203711,0,-0.244210511,0.225631535,0,15.0712862
134781,536346111,641203711,0,-0.245306715,0.226131842,0,15.07232475
134791,535297535,641203711,0,-0.24538964,0.22576192,0,15.07224751
134801,536346111,641203711,0,-0.246090874,0.225231797,0,15.07284927
134811,535297535,641203711,0,-0.245732322,0.224374801,0,15.07239342
134821,536346111,641203711,0,-0.246115342,0.224810675,0,15.07246494
134831,535297535,641203711,0,-0.244545132,0.224196017,0,15.07280254
134841,536346111,641203711,0,-0.245487705,0.225148112,0,15.07230473
134851,535297535,641203711,0,-0.244768232,0.224439308,0,15.07309151
134861,536346111,641203711,0,-0.246211812,0.225121185,0,15.07141018
134871,536346111,640155135,0,-0.246304944,0.224011347,0,15.07299614
134881,536346111,641202687,0,-0.246534765,0.223238006,0,15.07107639
134891,536346111,641203711,0,-0.247308657,0.22240901,0,15.07264709
134901,535297535,641203711,0,-0.246662736,0.222060755,0,15.07373619
134911,536346111,641203711,0,-0.248180151,0.222741261,0,15.07325554
134921,536346111,641203711,0,-0.246603057,0.222433656,0,15.07372189
134931,536346111,641203711,0,-0.24697201,0.222725525,0,15.07284546
134941,536346111,641203711,0,-0.246441185,0.221957147,0,15.0739584
134951,536346111,641203711,0,-0.245708257,0.222889557,0,15.0741024
134961,536346111,641203711,0,-0.246953905,0.222822189,0,15.07386494
134971,536346111,641204735,0,-0.246286765,0.222582191,0,15.07465458
134981,537395710,641206785,0,-0.246790633,0.225214362,0,15.0811758
134991,547880447,641211904,0,-0.245230958,0.229369581,0,15.10581875
135001,556269056,642268672,0,-0.244515896,0.263217956,0,15.23238373
135011,554170880,642269694,0,-0.239541695,0.303276598,0,15.33829403
135021,542637567,640168445,0,-0.245144606,0.345592886,0,15.44496822
135031,532151808,640161277,0,-0.246886283,0.365286022,0,15.45567226
135041,522713599,639103485,0,-0.252267033,0.374991268,0,15.38580036
135051,520616446,640145918,0,-0.254538327,0.357406795,0,15.31103325
135061,523765249,642239999,0,-0.261096716,0.331452399,0,15.19173431
135071,526907902,641191424,0,-0.263115436,0.315132499,0,15.13836288
135081,525859327,641191426,0,-0.254231244,0.277208865,0,15.05548954
135091,530054655,641192450,0,-0.246753588,0.255967677,0,15.0070591
135101,536346110,641197567,0,-0.244693205,0.230684355,0,14.98502827
135111,536346111,641203711,0,-0.24477452,0.226407573,0,14.98534203
135121,536346111,641203711,0,-0.244106427,0.227608219,0,14.9854393
135131,535297535,641202687,0,-0.245253414,0.22880213,0,14.98655319
135141,535297535,641202687,928537401,-0.245488435,0.228976369,38400,14.98523998
135151,536346111,641203711,1179339846,-0.245694816,0.228847608,38400,14.98534203
135161,536346111,641203711,1213091401,-0.246386588,0.22882323,53760,14.98591805
135171,535297535,641202687,1213091656,-0.245256722,0.227732241,53760,14.98584175
135181,537394687,641202687,1213156937,-0.247649908,0.230197534,53760,14.98668766
135191,535297535,641204735,1229737802,-0.245461166,0.226878405,53760,14.98654079
135201,534248959,642251264,1246580297,-0.246679083,0.228216857,53760,14.98944187
135211,537394687,642252286,1229868362,-0.245310292,0.22834982,53760,14.98533916
135221,537395711,643300863,1229933642,-0.248135403,0.230548158,53760,14.98460674
135231,537394688,642253312,1212960331,-0.248735055,0.231089666,53760,14.98187065
135241,537395711,640164351,1145852237,-0.250978112,0.238508865,53760,14.98967457
135251,534249981,638070270,1297107782,-0.257437915,0.255419195,53760,14.99090195
135261,545783296,643305986,1247167562,-0.249451816,0.297124803,53760,15.01720524
135271,547882495,646434306,1263354706,-0.245472774,0.302511305,53760,15.07957268
135281,544731647,636994048,1029197897,-0.238310024,0.259621412,53760,15.16059685
135291,545785343,646442497,1196378191,-0.238199353,0.238539472,53760,15.20823383
135301,547879422,634911230,1096436042,-0.2327075,0.236217529,53760,15.28887463
135311,543686143,645398014,1146309196,-0.243992463,0.23302798,53760,15.35191917
135321,541592057,646447612,1280787271,-0.257830501,0.210600138,53760,15.40107536
135331,540540402,637005308,1230719297,-0.270683676,0.169293478,53760,15.42571735
135341,544733667,645403132,1365654077,-0.282970905,-0.005146139,53760,15.47611904
135351,551025113,646441473,1432630847,-0.279122531,-0.1870628,53760,15.54168987
135361,556266959,650620419,1416964412,-0.254636765,-0.58920908,53760,15.68919182
135371,560467395,648532482,1600791616,-0.242835864,-0.910286367,53760,15.80741215
135381,556273079,651687427,1685656633,-0.269917578,-1.493379116,13312,15.9992609
135391,547874219,650641920,1769675815,-0.248989761,-1.912739754,34304,16.09895325
135401,543680940,650641919,1652170792,-0.215306491,-2.60585928,61952,16.18070984
135411,534236601,639093240,1417557528,-0.184401572,-3.055022955,19456,16.19796562
135421,534218193,634887672,1149322771,-0.032505952,-3.580517054,41472,16.19024277
135431,539448812,635942399,929845036,0.1723288,-3.812882185,41472,16.20245552
135441,552010220,659019267,832258827,0.620097339,-3.983888626,64000,16.31088638
135451,559347175,653780483,932068628,0.976604879,-4.090985775,19968,16.44335365
135461,550945250,661124602,563825165,1.576193452,-4.330058575,40960,16.65158272
135471,532064747,646442495,695948822,2.026094675,-4.476687908,512,16.72383308
135481,523672030,660085241,1034111232,2.794536829,-4.697008133,28160,16.71502876
135491,519480773,645396991,1152008448,3.251711845,-4.925102234,55808,16.67165565
135501,520551870,630708739,1402942464,3.855042696,-5.393649101,15360,16.59567833
135511,536281544,640138755,999505408,4.24417448,-5.767514229,36352,16.59173584
135521,559353289,661108227,666449152,4.701657295,-6.283204556,61952,16.72736931
135531,574043600,653764108,815737603,5.006406307,-6.602014065,45056,16.93387985
135541,576143834,651671059,0,5.369988918,-7.006950855,0,17.30547905
135551,562529776,657967635,0,5.574684143,-7.195367336,0,17.51813126
135561,541555207,648532500,0,5.868607521,-7.270114422,0,17.690979
135571,518485535,657977875,0,6.045361996,-7.152041912,0,17.67432594
135581,504850997,663221777,0,6.381354332,-6.720029354,0,17.5028019
135591,506937943,652730893,0,6.636740208,-6.332212448,0,17.36477852
135601,518481525,655869452,0,6.996653557,-5.448930264,0,17.20828438
135611,531074705,645377557,0,7.18832016,-4.700930119,0,17.1673069
135621,540503714,639095312,0,7.485971451,-3.415622711,0,17.18883133
135631,539434656,651686414,0,7.746955872,-2.505496025,0,17.22905922
135641,528920201,635961875,0,8.345247269,-1.200162768,0,17.23173904
135651,520528484,623381012,0,8.860079765,-0.494371951,0,17.18177795
135661,515301951,620237328,0,9.535013199,0.253252625,0,17.03569794
135671,512187919,622337549,0,9.839587212,0.504926682,0,16.90906906
135681,517426669,633868815,0,10.17691231,0.549222529,0,16.72271729
135691,525801937,645401101,0,10.44389915,0.344466746,0,16.63479805
135701,529983945,642252302,0,10.99597359,-0.064884938,0,16.57259369
135711,531037657,629669391,0,11.31535625,-0.31639719,0,16.5552578
135721,531078623,633859601,0,11.69352436,-0.616153002,0,16.53071785
135731,526876124,649584149,0,11.85236454,-0.771882057,0,16.48869514
135741,514291165,644351507,0,12.05899429,-1.03076458,0,16.37070465
135751,509051366,649595415,0,12.28679752,-1.165019512,0,16.23883629
135761,506927586,648536594,0,12.63306046,-1.336304903,0,16.00858498
135771,503784946,640161295,0,12.93413544,-1.406002283,0,15.84173012
135781,512167407,642251277,0,13.41103745,-1.486570716,0,15.61478329
135791,520561150,645393933,0,13.69722843,-1.505257368,0,15.50695992
135801,530009612,637005326,0,14.11027336,-1.449833035,0,15.43616486
135811,536305176,640150036,0,14.32246113,-1.33392942,0,15.42840385
135821,537373215,633860628,0,14.56788921,-1.086271405,0,15.44554996
135831,533171738,627570200,0,14.70691109,-0.918037713,0,15.44810581
135841,532118031,629664283,0,14.96481609,-0.738325417,0,15.42808151
135851,527927817,627568153,0,15.1655407,-0.661339939,0,15.39819527
135861,522695167,623374874,0,15.35547066,-0.602675021,0,15.30890274
135871,524789233,622324252,0,15.4793148,-0.624068379,0,15.24279499
135881,526850534,624422429,0,15.82469082,-0.773937643,0,15.17060471
135891,527885789,627569181,0,16.17804146,-0.926609933,0,15.13039112
135901,531035605,630710814,0,16.76490784,-1.21892941,0,15.08623028
135911,531039699,631758369,0,17.10490036,-1.461165309,0,15.07421398
135921,526841297,630712868,0,17.65801811,-1.861719489,0,15.03970337
135931,517382611,633858596,0,18.09900665,-2.132633924,0,14.98173141
135941,510041553,633860641,0,18.86435509,-2.481928825,0,14.82454109
135951,512142800,635955743,0,19.3950386,-2.717849731,0,14.70672894
135961,519482827,637002271,0,20.10567284,-3.123239279,0,14.57096291
135971,525771215,637002269,0,20.59397125,-3.376685858,0,14.53172779
135981,532055520,637001245,0,21.34805489,-3.702610016,0,14.52847767
135991,538353135,634904094,0,21.85751152,-3.846726656,0,14.566082
136001,545693173,630708768,0,22.61257935,-3.992798328,0,14.68095493
136011,550936058,624415268,0,23.1131134,-4.08008337,0,14.7937355
136021,556182002,620219944,0,23.85386658,-4.273887634,0,15.02506161
136031,557227486,617074220,0,24.3398056,-4.49104023,0,15.19814396
136041,554083780,614978096,0,25.09388351,-5.022648811,0,15.4421587
136051,545688996,616027698,0,25.60217857,-5.528748512,0,15.57737541
136061,534159755,620222003,0,26.35191345,-6.452343464,0,15.7009325
136071,522642823,625464881,0,26.83022308,-7.102451801,0,15.72017479
136081,514273683,631754286,0,27.37324905,-8.016647339,0,15.63896561
136091,512180651,636995116,0,27.65991402,-8.535327911,0,15.55332851
136101,513220039,638045737,0,28.08381653,-9.102359772,0,15.41386318
136111,518457822,636998182,0,28.3973465,-9.325431824,0,15.33507729
136121,524757489,634900005,681403648,28.8435154,-9.453697205,57856,15.27737713
136131,532110852,631753253,631334400,29.08957672,-9.427287102,8192,15.28060055
136141,540489231,629658150,547906816,29.43603516,-9.343513489,22528,15.35378551
136151,545726994,625464872,480471552,29.69522667,-9.267951965,22528,15.4427681
136161,553074178,622315051,565728256,30.09872246,-9.264060974,22528,15.6451931
136171,556230143,619169328,413688832,30.28397942,-9.334792137,22528,15.81009769
136181,557284855,621266484,364205824,30.52838326,-9.513923645,22528,16.05964851
136191,545737201,623366709,800805376,30.75277901,-9.625275612,22528,16.19690704
136201,534201857,624418344,615342080,31.12004852,-9.718421936,22528,16.30572319
136211,527941135,631756339,463237120,31.2993679,-9.666226387,22528,16.30319405
136221,530039315,626508340,530607360,31.44178391,-9.48477459,22528,16.25177383
136231,536328720,617070133,598238208,31.49780655,-9.369196892,22528,16.24482536
136241,537364995,624415281,632184576,31.71742821,-9.308670044,22528,16.29330444
136251,535271923,626511401,817190912,31.85889626,-9.352718353,22528,16.313591
136261,532163054,621266477,968513280,31.9205265,-9.481677055,38400,16.3052063
136271,532182521,610779692,783376640,31.77749443,-9.525223732,38400,16.24943924
136281,535337482,609729065,698968064,31.48527718,-9.473947525,38400,16.16849899
136291,540584471,608679461,598370304,31.25691986,-9.370065689,38400,16.13882256
136301,546894370,611825190,480798976,30.78679276,-9.13534832,38400,16.13467979
136311,550046252,618114602,379874560,30.41834831,-8.941259384,38400,16.15735626
136321,545844790,623360563,278754562,29.85199356,-8.55125618,38400,16.1822567
136331,535362106,626510393,345667328,29.52684212,-8.230708122,38400,16.16054726
136341,525938235,622322228,428770304,28.97499084,-7.652283192,38400,16.01519203
136351,517585460,623378995,546928896,28.47500801,-7.233807087,38400,15.84368134
136361,509227562,623374894,797411328,27.45150948,-6.628203392,38400,15.47727013
136371,502962726,630721067,781023232,26.60003281,-6.243960857,38400,15.17909718
136381,499838505,635959846,1247903232,25.13226318,-5.648004532,38400,14.67926884
136391,503000638,650636833,711033366,24.03741837,-5.224254131,38400,14.35345078
136401,514546267,652730916,741641522,22.2630558,-4.418135166,65024,13.94078445
136411,525024886,654830117,222794295,21.07675552,-3.772166252,25088,13.75793457
136421,528156305,651684387,37134656,19.3738842,-2.58072567,47104,13.57628632
136431,522917542,634902053,3777087,18.27090454,-1.669418454,7680,13.47829056
136441,514552492,627568164,436703840,16.52772713,-0.172289237,33280,13.30669117
136451,510368423,647502362,487491422,15.27782536,0.833250046,55296,13.18199253
136461,507199141,623379990,185574478,13.40799332,2.292852879,16896,12.99908066
136471,512431783,630723087,1025115,12.26368237,3.246569633,16896,12.9099617
136481,521866895,608694804,470122600,10.62115669,4.584787369,43520,12.86725235
136491,530264688,617091598,455113552,9.489991188,5.286897182,62976,12.91739655
136501,536560209,638069257,639589983,7.733400345,6.092669964,25088,13.06741524
136511,540731956,642263575,556951621,6.618173122,6.459106445,49664,13.20343494
136521,537564706,627579418,539384922,5.178993702,6.786509991,15360,13.41265297
136531,536506901,605563408,0,4.325754166,6.931770802,0,13.51994801
136541,540696090,622341634,0,3.035690784,7.13610363,0,13.71397114
136551,542798364,633876990,0,2.154808283,7.294661045,0,13.84893608
136561,550123032,621295098,0,0.89761138,7.522700787,0,14.09540844
136571,556398103,613948922,0,0.167691097,7.667034626,0,14.28454685
136581,562660879,633871875,0,-0.720410764,7.813611507,0,14.59511852
136591,559496713,650652170,0,-1.193841338,7.914449692,0,14.80407906
136601,553209353,639111689,0,-1.789831758,7.987606049,0,15.06329346
136611,542735876,623380999,0,-2.228348494,8.022746086,0,15.19319057
136621,527016437,631773700,0,-3.058011293,7.984341621,0,15.2990551
136631,508135918,634927615,0,-3.663222551,7.909806252,0,15.2936554
136641,496574946,637022716,0,-4.374193668,7.707210064,0,15.10745049
136651,486079958,632820214,0,-4.764181137,7.488100529,0,14.90942001
136661,492390851,628630006,0,-5.450334549,7.002109528,0,14.60779476
136671,500771243,631775730,0,-5.934884548,6.604020596,0,14.44737625
136681,509121940,632820209,0,-6.474242687,5.772454262,0,14.25858879
136691,518539653,633870832,0,-6.643681049,5.12106514,0,14.15127563
136701,523770242,634918385,0,-6.764828205,4.054783821,0,14.03828716
136711,529007994,635966963,0,-6.808679581,3.322669506,0,13.99261379
136721,530045300,639110645,0,-6.78078413,2.168470621,0,13.93842411
136731,524789095,644347381,0,-6.69915247,1.323701262,0,13.89386559
136741,522690914,647492084,0,-6.482919216,-0.006218589,0,13.80015564
136751,520602978,652737009,0,-6.394576073,-0.897286713,0,13.72694111
136761,519571817,654831088,0,-6.363173008,-2.205309391,0,13.59456539
136771,525861236,657971695,0,-6.37846899,-3.041105509,0,13.51694202
136781,533203332,661116401,0,-6.405921936,-4.170751095,0,13.46127987
136791,540542362,662164978,0,-6.394501686,-4.805388451,0,13.47815132
136801,545775029,663214578,0,-6.381369114,-5.52693367,0,13.54838467
136811,546817488,664264182,0,-6.318441391,-5.829124451,0,13.61228371
136821,543663592,662164985,0,-6.162734509,-6.077967644,0,13.70492458
136831,538426877,661115386,0,-6.06829977,-6.104572296,0,13.73908615
136841,532141585,657969657,0,-5.951203346,-6.007033825,0,13.7450428
136851,525848100,655875577,0,-5.922949791,-5.820538521,0,13.70266151
136861,522698292,650631672,0,-5.809085369,-5.430157661,0,13.61723804
136871,523743804,646437367,0,-5.716971874,-5.087776661,0,13.55244732
136881,523753020,642243062,0,-5.604137421,-4.565727711,0,13.45465469
136891,523761205,638049781,0,-5.584638119,-4.245670795,0,13.38654232
136901,525863466,633856499,0,-5.611301422,-3.821401119,0,13.29609489
136911,527963677,631761393,0,-5.646369934,-3.580560446,0,13.24217987
136921,532152850,629664242,0,-5.683721542,-3.360147953,0,13.19621563
136931,537388552,627566066,0,-5.661718369,-3.274877787,0,13.19839764
136941,541579773,627565043,0,-5.587531567,-3.248836517,0,13.23496342
136951,546824686,627564022,0,-5.551035404,-3.316551924,0,13.28829384
136961,545777114,628613624,1616385845,-5.506544113,-3.564271927,57856,13.36944103
136971,542625220,631759355,1701255455,-5.478414536,-3.853091478,57856,13.40444183
136981,534236602,637002235,1986923540,-5.382410526,-4.375569344,57856,13.43025494
136991,530043322,642245113,1969360924,-5.304423332,-4.748048782,57856,13.40805531
137001,526904776,646438393,1884232490,-5.23491478,-5.282269001,57856,13.35008335
137011,527958487,649581048,1866340415,-5.200378895,-5.575539589,57856,13.30462265
137021,531102185,653775352,1800282931,-5.199847698,-5.851242542,8192,13.25180721
137031,534252029,651678199,1598106180,-5.213095188,-5.923911095,8192,13.23720264
137041,534237709,651678200,1632709945,-5.175407887,-5.870473385,22528,13.22853851
137051,530040353,646438390,1413890376,-5.113828182,-5.730451584,38400,13.21906281
137061,527946281,651680248,1732064332,-4.982653141,-5.407351971,38400,13.17817307
137071,525856308,645390841,1446003291,-4.937044144,-5.127829075,38400,13.13749313
137081,530053688,645388793,1631338322,-4.907135487,-4.678608894,53760,13.07353401
137091,530047542,642241016,1429292382,-4.87282896,-4.372588158,8192,13.03694534
137101,534239802,640143865,1363101777,-4.819849014,-3.922480583,8192,13.01242352
137111,536335917,639097338,1597585757,-4.746835232,-3.625666142,53760,13.01153946
137121,532139556,640145914,1581989447,-4.643553257,-3.261883736,53760,13.00401402
137131,530043430,633855482,1598635592,-4.582809925,-3.069842815,53760,12.98483753
137141,525845018,634905082,1446923341,-4.489073277,-2.797752857,53760,12.92797184
137151,523751954,638048761,1598571076,-4.431990623,-2.683040857,53760,12.86979389
137161,527944204,637002232,1833645887,-4.310975552,-2.583719969,53760,12.78313637
137171,530034168,633863671,1851666481,-4.218529224,-2.550713778,53760,12.74625587
137181,530032113,635956727,1817457978,-4.030704498,-2.617222786,53760,12.70646381
137191,530026990,640153079,1868247092,-3.893000364,-2.684933424,53760,12.68085861
137201,532132335,642247160,1732982852,-3.70630312,-2.822724581,53760,12.64987278
137211,533177835,641195516,1750742327,-3.586801291,-2.966416121,53760,12.6349144
137221,533169639,645387772,1785148201,-3.360531569,-3.176501989,53760,12.61817741
137231,534206953,631751165,1634220841,-3.138247252,-3.332877874,53760,12.61680317
137241,533144043,619170301,1450723097,-2.733982086,-3.561373711,53760,12.62096691
137251,522631654,616031742,1350783496,-2.345664263,-3.70348382,53760,12.60872078
137261,511065567,620225020,1301832960,-1.524171948,-3.946656942,53760,12.50850105
137271,502670808,640146932,1502304256,-0.886083245,-4.158770561,53760,12.39310074
137281,499541464,655877624,1702386688,0.046923552,-4.499277592,53760,12.17621136
137291,500594133,632796677,1569150976,0.620294809,-4.742869377,53760,12.02639961
137301,506875349,639092223,1435854336,1.51704967,-5.134459496,53760,11.84697056
137311,514196946,645390847,1202611968,2.175796509,-5.37305975,53760,11.77451992
137321,517329351,650632707,1438407168,3.283187389,-5.777459621,53760,11.71454716
137331,517316021,640143878,1455511040,4.097837925,-6.098206997,53760,11.70633888
137341,512071073,622316044,1488934912,5.411523342,-6.800746441,53760,11.69209766
137351,502643074,633856518,1539070720,6.298210144,-7.405591488,22528,11.64929676
137361,497405297,651687425,1622564864,7.541906834,-8.533289909,43520,11.52843857
137371,502660462,665320961,1555782656,8.294121742,-9.342336655,53760,11.4413147
137381,514225549,676852224,1539070208,9.245661736,-10.39082146,53760,11.37545109
137391,535215549,682093060,1337153024,9.753933907,-10.92249298,53760,11.41514397
137401,556194285,671598088,733633792,10.34247494,-11.29834843,53760,11.61485577
137411,574006812,654806533,548301056,10.74166489,-11.32843971,53760,11.86827374
137421,580277827,648510984,112745743,11.42806911,-11.02476406,8192,12.37151909
137431,578175583,656909850,279407619,11.96078396,-10.65174007,29696,12.72448063
137441,567702141,671613483,10319392,12.79383373,-9.781366348,29696,13.17379379
137451,549895824,656927278,8948244,13.30766678,-9.038228989,50688,13.38062572
137461,529983131,640133663,7968536,13.97045803,-7.792636871,12800,13.51076794
137471,509011630,633844247,7119635,14.36327267,-6.860881805,39424,13.47648048
137481,489101002,634901012,4442650,14.90500927,-5.196041584,58880,13.21838284
137491,483886822,632810005,4442148,15.1568203,-3.87651372,20480,12.94524288
137501,494411506,620222991,2809642,15.22850513,-1.759654403,46592,12.55301952
137511,513324781,607635978,3914806,15.01242638,-0.349706203,2560,12.36993694
137521,534322921,603447814,2206300,14.49827957,1.621862769,25088,12.29598904
137531,552144586,619188742,4565826,14.08813,2.813738823,44544,12.35770226
137541,559495856,613944841,4691538,13.40814877,4.400772572,5120,12.56524181
137551,567904934,613945869,2986595,12.93281174,5.296666622,22016,12.76436043
137561,571049611,613943828,5014876,12.10556984,6.505440712,44544,13.13284206
137571,574203529,624430618,3376997,11.58233166,7.220293999,44544,13.41103935
137581,567888500,605551137,5082204,10.86254692,8.190452576,63488,13.81791782
137591,558446182,622340635,0,10.49076271,8.774370193,0,14.0401926
137601,542707278,608708132,0,9.965600967,9.521371841,0,14.25986576
137611,529073711,592978459,0,9.654310226,9.87107563,0,14.32703114
137621,520686101,613958154,0,9.113512993,10.18819046,0,14.32858562
137631,516492784,638078475,0,8.683262825,10.19399071,0,14.29843044
137641,517539278,640172561,0,8.121894836,9.931190491,0,14.23615742
137651,523831733,637023762,0,7.735064507,9.588033676,0,14.22085571
137661,534327717,632826384,0,7.14530468,8.904241562,0,14.27085209
137671,543755678,644361741,0,6.750014782,8.383917809,0,14.35656071
137681,550044065,651699723,0,6.205764771,7.563393593,0,14.53030491
137691,556326313,652747273,0,5.917068005,7.021482944,0,14.66441727
137701,554213796,648556040,0,5.511728287,6.269681931,0,14.86868763
137711,553162157,648552969,0,5.297601223,5.799948215,0,14.99078846
137721,550000055,653790727,0,5.070498943,5.123426914,0,15.13642216
137731,545802686,656939526,0,4.970862389,4.722591877,0,15.20467663
137741,545799627,648556037,0,4.832485676,4.218633652,0,15.29306507
137751,548947409,654840325,0,4.712860584,3.927715063,0,15.36153603
137761,553143778,655889926,0,4.578244209,3.595824718,0,15.49690819
137771,556281328,656937481,0,4.493258953,3.464037418,0,15.60572147
137781,558381569,652739081,0,4.379649639,3.385462284,0,15.78488636
137791,557319692,648547851,0,4.375506401,3.416941881,0,15.90435028
137801,554165765,647500300,0,4.391110897,3.489432335,0,16.05761909
137811,548928001,646449677,0,4.448946953,3.507129908,0,16.13614655
137821,542637564,644354572,0,4.469769478,3.498215437,0,16.21384811
137831,534256118,642257419,0,4.446470261,3.472364902,0,16.2260704
137841,529008119,641209865,0,4.423836231,3.404546261,0,16.18744278
137851,526910966,641210885,0,4.401875973,3.358543873,0,16.14069176
137861,531105262,641208834,0,4.394519806,3.258742094,0,16.08395195
137871,539493863,640159234,0,4.364326477,3.148068428,0,16.08222008
137881,546845155,640158211,0,4.280598164,2.924303293,0,16.14475441
137891,552084965,643302918,0,4.206659794,2.758963585,0,16.2184906
137901,552080874,644351497,525553985,4.131115437,2.522125959,57856,16.35270691
137911,546834927,645401099,641749834,4.143446922,2.378606081,57856,16.42767906
137921,543691251,646447627,709578304,4.118447304,2.241129637,57856,16.50355339
137931,541596155,647495180,642799159,4.083113194,2.190793753,57856,16.54257393
137941,538439170,647497229,525099840,4.087690353,2.173280001,8192,16.57501984
137951,530045447,649595404,592536884,4.132315636,2.196656466,8192,16.56397247
137961,524807700,647499273,641297476,4.213285923,2.328757524,8192,16.48686028
137971,523770398,649597447,675047236,4.199968338,2.48744607,8192,16.42040253
137981,527966757,645402115,456029265,4.122882843,2.788259268,8192,16.34106827
137991,533205546,647497219,424177725,4.064089775,3.025673866,8192,16.31384087
138001,537406002,640158211,388330345,3.989068747,3.414733648,22528,16.31369781
138011,542639666,640160263,323581255,3.956534863,3.716559887,22528,16.33737564
138021,543687225,638061062,87588446,3.921453953,4.177788734,22528,16.39994812
138031,546826807,634917383,120946016,3.967058659,4.503764153,22528,16.44491005
