Timestamp,compactImu.a_xyz,compactImu.l_xyz,motorCompact.pwms,stabilizer.pitch,stabilizer.roll,stabilizer.thrust,stabilizer.yaw
190994,536346111,641203710,0,-0.086592965,0.085391514,0,74.29642487
191004,536345087,641203710,0,-0.086123511,0.086526349,0,74.29927063
191014,536346111,641203710,0,-0.086287826,0.08726947,0,74.30194855
191024,536345087,641203710,0,-0.085556149,0.088687673,0,74.30600739
191034,536346111,641203710,0,-0.085478291,0.089494854,0,74.30835724
191044,536345087,641203710,0,-0.084918924,0.090350032,0,74.31249237
191054,536346111,641203710,0,-0.085472122,0.090847284,0,74.31510925
191064,536346111,641203710,0,-0.086084522,0.09299922,0,74.31925201
191074,536345087,641203710,0,-0.086347438,0.093818359,0,74.32229614
191084,536345087,641203710,0,-0.085115284,0.094736502,0,74.32698059
191094,536346111,641203710,0,-0.084264569,0.095508181,0,74.32948303
191104,536346111,641203710,0,-0.084841318,0.097131744,0,74.33335876
191114,536345087,641203710,0,-0.084291361,0.098210141,0,74.33686066
191124,536345087,641203710,0,-0.084150538,0.099495895,0,74.34075928
191134,536346111,642252286,0,-0.084485427,0.100467689,0,74.34311676
191144,536345087,641203710,0,-0.084980398,0.101217531,0,74.34635925
191154,536346111,641203710,0,-0.084718116,0.101538882,0,74.3494873
191164,536345087,641203710,0,-0.084997557,0.102465406,0,74.35330963
191174,536346111,641203710,0,-0.084720567,0.102463186,0,74.35557556
191184,536345087,642252286,0,-0.085504763,0.103622474,0,74.35968781
191194,536345087,641203710,0,-0.085276984,0.10449291,0,74.36234283
191204,536346111,641203710,0,-0.085210942,0.106279887,0,74.36553192
191214,536345087,641203710,0,-0.085126542,0.107544638,0,74.36877441
191224,536345087,641203710,0,-0.084589817,0.109804794,0,74.37313843
191234,536346111,641203710,0,-0.084176846,0.110266238,0,74.37666321
191244,536345087,641203710,0,-0.08510603,0.112529732,0,74.38059235
191254,536345087,641204734,0,-0.085267596,0.113730133,0,74.38279724
191264,536346111,641203710,0,-0.085793205,0.115031607,0,74.38639832
191274,536346111,641203710,0,-0.085527368,0.115202665,0,74.38933563
191284,536345087,641203710,0,-0.085934363,0.115554653,0,74.3928833
191294,536346111,641203710,0,-0.085975848,0.115453936,0,74.39683533
191304,536345087,641203710,0,-0.086192966,0.117319621,0,74.39902496
191314,536345087,641203710,0,-0.08511997,0.11837557,0,74.40142822
191324,536346111,641203710,0,-0.085119218,0.119596928,0,74.40493011
191334,536346111,641203710,0,-0.084806256,0.12008553,0,74.4077301
191344,536346111,641203710,0,-0.085403666,0.121343628,0,74.41103363
191354,536346111,641203710,0,-0.085015923,0.121777356,0,74.4131546
191364,536345087,641203710,0,-0.084580295,0.123575546,0,74.4165802
191374,536345087,642252286,0,-0.084408715,0.123969398,0,74.41908264
191384,536345087,642252286,0,-0.083271407,0.12536256,0,74.42211151
191394,536345087,642252286,0,-0.082433462,0.1262981,0,74.4249649
191404,536345087,642252286,0,-0.081356362,0.12873134,0,74.42886353
191414,536345087,642252286,0,-0.080411151,0.130572096,0,74.43213654
191424,536345087,642252286,0,-0.0792493,0.134300902,0,74.43444824
191434,536345087,642252286,0,-0.077763326,0.136520371,0,74.43767548
191444,536345087,642252286,0,-0.077017464,0.140654743,0,74.4416275
191454,536345087,641203710,0,-0.075854175,0.14295356,0,74.44422913
191464,536345087,641203710,0,-0.074045442,0.146963477,0,74.44812012
191474,536345087,641203710,0,-0.072680958,0.150425479,0,74.4495163
191484,536345087,641203710,0,-0.072262697,0.154597819,0,74.45432281
191494,536345087,641203710,0,-0.071585357,0.157360718,0,74.4566803
191504,536345087,641203710,0,-0.070522331,0.16040194,0,74.46042633
191514,536345087,641204734,0,-0.069568746,0.16192086,0,74.462883
191524,536345087,640156158,0,-0.068488114,0.165672943,0,74.46740723
191534,536345087,641204734,0,-0.06744843,0.167352185,0,74.4703064
191544,536346111,641203710,0,-0.066767253,0.170417696,0,74.47364807
191554,536345087,641203710,0,-0.067166828,0.171773776,0,74.47590637
191564,536346111,641203710,0,-0.067676604,0.172103226,0,74.47980499
191574,536346111,641203710,0,-0.068765916,0.172578648,0,74.48259735
191584,536346111,642252286,0,-0.068165712,0.173465058,0,74.48822021
191594,536345087,642252286,0,-0.067927152,0.173998386,0,74.49046326
191604,536345087,642253310,0,-0.067055985,0.174255937,0,74.4940033
191614,536346111,641204734,0,-0.067064494,0.175124541,0,74.49700165
191624,536345087,641204734,0,-0.06614805,0.177567989,0,74.50176239
191634,536346111,641203710,0,-0.065746285,0.178465396,0,74.50411224
191644,536346111,641203710,0,-0.066261776,0.179436997,0,74.50783539
191654,536346111,641203710,0,-0.067008078,0.179214478,0,74.51005554
191664,536345087,641203710,0,-0.067005396,0.181466535,0,74.51302338
191674,536346111,642252286,0,-0.067183554,0.182459697,0,74.51528168
191684,536346111,642252286,0,-0.068116188,0.18327713,0,74.51879883
191694,536345087,642252286,0,-0.068441741,0.184755251,0,74.52149963
191704,536345087,642252286,0,-0.066409856,0.186100245,0,74.52583313
191714,536346111,641203710,0,-0.0669652,0.1867605,0,74.52727509
191724,536346111,641203710,0,-0.0673244,0.187402248,0,74.5306015
191734,536346111,641203710,0,-0.068443358,0.187303662,0,74.53307343
191744,536346111,641204734,0,-0.068568185,0.188460261,0,74.53697205
191754,536345087,641204734,0,-0.069406293,0.189550564,0,74.53894043
191764,536346111,641204734,0,-0.068531074,0.190847591,0,74.54308319
191774,536346111,641203710,0,-0.068974219,0.191786647,0,74.54450989
191784,536346111,641203710,0,-0.069908686,0.191744119,0,74.54891205
191794,536346111,641203710,0,-0.070269622,0.192487642,0,74.55057526
191804,536345087,641203710,0,-0.070901603,0.192869395,0,74.55445862
191814,536346111,641203710,0,-0.070955805,0.193691596,0,74.55725098
191824,536346111,641203710,0,-0.071204439,0.193425149,0,74.56188965
191834,536346111,641203710,0,-0.071761839,0.194931179,0,74.56478119
191844,536346111,641203710,0,-0.072562151,0.196007296,0,74.56819916
191854,536345087,641203710,0,-0.072795101,0.197225273,0,74.57071686
191864,536346111,641203710,0,-0.073176228,0.198144585,0,74.57463837
191874,536345087,641203710,0,-0.073480494,0.198578596,0,74.57711029
191884,536345087,641203710,0,-0.073647752,0.200214624,0,74.58000183
191894,536346111,641203710,0,-0.073522158,0.200750142,0,74.58183289
191904,536345087,642252286,0,-0.074070461,0.200341865,0,74.58564758
191914,536346111,641203710,0,-0.074218996,0.200130641,0,74.58901215
191924,536345087,641203710,0,-0.074945346,0.200802147,0,74.59252167
191934,536345087,641203710,0,-0.074823536,0.202314794,0,74.59464264
191944,536345087,641203710,0,-0.074591607,0.20304285,0,74.5983963
191954,536346111,641203710,0,-0.074693926,0.203493431,0,74.60215759
191964,536345087,641203710,0,-0.075462073,0.203690857,0,74.60689545
191974,536346111,641204734,0,-0.075668104,0.204283208,0,74.6091156
191984,536346111,641203710,0,-0.076815471,0.204177916,0,74.61283112
191994,536346111,641203710,0,-0.076526456,0.204178393,0,74.61608124
192004,536345087,641203710,0,-0.076956086,0.204168081,0,74.62036133
192014,536346111,641203710,0,-0.077611893,0.204247236,0,74.62332153
192024,536346111,641203710,0,-0.077314876,0.205464154,0,74.62783051
192034,536345087,641203710,0,-0.077432722,0.205541223,0,74.63119507
192044,536346111,641203710,0,-0.077763379,0.205534369,0,74.63516235
192054,536346111,641203710,0,-0.078220859,0.206031814,0,74.6374588
192064,536345087,641203710,0,-0.078309827,0.205836922,0,74.64120483
192074,536346111,641203710,0,-0.079019025,0.206278533,0,74.64333344
192084,536346111,642252286,0,-0.079266876,0.206288859,0,74.6471405
192094,536346111,642252286,0,-0.07964474,0.206577972,0,74.6497879
192104,536345087,641203710,0,-0.079441391,0.206652701,0,74.65407562
192114,536346111,641203710,0,-0.079647049,0.206824616,0,74.65760803
192124,536346111,642252286,0,-0.079725258,0.206466764,0,74.66120148
192134,536345087,641204734,0,-0.079688296,0.206686258,0,74.66318512
192144,536346111,641203710,0,-0.07899718,0.206452638,0,74.66691589
192154,536346111,641203710,0,-0.078861207,0.207278028,0,74.67072296
192164,536345087,641203710,0,-0.078645185,0.207827926,0,74.67483521
192174,536345087,641203710,0,-0.077358112,0.207518116,0,74.67784882
192184,536346111,641203710,0,-0.077469714,0.208143502,0,74.68208313
192194,536345086,641204734,0,-0.077024586,0.206964806,0,74.68534088
192204,536345087,641203710,0,-0.074944042,0.207280457,0,74.68894958
192214,536345087,642252286,0,-0.074265093,0.207931057,0,74.69121552
192224,536346111,641203710,0,-0.073728167,0.208444461,0,74.69589233
192234,536345087,641203710,0,-0.074299894,0.208351955,0,74.69782257
192244,536346111,642252286,0,-0.074851677,0.208750218,0,74.70146942
192254,536346111,642252286,0,-0.074914366,0.209815621,0,74.70427704
192264,536346111,642252286,0,-0.074633077,0.210994899,0,74.70783997
192274,536345087,641204734,0,-0.07470756,0.211099222,0,74.71064758
192284,536345087,641204734,0,-0.074215911,0.211916998,0,74.71411133
192294,536346111,642253310,0,-0.074307233,0.212433442,0,74.71678925
192304,536346111,642252286,0,-0.074964345,0.213632584,0,74.72112274
192314,536345087,641203710,0,-0.075236849,0.213460267,0,74.72460175
192324,536346111,641204734,0,-0.076395519,0.213488773,0,74.72850037
192334,536346111,642252286,0,-0.077224426,0.213434711,0,74.73207092
192344,536345087,641204734,0,-0.077197738,0.214958981,0,74.73659515
192354,536345087,641203710,0,-0.075786352,0.215422869,0,74.73912811
192364,536346111,641204734,0,-0.075972341,0.216193885,0,74.74285889
192374,536345087,641203710,0,-0.076610915,0.217097402,0,74.74617004
192384,536346111,641204734,0,-0.076891296,0.217491359,0,74.74969482
192394,536346111,642252286,0,-0.076839343,0.218889758,0,74.7529068
192404,536346111,642253310,0,-0.076867029,0.221003786,0,74.75704956
192414,536346111,641203710,0,-0.07640224,0.220955327,0,74.75967407
192424,536346111,641203710,0,-0.076011971,0.220126599,0,74.7634201
192434,536345087,641203710,0,-0.075788051,0.219139442,0,74.76583862
192444,536346111,641203710,0,-0.075951703,0.219281733,0,74.76908112
192454,536346111,641204734,0,-0.0764338,0.220423132,0,74.77095795
192464,536346111,641204734,0,-0.077797346,0.221142218,0,74.77472687
192474,536346111,641203710,0,-0.077769831,0.22106944,0,74.77805328
192484,536345087,641203710,0,-0.077865355,0.220664769,0,74.78163147
192494,536346111,641203710,0,-0.07805369,0.221372187,0,74.78507233
192504,536346111,641203710,0,-0.078741163,0.221915379,0,74.79077911
192514,536345087,641204734,0,-0.078878343,0.22248134,0,74.79403687
192524,536346111,642252286,0,-0.078936405,0.222495571,0,74.79732513
192534,536345087,641203710,0,-0.07859432,0.222947493,0,74.80086517
192544,536346111,641203710,0,-0.07782311,0.223655105,0,74.80435181
192554,536346111,641203710,0,-0.078113846,0.223855764,0,74.80688477
192564,536345087,641203710,0,-0.078078978,0.224282727,0,74.81085205
192574,536346111,641203710,0,-0.077754356,0.224487707,0,74.81355286
192584,536345087,641203710,0,-0.07739526,0.223659322,0,74.81868744
192594,536345087,641203710,0,-0.076680362,0.224148944,0,74.82223511
192604,536345087,641203710,0,-0.076054156,0.225737005,0,74.82678986
192614,536346111,642252286,0,-0.075566344,0.226200476,0,74.82837677
192624,536346111,641203710,0,-0.076032102,0.226845697,0,74.83219147
192634,536346111,641203710,0,-0.07612244,0.228360087,0,74.83435059
192644,536346111,641203710,0,-0.076638773,0.228996396,0,74.83815002
192654,536346111,641203710,0,-0.07687363,0.230504483,0,74.84096527
192664,536345087,641204734,0,-0.075678609,0.232704803,0,74.84436035
192674,536346111,641203710,0,-0.075763218,0.233902946,0,74.84664917
192684,536345087,641203710,0,-0.07684689,0.235328391,0,74.8497467
192694,536346111,641203710,0,-0.076722428,0.235213324,0,74.8523407
192704,536346111,641203710,0,-0.078248866,0.237331152,0,74.85641479
192714,536346111,641203710,0,-0.079136655,0.237821013,0,74.85915375
192724,536346111,641203710,0,-0.080136046,0.238887325,0,74.86224365
192734,536346111,642252286,0,-0.080430038,0.23964344,0,74.86521149
192744,536346111,641203710,0,-0.080818258,0.24039638,0,74.86987305
192754,536346111,641203710,0,-0.080916636,0.24049522,0,74.87271118
192764,536346111,641203710,0,-0.081343293,0.240835458,0,74.87680054
192774,536345087,641203710,0,-0.081716485,0.241935089,0,74.87919617
192784,536346111,641203710,0,-0.08211612,0.243449166,0,74.88422394
192794,536346111,641204734,0,-0.081953958,0.244851097,0,74.88709259
192804,536346111,642252286,0,-0.083371185,0.246193096,0,74.88996124
192814,536346111,641203710,0,-0.083711661,0.24773179,0,74.89358521
192824,536345087,641204734,0,-0.085186683,0.248015642,0,74.8964386
192834,536346111,642252286,0,-0.085587874,0.248790562,0,74.89860535
192844,536345087,641203710,0,-0.085865259,0.250284255,0,74.90312195
192854,536345087,641203710,0,-0.085431769,0.250357687,0,74.90680695
192864,536346111,641203710,0,-0.085339755,0.250840753,0,74.91048431
192874,536345087,641204734,0,-0.085249618,0.251187176,0,74.91294098
192884,536346111,641204734,0,-0.086410716,0.251172662,0,74.91738129
192894,536345087,641203710,0,-0.087010913,0.251816481,0,74.91973114
192904,536346111,641203710,0,-0.087620758,0.252603769,0,74.92350006
192914,536346111,641203710,0,-0.08816351,0.252077281,0,74.92673492
192924,536346111,642252286,0,-0.088907517,0.251592308,0,74.9310379
192934,536345087,642252286,0,-0.088753797,0.251572073,0,74.93435669
192944,536345087,641203710,0,-0.0878506,0.251384884,0,74.93826294
192954,536346111,641204734,0,-0.087531663,0.252541453,0,74.94128418
192964,536346111,641203710,0,-0.087482654,0.253614455,0,74.94593048
192974,536346111,641204734,0,-0.088056587,0.253948063,0,74.94837952
192984,536345087,641204734,0,-0.087738603,0.254162312,0,74.95265198
192994,536345087,641203710,0,-0.087408841,0.254449487,0,74.95500183
193004,536345087,642252286,0,-0.086772218,0.255329639,0,74.95885468
193014,536345087,642252286,0,-0.086963542,0.255146414,0,74.96109772
193024,536346111,642252286,0,-0.086625606,0.255033284,0,74.96533966
193034,536345087,641203710,0,-0.086015217,0.254514456,0,74.96733093
193044,536345087,641204734,0,-0.085453361,0.255186439,0,74.97033691
193054,536346111,641204734,0,-0.085536242,0.256039739,0,74.97328186
193064,536346111,641204734,0,-0.086185478,0.256315708,0,74.97799683
193074,536345087,641203710,0,-0.08684025,0.256716937,0,74.98123169
193084,536345087,642252286,0,-0.086534545,0.256814301,0,74.98607635
193094,536346111,642253310,0,-0.0869449,0.257015467,0,74.98938751
193104,536346111,642253310,0,-0.08771567,0.258829415,0,74.99415588
193114,536346111,641203710,0,-0.088164032,0.259410471,0,74.99627686
193124,536345087,641203710,0,-0.087941393,0.259359211,0,75.00053406
193134,536345087,641203710,0,-0.087670483,0.259805709,0,75.00262451
193144,536346111,641203710,0,-0.088431329,0.260370493,0,75.007164
193154,536345087,641203710,0,-0.088630632,0.260730922,0,75.01065063
193164,536346111,641204734,0,-0.088166066,0.261218727,0,75.01374054
193174,536346111,641203710,0,-0.087980658,0.261308283,0,75.01607513
193184,536346111,641203710,0,-0.087200925,0.261114508,0,75.02056122
193194,536345087,641203710,0,-0.086853765,0.260919094,0,75.02290344
193204,536345087,641203710,0,-0.08640781,0.259833574,0,75.02657318
193214,536345087,641204734,0,-0.086101219,0.260148257,0,75.02858734
193224,536346111,641204734,0,-0.085784912,0.260654777,0,75.03237152
193234,536346111,641203710,0,-0.08608108,0.261199802,0,75.03546906
193244,536346111,641204734,0,-0.086955287,0.262436479,0,75.03913879
193254,536346111,641204734,0,-0.087420218,0.26290673,0,75.04067993
193264,536346111,641203710,0,-0.087422796,0.263896108,0,75.04483795
193274,536345087,641203710,0,-0.087726749,0.263773233,0,75.04866028
193284,536345087,642252286,0,-0.087878413,0.263295561,0,75.0525589
193294,536346111,641204734,0,-0.088693112,0.263375968,0,75.05576324
193304,536345087,641204734,0,-0.088537313,0.26273945,0,75.05966949
193314,536345087,641203710,0,-0.088123374,0.262089849,0,75.06237793
193324,536346111,641203710,0,-0.088061124,0.26170826,0,75.06678009
193334,536346111,641203710,0,-0.089160919,0.26147002,0,75.06963348
193344,536345087,641203710,0,-0.08887326,0.261691332,0,75.07375336
193354,536346111,641203710,0,-0.089137502,0.262472421,0,75.07682037
193364,536345087,641203710,0,-0.088709578,0.262474537,0,75.08086395
193374,536345087,641203710,0,-0.08811342,0.261745602,0,75.08269501
193384,536346111,641203710,0,-0.088393703,0.261340857,0,75.08570099
193394,536346111,641203710,0,-0.089065373,0.260884136,0,75.08898926
193404,536345087,641204734,0,-0.088985972,0.260724276,0,75.09282684
193414,536345087,641203710,0,-0.088702969,0.260994256,0,75.09622192
193424,536345087,641203710,0,-0.087858222,0.260668576,0,75.10097504
193434,536346111,641203710,0,-0.088140137,0.260812819,0,75.10315704
193444,536345087,641204734,0,-0.088556029,0.260514766,0,75.10710144
193454,536345087,641203710,0,-0.087977551,0.260380208,0,75.11019897
193464,536345087,642252286,0,-0.087501004,0.259556293,0,75.11364746
193474,536346111,642252286,0,-0.08761254,0.258944601,0,75.11613464
193484,536345087,641203710,0,-0.087295666,0.258670866,0,75.12030792
193494,536346111,641204734,0,-0.086781792,0.259312272,0,75.1228714
193504,536346111,641203710,0,-0.087054312,0.259705782,0,75.12657928
193514,536345087,641203710,0,-0.087190643,0.259110451,0,75.1288681
193524,536346111,641204734,0,-0.08783529,0.258852005,0,75.1335144
193534,536346111,642253310,0,-0.08824189,0.259150505,0,75.13611603
193544,536345087,641203710,0,-0.088612422,0.259136587,0,75.14051819
193554,536346111,641203710,0,-0.088203825,0.260235906,0,75.14283752
193564,536346111,641203710,0,-0.088305436,0.260100305,0,75.14635468
193574,536345087,641203710,0,-0.088159658,0.259877712,0,75.14851379
193584,536346111,641204734,0,-0.088459767,0.260543048,0,75.15303802
193594,536346111,641203710,0,-0.088672958,0.26080066,0,75.15560913
193604,536345087,641203710,0,-0.088314824,0.260480493,0,75.15826416
193614,536345087,641203710,0,-0.087667011,0.260114342,0,75.15996552
193624,536346111,642252286,0,-0.087265246,0.259320587,0,75.1639328
193634,536345087,641203710,0,-0.08738409,0.259765059,0,75.16570282
193644,536345087,641203710,0,-0.087172896,0.260118604,0,75.16901398
193654,536345087,641203710,0,-0.086732015,0.260416389,0,75.171875
193664,536346111,641203710,0,-0.086448573,0.260189801,0,75.17676544
193674,536346111,641203710,0,-0.08631289,0.26071161,0,75.17935944
193684,536346111,641204734,0,-0.085852608,0.260124266,0,75.18247986
193694,536345087,641204734,0,-0.085891075,0.260956615,0,75.18498993
193704,537393663,641203710,0,-0.08484678,0.260087013,0,75.19102478
193714,536345087,641204734,0,-0.084116109,0.259643495,0,75.19553375
193724,537393663,641203710,0,-0.083966397,0.260502219,0,75.20309448
193734,536345087,641203710,0,-0.083335884,0.261218339,0,75.20592499
193744,536345087,641203710,0,-0.082287662,0.261972308,0,75.2093277
193754,536345087,641203710,0,-0.082248494,0.261678398,0,75.2130127
193764,537394687,641203711,0,-0.081573494,0.262598425,0,75.21981049
193774,537394687,641203711,0,-0.082187958,0.264020175,0,75.22688293
193784,543686142,640154114,0,-0.076952986,0.259829581,0,75.26757813
193794,546831871,641203712,693588530,-0.071157731,0.257033855,57856,75.32064056
193804,546831871,641203709,927612740,-0.072571665,0.255863756,57856,75.40621185
193814,542637567,640157179,1078675270,-0.076809548,0.257490516,22528,75.45207214
193824,540539391,640156157,1045055816,-0.082390994,0.259801388,22528,75.48679352
193834,538443263,641204733,1129204807,-0.08536683,0.262467206,38400,75.50357056
193844,537393663,641205758,1112493126,-0.08618509,0.265633076,38400,75.51903534
193854,536346111,641204734,1145916741,-0.088140048,0.268295199,38400,75.5240097
193864,536346111,641205758,1162562632,-0.089594483,0.267621964,38400,75.52617645
193874,535296510,642251262,1162693445,-0.088155597,0.267014772,38400,75.53627777
193884,540538366,641202685,1112688965,-0.088344641,0.264152378,38400,75.55105591
193894,539490814,643298812,1129400901,-0.089073673,0.262136877,38400,75.55971527
193904,538443263,646446586,1146046791,-0.097533315,0.257789582,38400,75.57364655
193914,537395712,656932346,1145391951,-0.102913685,0.25312838,38400,75.57897949
193924,537394687,647494137,1079463487,-0.120343946,0.259055823,38400,75.58374023
193934,540538366,646446587,1079266626,-0.127420634,0.254635543,38400,75.60115814
193944,542638592,640157184,1162363731,-0.12183854,0.258835882,38400,75.64188385
193954,535294463,647500290,1028609092,-0.115990914,0.260576308,38400,75.66702271
193964,542641643,634912259,1633953847,-0.134989351,0.232148737,38400,75.68202209
193974,539485698,652737022,1214793006,-0.113557614,0.252382249,38400,75.71537781
193984,542638595,639103481,1496526441,-0.10150376,0.261889547,38400,75.74748993
193994,545786354,643299834,1132414492,-0.175759584,0.276315629,38400,75.7931366
194004,542643713,645394942,978341196,-0.213749051,0.237681702,38400,75.86527252
194014,546848248,638055935,1516120892,-0.258373886,0.273902655,61952,75.91728973
194024,551025152,644350463,492789573,-0.325960219,0.203950092,61952,76.01999664
194034,547884546,621281790,727078470,-0.376464427,0.279053003,23552,76.09999847
194044,549984749,624427516,1448419917,-0.388349324,0.233116135,48128,76.20417786
194054,545792517,611846655,1011499853,-0.484146476,0.20376268,4608,76.265625
194064,539500026,639110657,1179728195,-0.554385483,0.237494424,27136,76.31282043
194074,539514369,655885822,1195194706,-0.594022453,0.232298255,47616,76.32702637
194084,536353288,659028482,776557123,-0.721877873,0.260326475,2560,76.34761047
194094,534261247,640154109,944392255,-0.838864088,0.26743415,25088,76.34711456
194104,530065921,627573242,994199616,-0.982275665,0.269958586,52224,76.3238678
194114,531111421,619182585,1060913224,-1.040271521,0.247927308,12288,76.29279327
194124,536368645,630715900,1228222546,-1.188196301,0.304166228,32256,76.28274536
194134,543725051,637006328,1278159195,-1.336723566,0.26154542,32256,76.30532074
194144,540577276,642250235,0,-1.638908982,0.268679529,0,76.3613739
194154,542660089,638057979,0,-1.779353499,0.22296156,0,76.39204407
194164,538449410,644349433,0,-1.928429961,0.247343853,0,76.4295578
194174,540531202,645400059,0,-1.943343878,0.26472798,0,76.44651794
194184,537397757,642254333,0,-1.93890667,0.249732539,0,76.46990204
194194,536351247,632816124,0,-1.924893379,0.278248429,0,76.46910095
194204,531104243,632815100,0,-2.01822114,0.292296976,0,76.43813324
194214,527962625,633867773,0,-2.062716484,0.270807534,0,76.40553284
194224,525854207,627574266,0,-2.026553392,0.297192633,0,76.32778931
194234,524793337,644351482,0,-1.966817975,0.299225837,0,76.26998901
194244,525857282,647494140,0,-1.839502811,0.303618014,0,76.18185425
194254,538429951,659031548,0,-1.831795096,0.3041704,0,76.16632843
194264,539513336,648542713,0,-1.951961517,0.274244636,0,76.1893158
194274,545789444,638056951,0,-2.033368111,0.303067595,0,76.23349762
194284,549962229,629668340,0,-2.033157587,0.297036052,0,76.33724976
194294,547858949,631766525,0,-1.925529122,0.249343544,0,76.40287018
194304,551007740,638059004,0,-1.710072041,0.354257554,0,76.51207733
194314,556244470,643302903,0,-1.640130401,0.284002513,0,76.60005188
194324,551013892,637010428,0,-1.486376882,0.287324041,0,76.74437714
194334,553092604,646446591,0,-1.395134568,0.272791445,0,76.83067322
194344,547841533,629667324,0,-1.109717846,0.28460592,0,76.94168091
194354,544692727,639108605,0,-0.900856495,0.259290665,0,76.99373627
194364,540494333,644351489,0,-0.539655447,0.237273157,0,77.04258728
194374,546785797,645401088,0,-0.268400609,0.214757934,0,77.08974457
194384,545780224,671614465,0,-0.023140647,0.239519894,0,77.17454529
194394,547877379,634912254,0,-0.037412476,0.243573859,0,77.23162079
194404,543684093,635960833,0,-0.020330893,0.248893261,0,77.30758667
194414,542633467,634911231,0,-0.015975317,0.252685398,0,77.35364532
194424,537393664,637009405,0,-0.011208959,0.25950551,0,77.38084412
194434,534244858,637009405,0,-0.010261755,0.244692639,0,77.38513947
194444,529001983,634911233,0,0.010192665,0.231345996,0,77.34664154
194454,529000953,635961860,0,0.010260322,0.226614282,0,77.31105804
194464,535295486,645401088,0,0.032067064,0.229304552,0,77.26947021
194474,535291385,644348412,0,0.051102981,0.229681864,0,77.25959778
194484,537386498,645394942,0,0.062424399,0.22022979,0,77.25538635
194494,535294459,645395967,0,0.062553383,0.217520177,0,77.26499939
194504,533200381,643301887,0,0.064237431,0.188781768,0,77.25773621
194514,537391613,644352510,0,0.047384843,0.203966513,0,77.25736237
194524,532147715,646446589,0,0.067844994,0.185982347,0,77.24196625
194534,533203457,645399037,0,0.05462252,0.197224736,0,77.21867371
194544,534248954,641203709,0,0.05996285,0.197858274,0,77.20333099
194554,533202434,641202687,0,0.058748871,0.177615136,0,77.17842865
194564,534251008,641204737,0,0.04486645,0.203487024,0,77.16825867
194574,539488769,643300862,0,0.068660937,0.206001118,0,77.17120361
194584,539491839,640156159,0,0.056219675,0.209357679,0,77.18363953
194594,538438137,638056956,0,0.058072716,0.208737418,0,77.19239044
194604,536346112,638059005,0,0.056482133,0.194944993,0,77.19432831
194614,532150779,635958782,0,0.06409613,0.193711281,0,77.20718384
194624,535299581,635959805,0,0.057323892,0.170791641,0,77.1929245
194634,538443261,634912252,0,0.044007149,0.176246062,0,77.17938995
194644,540536316,640155134,0,0.049053065,0.166455075,0,77.20052338
194654,537395715,641203710,0,0.042737704,0.174694911,0,77.21666718
194664,534244863,645398015,0,0.052790921,0.177985787,0,77.22759247
194674,536345087,640154113,0,0.046756335,0.178473577,0,77.22667694
194684,535296510,643302911,0,0.046298958,0.180519223,0,77.22007751
194694,527959552,640157183,0,0.053181242,0.178782344,0,77.20077515
194704,532151807,641203711,0,0.050805882,0.189569578,0,77.1474762
194714,533199359,640154109,0,0.046867024,0.190928027,0,77.12940216
194724,536348160,641202685,0,0.036575958,0.193832964,0,77.12405396
194734,536345086,641203710,0,0.034624688,0.193204626,0,77.12419128
194744,539492865,641203710,0,0.020327307,0.208088294,0,77.1427536
194754,537395712,641203710,0,0.018091463,0.210051686,0,77.14974213
194764,538443262,640154109,0,0.011545985,0.217828229,0,77.16977692
194774,537393663,642254334,0,0.010107072,0.219757497,0,77.18476868
194784,537393664,642253311,0,0.013278453,0.226675794,0,77.18717957
194794,531102207,641205757,0,0.016115457,0.230900005,0,77.1800766
194804,523762176,642257404,0,0.01159835,0.247373924,0,77.10811615
194814,514329091,641206781,0,-0.012247331,0.27376017,0,77.01364899
194824,521670142,643299839,0,-0.037302289,0.286925018,0,76.87109375
194834,521687549,648541698,0,-0.098568097,0.282263517,0,76.77713776
194844,524847617,648542721,0,-0.328693897,0.280283689,0,76.69265747
194854,533239295,643298809,0,-0.544807553,0.273653209,0,76.6416626
194864,531141119,640155123,0,-0.884523034,0.28627035,0,76.62086487
194874,537430530,640156153,0,-1.106255174,0.274271756,0,76.60528564
194884,530093561,642255359,0,-1.418539524,0.283831269,0,76.59197998
194894,536387075,642254338,0,-1.630904794,0.286591053,0,76.57978821
194904,536387068,640155134,0,-1.962817788,0.272752374,0,76.57608032
194914,541624830,639103484,0,-2.171346903,0.292809427,0,76.59780884
194924,541618689,638056952,0,-2.444687128,0.269175202,0,76.64320374
194934,543708667,638057974,0,-2.59408021,0.279574752,0,76.67890167
194944,541605377,638057977,0,-2.770073652,0.264690399,0,76.73863983
194954,541597180,638057980,0,-2.834178209,0.272722572,0,76.76480865
194964,539497984,641205755,0,-2.886515856,0.265577018,0,76.80861664
194974,538455549,644350459,0,-2.932615995,0.274839431,0,76.82445526
194984,535313920,643302906,0,-3.048554897,0.269744188,0,76.83852386
194994,536363518,641203705,0,-3.144090176,0.28252992,0,76.83293915
195004,536359423,639107576,0,-3.279058695,0.272752374,0,76.83989716
195014,536357375,640155128,0,-3.348200798,0.283110768,0,76.83726501
195024,535307775,641204728,0,-3.442813635,0.273606122,0,76.84138489
195034,533211647,641204727,0,-3.505093575,0.284404695,0,76.83223724
195044,534256126,639106552,0,-3.593212366,0.272566974,0,76.81365967
195054,535298560,639106551,0,-3.614409685,0.279868066,0,76.80787659
195064,534248958,640156152,0,-3.625126123,0.276332229,0,76.79444122
195074,534247936,641203704,0,-3.622601748,0.277681738,0,76.78653717
195084,533202430,642253304,0,-3.634356976,0.27966395,0,76.7673111
195094,534246912,639105528,0,-3.637041092,0.276926607,0,76.75524902
195104,534246910,641204727,0,-3.622327805,0.28101179,0,76.74462128
195114,535295487,641203705,0,-3.613276243,0.276883572,0,76.73625946
195124,535297535,642252280,0,-3.601346254,0.280035168,0,76.73169708
195134,536347134,641203704,0,-3.608496904,0.278114349,0,76.72855377
195144,538440190,639106551,0,-3.60346818,0.267932326,0,76.73789215
195154,537388543,640155127,0,-3.58327055,0.265511662,0,76.74801636
195164,539484670,640155127,0,-3.537838459,0.264701009,0,76.76557159
195174,540534272,641203703,0,-3.50281024,0.265828937,0,76.78636932
195184,543679998,641202680,0,-3.462378263,0.269311309,0,76.83272552
195194,543676927,639106551,0,-3.425603867,0.266043752,0,76.87304688
195204,546818559,639105526,0,-3.344406366,0.271109909,0,76.94551849
195214,547863037,639106552,0,-3.269185781,0.267928421,0,77.0098114
195224,548909566,641204728,0,-3.123903751,0.265292704,0,77.1101532
195234,545765885,642254332,0,-3.025940895,0.265788853,0,77.17607117
195244,540521982,641204733,0,-2.879646778,0.264294684,0,77.23355865
195254,540516863,639108601,0,-2.765420198,0.268299222,0,77.25627136
195264,539463166,638059000,0,-2.563156843,0.271873444,0,77.28784943
195274,540503551,637009401,0,-2.393280506,0.27058515,0,77.30714417
195284,541543935,638057977,0,-2.064381361,0.271063,0,77.34708405
195294,539449854,643301883,0,-1.823324919,0.271916658,0,77.37026215
195304,538411519,646447613,0,-1.513369083,0.271461397,0,77.39561462
195314,539468287,645399038,0,-1.358614564,0.274176389,0,77.4098053
195324,538422783,643301885,0,-1.175607562,0.277495742,0,77.43264008
195334,537377279,642253310,0,-1.071677685,0.278989762,0,77.44272614
195344,535284223,643301888,0,-0.941429377,0.282122672,0,77.44524384
195354,533192191,643301886,0,-0.879494011,0.285866052,0,77.43513489
195364,534238719,640155130,0,-0.813070238,0.286915481,0,77.4140625
195374,536323583,635960824,0,-0.742690265,0.285716981,0,77.40881348
195384,537360895,637009404,0,-0.521532893,0.282978863,0,77.41902161
195394,537362942,643300865,0,-0.33468309,0.280443877,0,77.42539215
195404,536326655,647496194,0,-0.11716269,0.277222216,0,77.43188477
195414,535286271,644350465,0,-0.028591428,0.276888579,0,77.43244934
195424,533198333,647496191,0,0.038348701,0.264576286,0,77.41396332
195434,529007103,641204736,0,0.028542493,0.275062084,0,77.38772583
195444,531102206,642254336,0,0.043522891,0.269051641,0,77.34046173
195454,529006079,640157183,0,0.034080524,0.279741943,0,77.30640411
195464,531102206,642253307,0,0.037636288,0.276078016,0,77.25099182
195474,533200384,642251259,0,0.030665684,0.277929813,0,77.22724152
195484,535296511,642250235,0,0.022694066,0.275449365,0,77.21228027
195494,536346111,641202684,0,0.015294098,0.27585426,0,77.21044922
195504,536345086,641203710,0,0.011611113,0.275428385,0,77.21592712
195514,536345086,641203710,0,0.011311261,0.27468276,0,77.21819305
195524,537392637,641202684,0,0.015024779,0.265211523,0,77.22509003
195534,538443264,642250232,0,0.009481934,0.260490805,0,77.23488617
195544,535296510,641203704,0,-0.013126908,0.260425627,0,77.24346161
195554,534248958,641203706,0,-0.018570926,0.252865613,0,77.23674774
195564,533199359,641202678,0,-0.032649223,0.248984441,0,77.22158813
195574,535297534,641203705,0,-0.046125542,0.244586691,0,77.21089935
195584,532151807,641206791,0,-0.042958703,0.247834578,0,77.18869781
195594,535297535,640158224,0,-0.022016486,0.251398951,0,77.1780777
195604,538442239,641205766,0,0.01894133,0.260993391,0,77.18135834
195614,536345087,642253309,0,0.0238351,0.261973858,0,77.18624878
195624,536345087,642252285,0,0.02121911,0.262552589,0,77.19098663
195634,536345087,641203710,0,0.020482333,0.262444556,0,77.19540405
195644,536345087,641204734,0,0.019355608,0.264167964,0,77.19716644
195654,536346111,641203710,0,0.019344101,0.264377564,0,77.20049286
195664,536345087,641203710,0,0.018057099,0.264160573,0,77.20471954
195674,536345087,642252286,0,0.017608378,0.263561159,0,77.20703888
195684,536346111,642252286,0,0.01696045,0.262592852,0,77.21062469
195694,536346111,642252286,0,0.016999774,0.263380259,0,77.21353149
195704,536346111,642252286,0,0.016740046,0.264258027,0,77.21640778
195714,536345087,642252286,0,0.017007155,0.264768481,0,77.21866608
195724,536346111,641203710,0,0.015671069,0.266228467,0,77.22175598
195734,536346111,641203710,0,0.015118467,0.266835511,0,77.22422028
195744,536346111,641203710,0,0.013931693,0.268809885,0,77.22727966
195754,536346111,641203710,0,0.013521968,0.26887092,0,77.22984314
195764,536346111,642252286,0,0.012024387,0.27103126,0,77.23384094
195774,536346111,641203710,0,0.010924486,0.271590054,0,77.23538971
195784,536346111,641203710,0,0.009820496,0.274288565,0,77.23864746
195794,536345087,641203710,0,0.009945529,0.274720073,0,77.24092865
195804,536345087,641203710,0,0.00929883,0.276710004,0,77.24521637
195814,536346111,641204734,0,0.008608597,0.276939094,0,77.24692535
195824,536346111,641204734,0,0.007765242,0.278484255,0,77.24979401
195834,536346111,641204734,0,0.007065301,0.27930209,0,77.25223541
195844,536346111,641204734,0,0.006039121,0.280869246,0,77.25605774
195854,536346111,641203710,0,0.005699672,0.281345844,0,77.25881195
195864,536346111,642252286,0,0.004282219,0.281407326,0,77.26252747
195874,536346111,642252286,0,0.004052269,0.281001925,0,77.26464081
195884,536345087,642252286,0,0.003480599,0.28157869,0,77.26847839
195894,536346111,641203710,0,0.003517115,0.282049894,0,77.27145386
195904,536345087,641204734,0,0.003920037,0.281803489,0,77.27406311
195914,536345087,641204734,0,0.003996534,0.282085449,0,77.27690887
195924,536345087,641204734,0,0.003674105,0.283169657,0,77.28137207
195934,536345087,641204734,0,0.00379113,0.283808231,0,77.28324127
195944,536346111,641203710,0,0.003927201,0.285159975,0,77.28757477
195954,536346111,642252286,0,0.003460576,0.285366684,0,77.29031372
195964,536346111,642252286,0,0.002733798,0.285006464,0,77.29440308
195974,536345087,642252286,0,0.0025386,0.284291238,0,77.29647064
195984,536346111,641203710,0,0.001952488,0.28413707,0,77.30023193
195994,536345087,641203710,0,0.001497355,0.284733981,0,77.30349731
196004,536346111,641204734,0,0.001112793,0.285328805,0,77.30849457
196014,536346111,641203710,0,0.000545615,0.285808206,0,77.31138611
196024,536346111,641204734,0,-0.000131382,0.285208017,0,77.31562042
196034,536345087,641203710,0,-0.000121649,0.285755664,0,77.31864929
196044,536346111,641203710,0,-0.000525344,0.285344183,0,77.32271576
196054,536345087,642252286,0,-0.000825556,0.285712957,0,77.32483673
196064,536346111,642253310,0,-0.000239952,0.287253052,0,77.32932281
196074,536345087,641203710,0,-0.000657505,0.287799239,0,77.33185577
196084,536345087,641203710,0,-0.000644929,0.287795335,0,77.33641815
196094,536345087,641203710,0,-0.000399688,0.288109332,0,77.33955383
196104,536346111,641203710,0,0.000139265,0.289594084,0,77.34449768
196114,536346111,641203710,0,-0.000180748,0.290248901,0,77.34799957
196124,536344064,642255360,0,0.002189502,0.293265551,0,77.35249329
196134,536343038,641228320,0,0.038698588,0.320725501,0,77.3682251
196144,502789630,642289209,0,0.161162332,0.391487807,0,77.24772644
196154,496501248,638089763,0,0.233600393,0.448068529,0,77.03439331
196164,512229885,637025798,0,0.283186287,0.512478113,0,76.77074432
196174,504888831,642219500,0,0.264662296,0.497608662,0,76.65932465
196184,486014463,640116202,0,0.213268861,0.402940571,0,76.31136322
196194,479721983,641187318,0,0.182593018,0.358396679,0,76.02537537
196204,491256318,640155131,0,0.172385693,0.336877018,0,75.60894012
196214,498597374,641197559,0,0.166019812,0.331714988,0,75.39376831
196224,504888829,639081955,0,0.110308357,0.284492373,0,75.09908295
196234,542638589,641182166,0,0.0446386,0.238267124,0,75.02534485
196244,558367229,642238955,0,-0.038718078,0.177654639,0,75.14561462
196254,566755838,643296769,0,-0.059902217,0.152890712,0,75.28939056
196264,576190975,644348426,0,-0.040760193,0.145096257,0,75.56759644
196274,582482431,640156179,0,-0.014859013,0.146045268,0,75.79547882
196284,590871039,640143886,0,0.039223142,0.137265429,0,76.20735168
196294,583529983,641179148,0,0.067027569,0.10632468,0,76.48809052
196304,557316606,643268109,0,0.108411863,0.036810372,0,76.79114532
196314,535296511,641178120,0,0.133500114,-0.011254436,0,76.83441925
196324,517470718,644333061,0,0.157996535,-0.067651875,0,76.75748444
196334,505935359,641200637,0,0.162698761,-0.085975848,0,76.6113739
196344,509082110,640155128,0,0.158528775,-0.084377088,0,76.38523102
196354,514324990,643302901,0,0.147763923,-0.08144673,0,76.24972534
196364,521666048,642262517,0,0.121704124,-0.067855433,0,76.10812378
196374,520616446,640168440,0,0.106372364,-0.045990322,0,76.03165436
196384,522714622,638071292,0,0.09953887,-0.020399852,0,75.91558838
196394,525858302,639119867,0,0.089356646,0.010105397,0,75.8459549
196404,525857279,641219066,0,0.083050989,0.039804544,0,75.76689911
196414,531102206,640183817,0,0.090046249,0.081503175,0,75.72392273
196424,542639617,641234439,0,0.12268842,0.157559499,0,75.72969055
196434,563608062,641221115,0,0.12254741,0.198079735,0,75.82258606
196444,557316607,641207808,0,0.120929055,0.217084005,0,76.0293808
196454,537394687,640151045,0,0.12890169,0.2201491,0,76.09990692
196464,510131711,642245120,0,0.140565738,0.204981506,0,76.02113342
196474,483916287,640150008,0,0.137427807,0.193143189,0,75.79998016
196484,483915262,639109619,0,0.107137538,0.190742403,0,75.36431122
196494,491257343,642258419,0,0.088677071,0.198895887,0,75.10123444
196504,496499199,641208819,0,0.059074666,0.215658247,0,74.76498413
196514,499645950,641206773,0,0.038568132,0.216889992,0,74.55664825
196524,516422142,640160246,0,0.010950884,0.219469011,0,74.32312775
196534,534247934,640162295,0,-0.002017122,0.231907308,0,74.26195526
196544,536346111,642253309,0,-0.014561536,0.241566971,0,74.26869202
196554,537393663,641203711,0,-0.014774956,0.241657019,0,74.27010345
196564,536346111,642252286,0,-0.014294289,0.24099791,0,74.27281952
196574,536346111,641203710,0,-0.015033898,0.241924569,0,74.27658081
196584,536346111,642252286,0,-0.016094096,0.240751565,0,74.27946472
196594,536346111,641203710,0,-0.016249422,0.240590975,0,74.28217316
196604,536345087,641204735,0,-0.016021676,0.24135524,0,74.28600311
196614,539489791,641207810,0,-0.006663322,0.249372199,0,74.29520416
196624,540541439,641217033,0,0.01058878,0.265215516,0,74.31510925
196634,546831869,641213961,0,0.027040403,0.285111278,0,74.36741638
196644,517472766,642237949,0,0.030393677,0.269960672,0,74.34848785
196654,512228863,641194485,0,0.017889226,0.243754879,0,74.21227264
196664,527957502,641199602,0,-0.0172993,0.223900884,0,74.07582855
196674,538443263,644349430,0,-0.045232859,0.211996645,0,74.06123352
196684,613937660,641206740,0,-0.070417836,0.21509394,0,74.28885651
196694,653785597,640137699,0,-0.125500187,0.18289499,0,74.88568878
196704,656929277,640145920,0,-0.14296627,0.125950098,0,75.84513092
196714,674760183,633862667,0,-0.116601758,0.098236628,0,76.54795074
196724,586683896,640159280,0,-0.084777176,0.022574173,0,77.40370941
196734,552071681,650654225,0,-0.02770197,0.030048458,0,77.5280304
196744,546828801,644353534,0,0.013103741,0.076305181,0,77.63479614
196754,551023106,641201658,0,0.020964431,0.090319365,0,77.69622803
196764,567802367,641196538,0,0.021033961,0.098418906,0,77.87195587
196774,586676736,642245118,0,0.018608209,0.085666195,0,78.09061432
196784,605551102,642248197,0,0.031144306,0.074865527,0,78.57939911
196794,623376897,641205766,0,0.046968777,0.078396261,0,78.9982605
196804,634912255,640159233,0,0.066688344,0.095511466,0,79.74943542
196814,653786623,638062077,0,0.052936088,0.104729965,0,80.33449554
196824,650640894,641208826,0,0.044852324,0.122885443,0,81.25720978
196834,639105535,641212926,0,0.043969959,0.130075097,0,81.84677887
196844,621280768,642259454,0,0.047436047,0.155094936,0,82.6281662
196854,603455999,641209848,0,0.03881767,0.167632356,0,83.02791595
196864,588774910,643301880,0,0.015052481,0.171058863,0,83.52033234
196874,573046271,643301888,0,0.004410022,0.16792655,0,83.7644577
196884,566753791,641201660,0,0.008251128,0.171717957,0,84.02793884
196894,568851966,640154105,0,-0.003332214,0.166711152,0,84.20262146
196904,569901566,640156152,0,-0.024615368,0.166756287,0,84.45372772
196914,580386302,641206777,0,-0.042656034,0.166797996,0,84.66296387
196924,566752767,641202691,0,-0.03286146,0.167115957,0,84.96195221
196934,577239552,641206779,0,-0.029170269,0.170355648,0,85.16038513
196944,577239551,642253307,0,-0.031502042,0.182523996,0,85.48954773
196954,579337728,642251263,0,-0.047980815,0.180544347,0,85.75353241
196964,586677758,640156154,0,-0.046615869,0.187873095,0,86.09816742
196974,590871039,642253308,0,-0.055224273,0.18736282,0,86.39382172
196984,587727359,641203710,0,-0.053231332,0.188405424,0,86.82688904
196994,594016767,641205753,0,-0.060406603,0.197329774,0,87.11814117
197004,592968191,639109629,0,-0.056362785,0.209704161,0,87.57115173
197014,600309248,641205759,0,-0.06460996,0.224161267,0,87.89421082
197024,595065344,641205758,0,-0.04986003,0.234103873,0,88.37490082
197034,598211072,642256384,0,-0.047740422,0.242994547,0,88.71062469
197044,590872064,640164356,0,-0.025097072,0.275458306,0,89.17347717
197054,577237503,642258436,0,-0.00560613,0.300150692,0,89.44963074
197064,585629185,644356607,0,0.007625571,0.324744523,0,89.80137634
197074,581433856,643307007,0,0.010513783,0.344108194,0,90.04928589
197084,587725312,640162303,0,0.014733882,0.376603872,0,90.4339447
197094,587727360,639114762,0,0.01584466,0.391534477,0,90.72257233
197104,584580607,639110667,0,0.050727841,0.424934715,0,91.13584137
197114,577240576,640147968,0,0.063636415,0.428466856,0,91.36331177
197124,568851968,641190395,0,0.054732412,0.401312351,0,91.67098999
197134,560462334,642241020,0,0.050618261,0.38060689,0,91.82518005
197144,551026176,642241019,0,0.044192534,0.355209112,0,91.98672485
197154,546831870,642239995,0,0.032072131,0.337072372,0,92.05601501
197164,541588991,641191419,0,0.020351684,0.30196923,0,92.12799835
197174,535297534,641198590,0,0.014294292,0.280327559,0,92.13418579
197184,535297535,641203710,0,0.011891006,0.277460873,0,92.13298798
197194,536346111,640157183,0,0.009048034,0.277260184,0,92.13020325
197204,535297535,641204734,0,0.006708484,0.278362393,0,92.12998962
197214,536346111,641203710,0,0.005480008,0.280806005,0,92.13072968
197224,536346111,642253310,0,0.002323975,0.280349463,0,92.12919617
197234,536346111,642253310,0,0.000334555,0.279694974,0,92.12931824
197244,535297535,642252286,0,-0.002387807,0.279813141,0,92.13006592
197254,536346111,642252287,0,-0.003101605,0.28014338,0,92.12995148
197264,536346111,641204734,0,-0.004358153,0.280292749,0,92.12979889
197274,536346110,641203711,0,-0.00476419,0.28024295,0,92.12934113
197284,536346111,641204734,0,-0.00622766,0.280572861,0,92.12953186
197294,536346111,641204735,0,-0.008453644,0.281951725,0,92.12850189
197304,535297535,641203710,0,-0.010419484,0.282986611,0,92.12807465
197314,536346111,642252287,0,-0.01237038,0.282716304,0,92.12821198
197324,536346111,642252286,0,-0.015288516,0.281328321,0,92.12740326
197334,536346111,642252287,0,-0.017835181,0.281300277,0,92.12578583
197344,536346111,642252286,0,-0.019342147,0.282240301,0,92.12606812
197354,536346111,641203711,0,-0.021336408,0.282913119,0,92.12528992
197364,536346111,641204734,0,-0.02137774,0.28276813,0,92.12610626
197374,536346111,641204735,0,-0.022705536,0.283831209,0,92.12633514
197384,536346111,641203710,0,-0.024316125,0.284674793,0,92.12722778
197394,536346111,641204735,0,-0.026873671,0.285631478,0,92.12628937
197404,536346111,641203710,0,-0.029456537,0.285787702,0,92.12624359
197414,536346111,642252287,0,-0.031552337,0.28625828,0,92.12562561
197424,536346111,642252286,0,-0.032744534,0.285964906,0,92.1257019
197434,536346111,642252287,0,-0.035087436,0.286607206,0,92.12405396
197444,536346111,641204734,0,-0.035934508,0.287806988,0,92.12409973
197454,536346111,641203710,0,-0.037347045,0.289010584,0,92.12381744
197464,536346111,641204734,0,-0.039113276,0.288997114,0,92.12475586
197474,536346111,641204735,0,-0.0410464,0.289632976,0,92.1244812
197484,536346111,641204734,0,-0.04349941,0.290213943,0,92.12559509
197494,536346111,641204734,0,-0.045834046,0.290562361,0,92.12530518
197504,536346111,642253310,0,-0.047694754,0.291284889,0,92.12500763
197514,536346111,642252286,0,-0.049725447,0.292072773,0,92.12504578
197524,536346111,642252286,0,-0.051566806,0.292178988,0,92.12626648
197534,536346111,641204734,0,-0.054060433,0.292194963,0,92.12579346
197544,536346111,641204734,0,-0.055363305,0.291971087,0,92.12675476
197554,536346111,641203711,0,-0.056367401,0.292660713,0,92.12630463
197564,536346111,641203710,0,-0.057983335,0.29216665,0,92.12683868
197574,536346111,641203710,0,-0.060108218,0.29271844,0,92.12682343
197584,536346111,641204734,0,-0.06192679,0.29241097,0,92.12650299
197594,536346111,642252286,0,-0.0633476,0.291620553,0,92.12657166
197604,536346111,642252286,0,-0.064910159,0.291651487,0,92.12614441
197614,535297535,641203710,0,-0.066425242,0.292060137,0,92.12554932
197624,536346111,641203710,0,-0.067454539,0.290736586,0,92.1243515
197634,536346111,641203710,0,-0.069005221,0.29031381,0,92.12376404
197644,536346111,641204734,0,-0.071034223,0.290307343,0,92.12444305
197654,536346111,641203710,0,-0.073179267,0.290218532,0,92.1247406
197664,536346111,641204734,0,-0.075117283,0.289910704,0,92.12483978
197674,536346111,641204734,0,-0.077116087,0.289685339,0,92.12529755
197684,536346111,641203710,0,-0.079048663,0.288833946,0,92.12507629
197694,536346111,641203710,0,-0.080542512,0.288273364,0,92.12522125
197704,536346111,642252286,0,-0.081819117,0.287973732,0,92.12419891
197714,536346111,642252286,0,-0.082995541,0.287726372,0,92.12352753
197724,536346111,641204735,0,-0.084273957,0.28785497,0,92.1227951
197734,536346111,641204734,0,-0.084555387,0.28857246,0,92.12217712
197744,536346111,641204734,0,-0.086577348,0.289111197,0,92.12227631
197754,536346111,641204734,0,-0.088145964,0.289716274,0,92.12327576
197764,536346111,641203710,0,-0.089684471,0.289424032,0,92.12252045
197774,536346111,641203710,0,-0.091287732,0.289154679,0,92.12281036
197784,536346111,641203711,0,-0.093734361,0.288747966,0,92.12159729
197794,536346111,641203710,0,-0.094895877,0.288740128,0,92.1215744
197804,536346111,641203710,0,-0.095505424,0.287968099,0,92.12096405
197814,536346111,641203710,0,-0.09687677,0.288317174,0,92.12139893
197824,536346111,641204734,0,-0.098927818,0.288706809,0,92.12155914
197834,536346111,641204734,0,-0.099881686,0.288218081,0,92.12295532
197844,536346111,641203710,0,-0.101304501,0.288231015,0,92.12319183
197854,536346111,641203710,0,-0.101465747,0.28776136,0,92.1232605
197864,536346111,641203710,0,-0.10328263,0.287590504,0,92.12252045
197874,536346111,641204734,0,-0.10427136,0.287828892,0,92.12248993
197884,536346111,641203710,0,-0.10658513,0.288057536,0,92.12304688
197894,536346111,641203710,0,-0.107659914,0.288016856,0,92.12256622
197904,536346111,641203711,0,-0.10953439,0.287092149,0,92.12213135
197914,536346111,642253310,0,-0.11087539,0.287383944,0,92.12181091
197924,536346111,641203711,0,-0.113270015,0.28725934,0,92.12113953
197934,536346111,641203710,0,-0.113522634,0.287572861,0,92.12067413
197944,536346111,641204734,0,-0.114968851,0.287308782,0,92.11985016
197954,536346111,641203710,0,-0.115549587,0.287102401,0,92.11904144
197964,536346111,641203710,0,-0.116673276,0.286046147,0,92.11830139
197974,536346111,641203710,0,-0.117244527,0.285578817,0,92.11914063
197984,536346111,641204735,0,-0.119247653,0.285604298,0,92.11901855
197994,536346111,641204734,0,-0.120531462,0.286334991,0,92.11904144
198004,536346111,641203710,0,-0.123225473,0.285961032,0,92.11771393
198014,536346111,641203710,0,-0.124613076,0.285994262,0,92.11830139
198024,536346111,641203710,0,-0.125689998,0.286936283,0,92.11910248
198034,536346111,641204734,0,-0.126555666,0.287149936,0,92.11901855
198044,536346111,641204734,0,-0.12806277,0.286469609,0,92.11915588
198054,536346111,641203710,0,-0.129359573,0.286387295,0,92.11860657
198064,536346111,641203710,0,-0.131670639,0.286801547,0,92.1177597
198074,536346111,641204734,0,-0.132039219,0.287133008,0,92.11819458
198084,536346111,641203710,0,-0.133860171,0.287261963,0,92.11935425
198094,536346111,641204734,0,-0.134663269,0.287445813,0,92.11954498
198104,536346111,641203710,0,-0.13719964,0.287328184,0,92.11925507
198114,536346111,641203710,0,-0.137483165,0.287094831,0,92.12045288
198124,536346111,641203710,0,-0.138749272,0.28800109,0,92.12010193
198134,536346111,641203711,0,-0.138988107,0.287860543,0,92.12063599
198144,536346111,641204734,0,-0.140630275,0.288473248,0,92.12036896
198154,536346111,641203710,0,-0.14169246,0.289269596,0,92.12024689
198164,536346111,641203710,0,-0.142965764,0.289877474,0,92.11959839
198174,536346111,641203710,0,-0.143750042,0.28948611,0,92.11907196
198184,536346111,641203710,0,-0.145196304,0.289383918,0,92.11762238
198194,536346111,641203710,0,-0.146572828,0.288506418,0,92.11778259
198204,536346111,641204734,0,-0.148362011,0.288921058,0,92.11756897
198214,536346111,641203710,0,-0.148870215,0.287568361,0,92.11647034
198224,536346111,641203710,0,-0.149024427,0.286737919,0,92.11670685
198234,536346111,641203710,0,-0.149993718,0.286579996,0,92.11739349
198244,536346111,641203710,0,-0.151410922,0.286017329,0,92.11815643
198254,536346111,641204734,0,-0.152384251,0.286027163,0,92.11833954
198264,536346111,641203710,0,-0.153788298,0.286268055,0,92.11898041
198274,536346111,641203710,0,-0.155136317,0.286936551,0,92.11830139
198284,536346111,641203710,0,-0.156736195,0.286570936,0,92.11768341
198294,536346111,641203710,0,-0.158477232,0.286044508,0,92.11761475
198304,536346111,641203710,0,-0.160121679,0.286010355,0,92.11867523
198314,536346111,641203710,0,-0.160896048,0.286830127,0,92.11864471
198324,536346111,641204734,0,-0.161933795,0.286739737,0,92.11949158
198334,536346111,641204734,0,-0.163430497,0.287163913,0,92.12020874
198344,536346111,641203710,0,-0.164922163,0.287909895,0,92.12004852
198354,536346111,641203710,0,-0.165462658,0.287764996,0,92.11956787
198364,536346111,641203710,0,-0.166773558,0.287511081,0,92.11934662
198374,536346111,641203710,0,-0.16745685,0.286874175,0,92.11883545
198384,536346111,642252286,0,-0.168967158,0.286286235,0,92.11885834
198394,536346111,641203710,0,-0.170534506,0.286306947,0,92.11878967
198404,536346111,641203710,0,-0.172933862,0.285778582,0,92.11855316
198414,536346111,641204734,0,-0.173863634,0.284611553,0,92.11842346
198424,536346111,641203710,0,-0.175921351,0.285639286,0,92.11771393
198434,536346111,641203710,0,-0.176974103,0.285885632,0,92.11745453
198444,536346111,641203710,0,-0.178709745,0.285389185,0,92.11776733
198454,536346111,641203710,0,-0.179789305,0.285506457,0,92.11759186
198464,536346111,641203710,0,-0.180887535,0.285347104,0,92.11663055
198474,536346111,641203710,0,-0.1803689,0.285154104,0,92.11608124
198484,536346111,641203710,0,-0.180807114,0.284488291,0,92.11746979
198494,536346111,641203710,0,-0.18225041,0.283625573,0,92.11904144
198504,535297535,641203710,0,-0.184499115,0.283337563,0,92.11847687
198514,536346111,641204734,0,-0.185722008,0.283599645,0,92.11801147
198524,536346111,641203710,0,-0.188086033,0.284023553,0,92.1184845
198534,537393663,642252286,0,-0.188411415,0.282336116,0,92.12180328
198544,538442239,641203710,0,-0.188926458,0.286322176,0,92.13928223
198554,545783295,641200638,0,-0.189730749,0.282432795,0,92.17649841
198564,546833919,644348417,1062027851,-0.192647427,0.275773436,22528,92.25993347
198574,547907071,654835201,1329674840,-0.265437692,0.274414599,38400,92.32343292
198584,546892286,656934402,1580805226,-0.635799408,0.27741468,53760,92.41233826
198594,542706172,644352514,1614295141,-0.999644935,0.268750757,53760,92.46179962
198604,539546111,633865725,1547253347,-1.507585406,0.264086366,53760,92.50292206
198614,538484223,634913274,1513962077,-1.760146022,0.269120008,22528,92.51369476
198624,539538941,644349438,1631072613,-2.117578268,0.256933302,22528,92.5459671
198634,543750654,650638848,1731340653,-2.419249773,0.254928619,22528,92.58662415
198644,543772155,649592319,1932008058,-3.039504766,0.237791583,22528,92.64836884
198654,546927100,645399037,1982208123,-3.532550335,0.236173362,22528,92.70586395
198664,552167933,641204727,1881543558,-4.307470322,0.212972015,22528,92.81502533
198674,551114230,639108587,1999311737,-4.830030918,0.203865737,22528,92.89659119
198684,561595880,641209828,2050293890,-5.576994419,0.100302026,22528,93.06893921
198694,566835666,644352491,2218393718,-6.041127682,-0.079975277,22528,93.22123718
198704,577313206,647494132,2287140983,-6.665380955,-0.555925369,22528,93.52050018
198714,582546839,651685364,2505834593,-7.036890984,-1.044410229,22528,93.75146484
198724,574147966,655880689,2641494105,-7.533051968,-2.004415751,22528,94.08001709
198734,574146915,657976814,2859270223,-7.838298321,-2.813755512,22528,94.27423859
198744,579386698,651682289,2742288476,-8.271331787,-4.199488163,22528,94.5654068
198754,585663812,643290611,2725576785,-8.530950546,-5.237150192,22528,94.81617737
198764,600351030,638044656,2508324968,-8.876888275,-6.841861248,22528,95.24638367
198774,595115321,631754221,2792423520,-9.168946266,-7.937194347,22528,95.55014038
198784,590926137,626515436,2742354037,-9.658894539,-9.529211044,22528,95.96910095
198794,560504135,638034422,3043098715,-9.921024323,-10.56587219,22528,96.08900452
198804,542664009,646415863,3009675345,-10.19962502,-12.11671162,22528,96.16294098
198814,531127627,647462381,3109945422,-10.29592514,-13.16398811,22528,96.12940979
198824,512283998,644317677,3477667913,-10.6011219,-14.65981388,22528,95.93040466
198834,510216553,639075824,3377332302,-10.94171715,-15.59494209,22528,95.69176483
198844,510208358,626497004,3594649666,-11.52510643,-16.94595718,22528,95.28620148
198854,511234400,617057765,3410821197,-11.84415245,-17.88529396,22528,95.04665375
198864,505981255,616007133,3611295808,-12.19328022,-19.43281364,22528,94.6971283
198874,497587524,631731680,3511025734,-12.36047554,-20.56010818,22528,94.43645477
198884,495497560,642214381,3744989240,-12.56474304,-22.13695908,22528,94.00159454
198894,495505801,640117237,3561226308,-12.71482754,-22.99879265,22528,93.69326782
198904,494427594,640125419,3544449066,-12.87402248,-23.75449371,22528,93.24284363
198914,502790649,640129513,3310485558,-12.83993053,-23.90398026,22528,93.03762817
198924,519556619,648521197,3460890693,-12.69561195,-23.81642532,22528,92.88948822
198934,543698440,648518121,3343908944,-12.69278717,-23.71676254,22528,92.87684631
198944,547900933,645372387,3310551123,-12.8547945,-23.61229324,22528,92.90881348
198954,555195913,641171945,3009675332,-12.89287853,-23.5565815,22528,92.98495483
198964,550953499,633824749,2608660543,-12.53305912,-23.31827545,22528,93.29695129
198974,541469237,634873325,2625372201,-12.02631378,-23.00385857,22528,93.58891296
198984,533093950,629624300,2642083896,-11.14227772,-22.43889618,22528,93.9679718
198994,525778481,650597878,3009675321,-10.63011169,-22.08096313,22528,94.1195755
199004,532077056,663187958,2642018356,-10.02123356,-21.81918335,22528,94.3052063
199014,539397563,633828848,2625372204,-9.567415237,-21.97568893,22528,94.48513031
199024,565617032,646415851,2374697036,-8.91116333,-22.73467445,22528,94.92129517
199034,583500174,657944040,3009675364,-8.710042953,-23.33296967,22528,95.24725342
199044,595022232,627528168,2073886806,-8.641907692,-24.15385056,22528,95.79607391
199054,593926572,643257827,2023686197,-8.445092201,-24.60545731,22528,96.23777008
199064,581311949,621229541,1589182531,-7.80091238,-25.07534409,22528,97.02366638
199074,572944876,628570601,2357985347,-7.358293056,-25.20150757,22528,97.48265076
199084,564596215,627519977,2508324961,-6.889249802,-25.25699043,22528,98.00289917
199094,564599260,617030125,2391408708,-6.694467545,-25.37590599,22528,98.26737976
199104,556230081,624369133,2441478229,-6.433591843,-25.79301071,22528,98.61193085
199114,545786304,640104942,2992963681,-6.394845963,-26.1445179,22528,98.72520447
199124,534287817,633817583,3160080475,-6.597418785,-26.64332008,22528,98.66843414
199134,532185558,617037297,3126722654,-6.765067101,-26.93798065,22528,98.55769348
199144,534273505,625422833,3109945431,-6.989700794,-27.25539017,22528,98.40971375
199154,535336419,642203121,3109945438,-7.128115177,-27.42057228,22528,98.3312912
199164,530103764,629623275,3243704407,-7.448495388,-27.74172401,22528,98.1396637
199174,522756549,628571629,3193569370,-7.67019701,-28.05830383,22528,97.96206665
199184,522726857,636957174,3226927186,-7.793878078,-28.56225395,22528,97.76641846
199194,525855197,629618162,3009675343,-7.773671627,-28.83581352,22528,97.69738007
199204,521667059,634864105,3243638869,-7.716406345,-29.03242874,22528,97.61975861
199214,513275393,626467313,3059875914,-7.674494267,-29.07610893,22528,97.5255661
199224,504871426,635910648,3143368769,-7.508137226,-29.05506325,22528,97.36573792
199234,497511938,623325688,2959605816,-7.251470566,-29.07139206,22528,97.28183746
199244,490173961,632762862,3176857654,-6.820544243,-29.0375576,22528,97.12459564
199254,480734749,641151468,3076522036,-6.520820141,-28.94482803,22528,96.98844147
199264,467082809,639043057,3043164185,-5.98969698,-28.59291458,22528,96.71305084
199274,446058077,630661614,2692157702,-5.354140759,-28.18646049,22528,96.57519531
199284,425045636,632757749,2558539008,-4.033394337,-27.24111748,22528,96.3535614
199294,408268447,634861046,2692164608,-2.972976446,-26.42181396,22528,96.15930176
199304,398824099,619137527,2658619648,-1.388716578,-25.062397,22528,95.73394775
199314,395672210,630684160,2558542336,-0.258270234,-24.20453072,22528,95.43377686
199324,405097104,610772484,2324521728,1.48222959,-22.96481705,22528,94.99874878
199334,418746018,627557894,2256751104,2.576166391,-22.04278183,22528,94.73352051
199344,439733951,614968844,1836148992,4.105821133,-20.4901638,22528,94.41186523
199354,449173205,606566913,1450928384,4.960291862,-19.32312393,22528,94.21173859
199364,442878684,628588030,1365804544,6.272078037,-17.46012497,22528,93.90454102
199374,431338200,621244936,1366981888,7.20172596,-16.22663498,22528,93.63292694
199384,420871884,616003084,1633523712,8.538991928,-14.39643669,22528,93.08109283
199394,414590648,629647886,1785623552,9.371580124,-13.24083328,22528,92.62708282
199404,416708264,616019470,1951963648,10.4902401,-11.63449001,22528,91.85621643
199414,430355111,620216841,1734571264,11.0999403,-10.59023094,22528,91.34860992
199424,441893556,627561991,1414375680,11.87832165,-8.974978447,22528,90.65253448
199434,452387515,607630863,1398964736,12.36829472,-7.839802742,22528,90.2310257
199444,460786344,629650966,1616678912,13.00389099,-6.182561874,22528,89.66079712
199454,460813938,619167252,2105235200,13.33283997,-5.294974327,22528,89.28790283
199464,456642106,622320142,2758302208,13.55685902,-4.43163681,22528,88.6696167
199474,456673826,630708752,2491435520,13.515625,-4.083200932,22528,88.22375488
