Timestamp,compactImu.a_xyz,compactImu.l_xyz,motorCompact.pwms,stabilizer.pitch,stabilizer.roll,stabilizer.thrust,stabilizer.yaw
35377,536346111,641204735,0,0.023262949660420418,0.49721449613571167,0,-0.6260265707969666
35382,536346111,641204735,0,0.023234738036990166,0.4971114993095398,0,-0.6264158487319946
35385,535297535,641204735,0,0.023533469066023827,0.4970933794975281,0,-0.6270995140075684
35394,536346111,641204735,0,0.024057310074567795,0.4978894591331482,0,-0.6279222965240479
35397,536346111,641204735,0,0.02412554621696472,0.49801984429359436,0,-0.6279061436653137
35404,536346111,641204735,0,0.02415108121931553,0.4978637397289276,0,-0.6279551386833191
35406,536346111,641204735,0,0.024355771020054817,0.4975215196609497,0,-0.628082275390625
35414,536346111,641204735,0,0.024874147027730942,0.49696141481399536,0,-0.6282050609588623
35417,536346111,641204735,0,0.024703266099095345,0.4970872402191162,0,-0.6286929249763489
35421,536346111,642253311,0,0.025049423798918724,0.49722638726234436,0,-0.6291477084159851
35426,536346111,642253312,0,0.025579875335097313,0.497123122215271,0,-0.6293900609016418
35438,536346111,641204735,0,0.026200341060757637,0.49643611907958984,0,-0.6292068958282471
35441,536346111,641204735,0,0.026142509654164314,0.496246874332428,0,-0.6287322044372559
35446,536346111,641204735,0,0.02588566020131111,0.49644193053245544,0,-0.6284558176994324
35458,536346111,641204735,0,0.02590557187795639,0.496534138917923,0,-0.6283395886421204
35461,536346111,641204735,0,0.025635376572608948,0.4964057505130768,0,-0.6279042363166809
35464,536346111,641204735,0,0.025635376572608948,0.4964057505130768,0,-0.6279042363166809
35468,536346111,642253311,0,0.025321725755929947,0.4963066279888153,0,-0.6277630925178528
35474,536346111,641204735,0,0.024491678923368454,0.4964483380317688,0,-0.6275196671485901
35478,536346111,641204735,0,0.024216635152697563,0.4969349801540375,0,-0.6270385384559631
35481,536346111,641204735,0,0.023762773722410202,0.49681511521339417,0,-0.6268860101699829
35485,536346111,641204735,0,0.023409230634570122,0.49657320976257324,0,-0.6267280578613281
35488,536346111,641204735,0,0.023409230634570122,0.49657320976257324,0,-0.6267280578613281
35492,536346111,641204735,0,0.02331426367163658,0.4962879419326782,0,-0.626717746257782
35494,536346111,641204735,0,0.023144522681832314,0.4958658516407013,0,-0.6269872188568115
35497,536346111,642253311,0,0.023034632205963135,0.49588310718536377,0,-0.6273860931396484
35502,536346111,642253311,0,0.022581784054636955,0.49601292610168457,0,-0.6276951432228088
35505,536346111,642253311,0,0.022374629974365234,0.4961848556995392,0,-0.6280972957611084
35512,536346111,641204735,0,0.022219544276595116,0.49605879187583923,0,-0.6283151507377625
35515,536346111,641204735,0,0.02241585962474346,0.4959155321121216,0,-0.6285023093223572
35518,536346111,641204735,0,0.022269949316978455,0.49577781558036804,0,-0.6286284327507019
35524,536346111,641204735,0,0.02203846164047718,0.4957946538925171,0,-0.6284642219543457
35527,536346111,641204735,0,0.021867582574486732,0.4955342710018158,0,-0.628363847732544
35530,536346111,641204735,0,0.02198273129761219,0.49509087204933167,0,-0.628564715385437
35534,535297535,641204735,0,0.02225402742624283,0.49471279978752136,0,-0.629382848739624
35537,535297535,641204735,0,0.02199718728661537,0.4944894313812256,0,-0.6299972534179688
35541,536346111,642253311,0,0.021908065304160118,0.49410638213157654,0,-0.6302405595779419
35546,536346111,642253311,0,0.021940791979432106,0.4937449097633362,0,-0.6303823590278625
35548,536346111,642253311,0,0.021940791979432106,0.4937449097633362,0,-0.6303823590278625
35551,536346111,642253311,0,0.022045746445655823,0.49379998445510864,0,-0.6305546164512634
35555,536346111,642253311,0,0.021814895793795586,0.4935778081417084,0,-0.6304001808166504
35557,536346111,641204735,0,0.0221086535602808,0.4935700595378876,0,-0.6300886273384094
35561,536346111,641204735,0,0.022173000499606133,0.49377813935279846,0,-0.6305795907974243
35566,536346111,641204735,0,0.022401845082640648,0.4938243329524994,0,-0.6306757926940918
35578,536346111,641204735,0,0.021987691521644592,0.49452510476112366,0,-0.6300846338272095
35581,536346111,641204735,0,0.021496212109923363,0.49500972032546997,0,-0.6296340227127075
35586,536346111,641204735,0,0.021503746509552002,0.4954126477241516,0,-0.6295434832572937
35588,536346111,641204735,0,0.021503746509552002,0.4954126477241516,0,-0.6295434832572937
35591,536346111,641204735,0,0.02175416424870491,0.4957646429538727,0,-0.6298552751541138
35596,536346111,641204735,0,0.022183792665600777,0.4956192970275879,0,-0.630165696144104
35598,536346111,641204735,0,0.02228296548128128,0.49582481384277344,0,-0.6300424933433533
35601,536346111,641204735,0,0.022051243111491203,0.4962242841720581,0,-0.6304219961166382
35605,536346111,641204735,0,0.022114980965852737,0.4961182773113251,0,-0.6307547092437744
35614,535297535,641204735,0,0.022314611822366714,0.4969830811023712,0,-0.6321141719818115
35618,536346111,641204735,0,0.022217663004994392,0.4968889355659485,0,-0.6319183111190796
35620,536346111,641204735,0,0.022217663004994392,0.4968889355659485,0,-0.6319183111190796
35624,536346111,641204735,0,0.022074634209275246,0.49663659930229187,0,-0.6313021779060364
35627,536346111,641204735,0,0.022389383986592293,0.49663326144218445,0,-0.6310698986053467
35631,536346111,641204735,0,0.022807378321886063,0.4964750111103058,0,-0.6310219764709473
35637,536346111,641204735,0,0.022433100268244743,0.4960954189300537,0,-0.631460428237915
35645,536346111,641204735,0,0.021942010149359703,0.496433287858963,0,-0.6326103806495667
35648,536346111,641204735,0,0.021942010149359703,0.496433287858963,0,-0.6326103806495667
35651,536346111,641204735,0,0.021877458319067955,0.496559739112854,0,-0.6326600909233093
35658,536346111,641204735,0,0.021511157974600792,0.4966289699077606,0,-0.6329640746116638
35660,536346111,641204735,0,0.021511157974600792,0.4966289699077606,0,-0.6329640746116638
35664,536346111,641204735,0,0.02118031494319439,0.4966724216938019,0,-0.6330909729003906
35667,536346111,641204735,0,0.02076629363000393,0.4964623749256134,0,-0.6330811381340027
35674,536346111,641204735,0,0.020750930532813072,0.49597689509391785,0,-0.632538914680481
35677,536346111,641204735,0,0.02107400819659233,0.49643805623054504,0,-0.6321980953216553
35680,536346111,641204735,0,0.02107400819659233,0.49643805623054504,0,-0.6321980953216553
35682,536346111,641204735,0,0.021268684417009354,0.49658599495887756,0,-0.6321008801460266
35686,536345087,641204735,0,0.02200588956475258,0.4962252974510193,0,-0.6320943236351013
35696,535297535,641204735,0,0.02246488258242607,0.49569785594940186,0,-0.6326434016227722
35702,536346111,641204735,0,0.02213977836072445,0.49583446979522705,0,-0.6341136693954468
35706,536346111,641204735,0,0.022233616560697556,0.4960101544857025,0,-0.6343901753425598
35718,536346111,641204735,0,0.0218679029494524,0.4961215555667877,0,-0.6338534951210022
35721,536346111,641204735,0,0.021873880177736282,0.49594834446907043,0,-0.6342712044715881
35725,536346111,641204735,0,0.021721888333559036,0.49591195583343506,0,-0.634384274482727
35730,536346111,641204735,0,0.021845074370503426,0.4957464337348938,0,-0.634264349937439
35736,536346111,641204735,0,0.02232201397418976,0.4957106411457062,0,-0.6344821453094482
35740,536346111,641204735,0,0.022611936554312706,0.49572885036468506,0,-0.6347419619560242
35742,536346111,641204735,0,0.022670254111289978,0.49568554759025574,0,-0.6346859931945801
35745,536346111,641204735,0,0.02270779013633728,0.4952731430530548,0,-0.6350030303001404
35750,536346111,641204735,0,0.023142538964748383,0.4951139986515045,0,-0.634942352771759
35756,536346111,641204735,0,0.023499133065342903,0.4949893057346344,0,-0.6350667476654053
35765,536346111,641204735,0,0.023395629599690437,0.4957576096057892,0,-0.6355685591697693
35768,536346111,641204735,0,0.023395629599690437,0.4957576096057892,0,-0.6355685591697693
35772,536346111,641204735,0,0.02347940392792225,0.4956531524658203,0,-0.635586678981781
35774,536346111,641204735,0,0.02344280481338501,0.4960387945175171,0,-0.6359034776687622
35777,536346111,641204735,0,0.023601511493325233,0.4965001344680786,0,-0.6355987191200256
35782,536346111,641204735,0,0.02369818091392517,0.496715784072876,0,-0.6353578567504883
35784,536346111,641204735,0,0.02369818091392517,0.496715784072876,0,-0.6353578567504883
35786,536346111,641204735,0,0.023686762899160385,0.496425986289978,0,-0.635425865650177
35792,536346111,641204735,0,0.0239971075206995,0.4958448112010956,0,-0.635871171951294
35795,536346111,641204735,0,0.024230441078543663,0.49606019258499146,0,-0.6361505389213562
35797,536346111,641204735,0,0.024163352325558662,0.4961228668689728,0,-0.6362193822860718
35800,536346111,641204735,0,0.024163352325558662,0.4961228668689728,0,-0.6362193822860718
35804,536346111,641204735,0,0.024276772513985634,0.4962638020515442,0,-0.6365507245063782
35808,536346111,641204735,0,0.024421993643045425,0.49659252166748047,0,-0.6366499066352844
35811,536346111,641204735,0,0.024550506845116615,0.4968321919441223,0,-0.6364267468452454
35815,536346111,641204735,0,0.024261070415377617,0.4970840513706207,0,-0.6365558505058289
35817,536346111,641204735,0,0.024273861199617386,0.4969862401485443,0,-0.6367488503456116
35820,536346111,641204735,0,0.024273861199617386,0.4969862401485443,0,-0.6367488503456116
35827,536346111,641204735,0,0.024323085322976112,0.4969885051250458,0,-0.6366824507713318
35832,536346111,641204735,0,0.024311034008860588,0.496739000082016,0,-0.6368533372879028
35835,536346111,641204735,0,0.024541733786463737,0.4965387284755707,0,-0.6373117566108704
35841,536346111,642253311,0,0.024809803813695908,0.4960990846157074,0,-0.6373469233512878
35844,536346111,642253311,0,0.024809803813695908,0.4960990846157074,0,-0.6373469233512878
35848,536346111,641204735,0,0.02493145316839218,0.4959228038787842,0,-0.6374593377113342
35850,536346111,641204735,0,0.02478906884789467,0.49606120586395264,0,-0.6376346945762634
35855,536346111,641204735,0,0.024639783427119255,0.49577075242996216,0,-0.6374951004981995
35861,536346111,641204735,0,0.024243555963039398,0.4953500032424927,0,-0.637212336063385
35867,536346111,641204735,0,0.0240634772926569,0.4955376088619232,0,-0.6374353766441345
35877,535297535,641204735,0,0.024327119812369347,0.49625906348228455,0,-0.6380975842475891
35881,536346111,641204735,0,0.024471411481499672,0.49609342217445374,0,-0.6383852362632751
35886,536346111,641204735,0,0.0244996789842844,0.49553152918815613,0,-0.638895571231842
35890,536346111,642253311,0,0.024399785324931145,0.4952666759490967,0,-0.6390405893325806
35896,536346111,642253311,0,0.024439051747322083,0.4952114224433899,0,-0.6386347413063049
35905,536346111,642253311,0,0.024749640375375748,0.49445298314094543,0,-0.6387724876403809
35908,536346111,641204735,0,0.024749640375375748,0.49445298314094543,0,-0.6387724876403809
35912,536346111,641204735,0,0.025109389796853065,0.4941682815551758,0,-0.639209508895874
35914,536346111,641204735,0,0.025285109877586365,0.4938459098339081,0,-0.6396751403808594
35917,536346111,641204735,0,0.025390353053808212,0.49361661076545715,0,-0.6400279402732849
35922,536346111,641204735,0,0.02604963816702366,0.49317052960395813,0,-0.6403505802154541
35924,536346111,641204735,0,0.02604963816702366,0.49317052960395813,0,-0.6403505802154541
35927,536346111,641204735,0,0.026429016143083572,0.492822527885437,0,-0.6405627727508545
35930,536346111,642253311,0,0.02641092985868454,0.49248653650283813,0,-0.640714168548584
35934,536346111,642253311,0,0.026249298825860023,0.4922942817211151,0,-0.6408072113990784
35936,536346111,642253311,0,0.026249298825860023,0.4922942817211151,0,-0.6408072113990784
35945,536346111,641204735,0,0.02577836625277996,0.4927060306072235,0,-0.6413722634315491
35948,536346111,641204735,0,0.02577836625277996,0.4927060306072235,0,-0.6413722634315491
35951,536346111,641204735,0,0.026224778965115547,0.49278318881988525,0,-0.6415910720825195
35955,535297535,641204735,0,0.026597438380122185,0.4927211403846741,0,-0.6420029997825623
35957,535297535,641204735,0,0.026752859354019165,0.49258050322532654,0,-0.6426485180854797
35960,536346111,641204735,0,0.026752859354019165,0.49258050322532654,0,-0.6426485180854797
35967,536346111,641204735,0,0.027037428691983223,0.4929409921169281,0,-0.6426867842674255
35972,536346111,641204735,0,0.02728094719350338,0.4927617907524109,0,-0.6428125500679016
35976,536346111,641204735,0,0.027624262496829033,0.49244463443756104,0,-0.6428217887878418
35978,536346111,641204735,0,0.02806962840259075,0.49216869473457336,0,-0.6425504684448242
35981,536346111,641204735,0,0.02827904373407364,0.4925050139427185,0,-0.6428325176239014
35985,536346111,641204735,0,0.028593692928552628,0.4933573007583618,0,-0.6433456540107727
35987,536346111,641204735,0,0.028593692928552628,0.4933573007583618,0,-0.6433456540107727
35990,536346111,641204735,0,0.028889063745737076,0.49397873878479004,0,-0.6432559490203857
35997,536346111,641204735,0,0.02916286326944828,0.49389737844467163,0,-0.643378734588623
36002,536346111,641204735,0,0.029475105926394463,0.4940505623817444,0,-0.6434785723686218
36005,536346111,641204735,0,0.02973034419119358,0.4942801296710968,0,-0.6432867646217346
36011,536346111,641204735,0,0.02959144301712513,0.49475792050361633,0,-0.6431645154953003
36014,536346111,641204735,0,0.02957313321530819,0.49535077810287476,0,-0.6433568000793457
36018,536346111,641204735,0,0.02954178862273693,0.49595338106155396,0,-0.6435525417327881
36020,536346111,641204735,0,0.02954178862273693,0.49595338106155396,0,-0.6435525417327881
36026,536346111,641204735,0,0.029578452929854393,0.4963805377483368,0,-0.6437113881111145
36030,536346111,641204735,0,0.029507212340831757,0.4965418875217438,0,-0.6440033316612244
36032,536346111,641204735,0,0.029507212340831757,0.4965418875217438,0,-0.6440033316612244
36035,536346111,641204735,0,0.029388168826699257,0.4968048632144928,0,-0.6439885497093201
36038,536346111,641204735,0,0.02936233952641487,0.49715501070022583,0,-0.6440255045890808
36042,536346111,641204735,0,0.029082100838422775,0.497174471616745,0,-0.6442908644676208
36044,536346111,641204735,0,0.029082100838422775,0.497174471616745,0,-0.6442908644676208
36047,536346111,641204735,0,0.02893943525850773,0.49723488092422485,0,-0.6441152691841125
36051,536346111,641204735,0,0.029236288741230965,0.4969479739665985,0,-0.6439319849014282
36056,536346111,641204735,0,0.029556190595030785,0.4964870810508728,0,-0.6437296867370605
36062,536346111,642253311,0,0.029552314430475235,0.4960259795188904,0,-0.6435273289680481
36064,536346111,642253311,0,0.029552314430475235,0.4960259795188904,0,-0.6435273289680481
36068,536346111,642253311,0,0.029615510255098343,0.4960373640060425,0,-0.6434846520423889
36070,536346111,641204735,0,0.029758470132946968,0.4965219795703888,0,-0.643527626991272
36072,536346111,641204735,0,0.029758470132946968,0.4965219795703888,0,-0.643527626991272
36076,536346111,641204735,0,0.029992297291755676,0.4965931475162506,0,-0.643338143825531
36081,536346111,641204735,0,0.03003549575805664,0.4964665174484253,0,-0.6434493660926819
36084,536346111,641204735,0,0.03003549575805664,0.4964665174484253,0,-0.6434493660926819
36087,536346111,641204735,0,0.030010784044861794,0.4961978495121002,0,-0.643352746963501
36095,536346111,641204735,0,0.029356881976127625,0.4963574707508087,0,-0.643352210521698
36098,536346111,641204735,0,0.029211200773715973,0.49626943469047546,0,-0.6433984041213989
36102,536346111,641204735,0,0.029250426217913628,0.49616512656211853,0,-0.6432461738586426
36104,536346111,641204735,0,0.029250426217913628,0.49616512656211853,0,-0.6432461738586426
36108,536346111,641204735,0,0.02923518978059292,0.49626782536506653,0,-0.6430837512016296
36110,536346111,641204735,0,0.02919038012623787,0.49674925208091736,0,-0.6433736085891724
36114,536346111,641204735,0,0.02938985824584961,0.497129887342453,0,-0.643915593624115
36116,536346111,641204735,0,0.02938985824584961,0.497129887342453,0,-0.643915593624115
36122,536346111,641204735,0,0.02939203754067421,0.4975893497467041,0,-0.643070638179779
36126,536346111,641204735,0,0.02944873832166195,0.49749913811683655,0,-0.6423649787902832
36128,536346111,641204735,0,0.02944873832166195,0.49749913811683655,0,-0.6423649787902832
36131,536346111,641204735,0,0.02958611771464348,0.49748820066452026,0,-0.6422010064125061
36135,536346111,641204735,0,0.029592227190732956,0.49697422981262207,0,-0.641998827457428
36137,536346111,641204735,0,0.029835453256964684,0.4963310956954956,0,-0.6418495774269104
36140,536346111,641204735,0,0.029835453256964684,0.4963310956954956,0,-0.6418495774269104
36144,535297535,641204735,0,0.029756808653473854,0.4959608018398285,0,-0.6425312161445618
36146,535297535,641204735,0,0.029508844017982483,0.4957163333892822,0,-0.6433354020118713
36152,536346111,641204735,0,0.02984319068491459,0.4956077039241791,0,-0.6437167525291443
36156,536346111,641204735,0,0.030502181500196457,0.4959304630756378,0,-0.6438421607017517
36158,536346111,641204735,0,0.031149690970778465,0.49602288007736206,0,-0.6438713669776917
36161,536346111,641204735,0,0.03131378814578056,0.49630042910575867,0,-0.6437855958938599
36164,536346111,641204735,0,0.03131378814578056,0.49630042910575867,0,-0.6437855958938599
36168,536346111,641204735,0,0.031728170812129974,0.49651995301246643,0,-0.6438330411911011
36170,536346111,641204735,0,0.03200004994869232,0.4963419437408447,0,-0.6439177989959717
36178,536346111,641204735,0,0.03205149620771408,0.4956406354904175,0,-0.6441830992698669
36180,536346111,641204735,0,0.03205149620771408,0.4956406354904175,0,-0.6441830992698669
36187,536346111,641204735,0,0.03236797824501991,0.4957222640514374,0,-0.6449331641197205
36190,536346111,641204735,0,0.032004646956920624,0.49600502848625183,0,-0.6449726819992065
36192,536346111,641204735,0,0.032004646956920624,0.49600502848625183,0,-0.6449726819992065
36195,536346111,641204735,0,0.03168662637472153,0.496274471282959,0,-0.6445794105529785
36202,536346111,641204735,0,0.03133580833673477,0.49631360173225403,0,-0.6447277665138245
36204,536346111,641204735,0,0.03133580833673477,0.49631360173225403,0,-0.6447277665138245
36207,536346111,641204735,0,0.03103179857134819,0.4957888424396515,0,-0.6447128653526306
36210,536346111,641204735,0,0.030773047357797623,0.495341420173645,0,-0.6445879936218262
36212,536346111,641204735,0,0.030773047357797623,0.495341420173645,0,-0.6445879936218262
36216,536346111,641204735,0,0.0307063776999712,0.4954354166984558,0,-0.644686758518219
36221,536346111,641204735,0,0.030093686655163765,0.49605879187583923,0,-0.6449981927871704
36224,536346111,641204735,0,0.030093686655163765,0.49605879187583923,0,-0.6449981927871704
36227,536346111,642253311,0,0.030095037072896957,0.49628275632858276,0,-0.644619882106781
36231,535297535,641204735,0,0.03011154569685459,0.49620336294174194,0,-0.6450051665306091
36235,536346111,641204735,0,0.030425824224948883,0.4959442615509033,0,-0.6454817056655884
36246,536346111,641204735,0,0.03031201660633087,0.4953552782535553,0,-0.6452878713607788
36248,536346111,641204735,0,0.03031201660633087,0.4953552782535553,0,-0.6452878713607788
36252,536346111,641204735,0,0.030421163886785507,0.4954513907432556,0,-0.645489513874054
36255,536346111,641204735,0,0.03022819012403488,0.49554911255836487,0,-0.6453196406364441
36267,536346111,641204735,0,0.030428467318415642,0.49606937170028687,0,-0.6462079882621765
36275,536346111,641204735,0,0.03023720718920231,0.49606212973594666,0,-0.646384060382843
36282,535297535,641204735,0,0.03045761026442051,0.49600091576576233,0,-0.647354245185852
36285,536346111,641204735,0,0.030359730124473572,0.49655503034591675,0,-0.6478152871131897
36296,536346111,641204735,0,0.030161267146468163,0.4967995882034302,0,-0.6483977437019348
36301,536346111,641204735,0,0.03060944378376007,0.49673235416412354,0,-0.6489449739456177
36304,536346111,641204735,0,0.03060944378376007,0.49673235416412354,0,-0.6489449739456177
36308,536346111,641204735,0,0.03061707876622677,0.49668624997138977,0,-0.6491035223007202
36311,536346111,641204735,0,0.030477410182356834,0.4965277314186096,0,-0.6491342782974243
36315,536346111,641204735,0,0.03079311177134514,0.49683645367622375,0,-0.6492499709129333
36322,536346111,641204735,0,0.03153074532747269,0.4975529611110687,0,-0.6486980319023132
36325,536346111,641204735,0,0.03170115128159523,0.4977266192436218,0,-0.648360013961792
36337,536346111,641204735,0,0.03166484460234642,0.49854138493537903,0,-0.6481562256813049
36341,536346111,641204735,0,0.03173379972577095,0.49864256381988525,0,-0.6482056379318237
36345,536346111,642253311,0,0.03190028294920921,0.49845245480537415,0,-0.6482357978820801
36352,536346111,641204735,0,0.03185016289353371,0.49823588132858276,0,-0.6481568813323975
36355,536346111,642253311,0,0.03162189573049545,0.49834343791007996,0,-0.6479698419570923
36367,536346111,641204735,0,0.03157590329647064,0.4986203908920288,0,-0.647693395614624
36375,536346111,641204735,0,0.03182835131883621,0.49859264492988586,0,-0.6487436294555664
36387,536346111,641204735,0,0.032133132219314575,0.49854734539985657,0,-0.6490893959999084
36391,536346111,641204735,0,0.03199892118573189,0.4986012876033783,0,-0.6492074131965637
36395,536346111,641204735,0,0.03182312101125717,0.49804726243019104,0,-0.6489480137825012
36407,536346111,641204735,0,0.03155899420380592,0.49760615825653076,0,-0.6493213772773743
36410,535297535,641204735,0,0.031851377338171005,0.49725058674812317,0,-0.6498239636421204
36414,536346111,641204735,0,0.03206891939043999,0.49700504541397095,0,-0.650038480758667
36417,536346111,641204735,0,0.03209807723760605,0.49681010842323303,0,-0.6498645544052124
36421,536346111,641204735,0,0.03187600523233414,0.4968383312225342,0,-0.6499266028404236
36425,536346111,641204735,0,0.031684789806604385,0.4973489046096802,0,-0.6501256227493286
36437,536346111,641204735,0,0.03224438056349754,0.49750199913978577,0,-0.6495106220245361
36441,536346111,641204735,0,0.03216814249753952,0.49778494238853455,0,-0.649610161781311
36445,536346111,641204735,0,0.03190901130437851,0.49776747822761536,0,-0.6499248147010803
36457,536346111,642253311,0,0.03140963986515999,0.4975767731666565,0,-0.6508141160011292
36461,536346111,642253311,0,0.03152203932404518,0.49825918674468994,0,-0.6504960656166077
36465,535297535,642253311,0,0.03184805437922478,0.49846339225769043,0,-0.6511492133140564
36472,536346111,641204735,0,0.03174721822142601,0.4983768165111542,0,-0.6521056294441223
36475,536346111,641204735,0,0.0316888764500618,0.4983382523059845,0,-0.6522002220153809
36486,536346111,641204735,0,0.03208736330270767,0.4992847144603729,0,-0.6515579223632812
36497,536346111,641204735,0,0.03170555830001831,0.4978956878185272,0,-0.6515606641769409
36501,536346111,641204735,0,0.031415730714797974,0.4973897337913513,0,-0.6512463688850403
36505,536346111,641204735,0,0.03121507354080677,0.49717453122138977,0,-0.651134729385376
36512,536346111,641204735,0,0.03132736682891846,0.49710729718208313,0,-0.6508752107620239
36515,536346111,641204735,0,0.03162067383527756,0.49742671847343445,0,-0.6505632996559143
36518,536346111,641204735,0,0.03144964203238487,0.4976666569709778,0,-0.6506500840187073
36521,536346111,641204735,0,0.03138281777501106,0.4977538585662842,0,-0.6507666707038879
36525,536346111,641204735,0,0.031665172427892685,0.49787482619285583,0,-0.6506254076957703
36532,536346111,641204735,0,0.03152108192443848,0.4978816509246826,0,-0.6504389643669128
36534,536346111,641204735,0,0.031561996787786484,0.49778223037719727,0,-0.6505646705627441
36537,536346111,641204735,0,0.03163589537143707,0.4980182647705078,0,-0.6507534384727478
36540,536346111,641204735,0,0.03163589537143707,0.4980182647705078,0,-0.6507534384727478
36547,536346111,641204735,0,0.031101126223802567,0.4987592101097107,0,-0.650830864906311
36551,536346111,641204735,0,0.031476233154535294,0.49870020151138306,0,-0.6509532332420349
36555,535297535,641204735,0,0.03160438686609268,0.49880921840667725,0,-0.6516405344009399
36567,536346111,641204735,0,0.031249165534973145,0.4983424246311188,0,-0.6528023481369019
36570,536346111,641204735,0,0.03143823891878128,0.4983944594860077,0,-0.6529071927070618
36577,536346111,641204735,0,0.031907886266708374,0.4990028738975525,0,-0.6532413363456726
36581,536346111,642253311,0,0.03165510296821594,0.49897247552871704,0,-0.653651237487793
36585,536346111,642253311,0,0.03141943737864494,0.49889513850212097,0,-0.6541268825531006
36597,536346111,641204735,0,0.03078506514430046,0.49879124760627747,0,-0.6550734043121338
36601,536346111,641204735,0,0.03127216547727585,0.4990541636943817,0,-0.6551937460899353
36605,536346111,641204735,0,0.03154636174440384,0.4991421699523926,0,-0.6554253697395325
36612,536346111,641204735,0,0.03143921121954918,0.49923717975616455,0,-0.655616044998169
36617,536346111,641204735,0,0.03125113621354103,0.4995134174823761,0,-0.6558064222335815
36620,535297535,641204735,0,0.03125113621354103,0.4995134174823761,0,-0.6558064222335815
36627,536346111,641204735,0,0.031445182859897614,0.49916914105415344,0,-0.6565455198287964
36631,536346111,641204735,0,0.031165653839707375,0.4988228678703308,0,-0.6568590402603149
36635,536346111,641204735,0,0.030990982428193092,0.49855226278305054,0,-0.6569712162017822
36647,536346111,641204735,0,0.030341578647494316,0.49860289692878723,0,-0.6573178172111511
36651,536346111,641204735,0,0.030110158026218414,0.4991591274738312,0,-0.6576237082481384
36655,536346111,641204735,0,0.02990935742855072,0.4990658462047577,0,-0.657780647277832
36667,536346111,641204735,0,0.02992095984518528,0.49832794070243835,0,-0.6581493616104126
36670,536346111,641204735,0,0.03008979931473732,0.49828362464904785,0,-0.6580181121826172
36677,535297535,641204735,0,0.030568215996026993,0.4977748692035675,0,-0.6584750413894653
36680,535297535,641204735,0,0.030568215996026993,0.4977748692035675,0,-0.6584750413894653
36687,536346111,642253311,0,0.030254410579800606,0.49732735753059387,0,-0.659394383430481
36690,536346111,641204735,0,0.03023342788219452,0.49753329157829285,0,-0.659892737865448
36697,536346111,641204735,0,0.03063087910413742,0.4974316358566284,0,-0.6604444980621338
36701,536346111,641204735,0,0.03084118478000164,0.49717459082603455,0,-0.660673201084137
36705,536346111,641204735,0,0.031176041811704636,0.49675244092941284,0,-0.6607745885848999
36717,536346111,641204735,0,0.03130811080336571,0.49734562635421753,0,-0.6612554788589478
36721,536346111,641204735,0,0.031596895307302475,0.49730896949768066,0,-0.66175377368927
36725,536346111,641204735,0,0.031550440937280655,0.49724578857421875,0,-0.662230372428894
36737,536346111,641204735,0,0.03134041279554367,0.49718746542930603,0,-0.6625654697418213
36741,536346111,641204735,0,0.03103417344391346,0.4969842731952667,0,-0.6625855565071106
36745,536346111,641204735,0,0.03105050139129162,0.49665597081184387,0,-0.6623102426528931
36752,536346111,641204735,0,0.03130991384387016,0.49687090516090393,0,-0.6620144248008728
36755,536346111,641204735,0,0.03152579441666603,0.49689021706581116,0,-0.6617042422294617
36767,536346111,641204735,0,0.03175618499517441,0.4964736998081207,0,-0.6616981625556946
36775,536346111,641204735,0,0.031317088752985,0.4964037239551544,0,-0.6611729860305786
36787,536346111,641204735,0,0.03033875860273838,0.49603766202926636,0,-0.6612245440483093
36791,536346111,641204735,0,0.030346719548106194,0.49601277709007263,0,-0.6613295674324036
36795,536346111,641204735,0,0.030744411051273346,0.49658024311065674,0,-0.661613404750824
36807,536346111,641204735,0,0.03051956184208393,0.49685800075531006,0,-0.6613954901695251
36811,536346111,641204735,0,0.030297579243779182,0.4972701966762543,0,-0.6613291501998901
36815,536346111,641204735,0,0.030056485906243324,0.4974926710128784,0,-0.6612049341201782
36827,535297535,642253311,0,0.02962021343410015,0.49844270944595337,0,-0.6625025272369385
36831,536346111,641204735,0,0.029690435156226158,0.4986129701137543,0,-0.6631717085838318
36835,536346111,641204735,0,0.02968694269657135,0.49863874912261963,0,-0.6635348200798035
36847,536346111,641204735,0,0.02946542575955391,0.4972386658191681,0,-0.6633988618850708
36851,536346111,641204735,0,0.02959803119301796,0.4970857799053192,0,-0.6633137464523315
36855,536346111,641204735,0,0.029340973123908043,0.49726611375808716,0,-0.6631738543510437
36859,536346111,641204735,0,0.029177485033869743,0.497280478477478,0,-0.6631908416748047
36867,536346111,641204735,0,0.02945665270090103,0.49683356285095215,0,-0.6629667282104492
36870,536346111,641204735,0,0.029652398079633713,0.4969903230667114,0,-0.6630443334579468
36876,536346111,641204735,0,0.029728658497333527,0.49707359075546265,0,-0.663305938243866
36880,536346111,641204735,0,0.029803579673171043,0.49703270196914673,0,-0.663587749004364
36885,536346111,641204735,0,0.030258672311902046,0.49652624130249023,0,-0.6637499332427979
36890,536346111,641204735,0,0.030483033508062363,0.49617090821266174,0,-0.6641006469726562
36896,536346111,641204735,0,0.03083399496972561,0.49567967653274536,0,-0.6642287373542786
36900,536346111,641204735,0,0.030828220769762993,0.49528059363365173,0,-0.6644256114959717
36905,535297535,641204735,0,0.02978561632335186,0.4943332076072693,0,-0.6653063297271729
36916,536346111,641204735,0,0.029162559658288956,0.49435120820999146,0,-0.6659411191940308
36924,536346111,642253311,0,0.029139986261725426,0.4944920539855957,0,-0.6670188903808594
36927,536346111,642253311,0,0.029202638193964958,0.494562566280365,0,-0.667210042476654
36931,536346111,641204735,0,0.029062246903777122,0.4942919611930847,0,-0.6670670509338379
36935,536346111,641204735,0,0.02847357839345932,0.49390947818756104,0,-0.6668539047241211
36937,536346111,641204735,0,0.028150536119937897,0.49370521306991577,0,-0.6666509509086609
36941,536346111,641204735,0,0.02831105701625347,0.4935219883918762,0,-0.6671733260154724
36945,536346111,641204735,0,0.02837923914194107,0.49316081404685974,0,-0.6676613688468933
36948,536346111,641204735,0,0.02837923914194107,0.49316081404685974,0,-0.6676613688468933
36951,536346111,641204735,0,0.02815239503979683,0.49310368299484253,0,-0.6673384308815002
36955,536346111,641204735,0,0.027927568182349205,0.4931701123714447,0,-0.6673412322998047
36957,536346111,641204735,0,0.02772592566907406,0.4931999146938324,0,-0.6673881411552429
36961,536346111,641204735,0,0.027745185419917107,0.4934071898460388,0,-0.6673343777656555
36964,536346111,641204735,0,0.027745185419917107,0.4934071898460388,0,-0.6673343777656555
36968,536346111,641204735,0,0.027825912460684776,0.4935668110847473,0,-0.6672914028167725
36975,536346111,641204735,0,0.027854669839143753,0.49383682012557983,0,-0.6676821708679199
36980,536346111,641204735,0,0.02787155658006668,0.49410489201545715,0,-0.6675507426261902
36987,536346111,641204735,0,0.028018340468406677,0.4943568706512451,0,-0.6668561100959778
36992,536346111,641204735,0,0.027964843437075615,0.4941849410533905,0,-0.6664843559265137
36994,536346111,641204735,0,0.02762221172451973,0.49399906396865845,0,-0.6660749316215515
36997,536346111,641203711,0,0.026998378336429596,0.4937897026538849,0,-0.666057288646698
37002,536346111,641204735,0,0.02704569697380066,0.493534117937088,0,-0.6659380197525024
37004,536346111,641204735,0,0.02704569697380066,0.493534117937088,0,-0.6659380197525024
37007,536346111,641204735,0,0.02718665637075901,0.4930359125137329,0,-0.6659392714500427
37012,536346111,641204735,0,0.027096744626760483,0.492969810962677,0,-0.666366696357727
37015,536346111,641204735,0,0.027136487886309624,0.4929875135421753,0,-0.6663060188293457
37026,536346111,641204735,0,0.026889052242040634,0.4919763207435608,0,-0.6657095551490784
37035,536346111,641204735,0,0.02709578163921833,0.4911153316497803,0,-0.6662415862083435
37044,536346111,641204735,0,0.027042027562856674,0.4915551543235779,0,-0.6666304469108582
37047,536346111,641204735,0,0.027211815118789673,0.4916689097881317,0,-0.6667953133583069
37051,536346111,641204735,0,0.02715960331261158,0.49160414934158325,0,-0.666745126247406
37056,536346111,641204735,0,0.027257703244686127,0.49164432287216187,0,-0.6668405532836914
37064,536346111,641204735,0,0.027601666748523712,0.4919842779636383,0,-0.6666078567504883
37067,536346111,641204735,0,0.027858339250087738,0.4915376901626587,0,-0.6667206287384033
37076,536346111,641204735,0,0.028758171945810318,0.4919171929359436,0,-0.667327880859375
37088,536346111,641204735,0,0.029344456270337105,0.49229520559310913,0,-0.6680569052696228
37091,536346111,641204735,0,0.029039107263088226,0.4925837814807892,0,-0.668413519859314
37096,536346111,641204735,0,0.028927084058523178,0.49320027232170105,0,-0.6686928868293762
37102,536346111,641204735,0,0.029584161937236786,0.49387386441230774,0,-0.6695298552513123
37106,536346111,641204735,0,0.029876738786697388,0.4940970540046692,0,-0.6700261831283569
37111,536346111,641204735,0,0.029762407764792442,0.4941025972366333,0,-0.6701511740684509
37116,536346111,641204735,0,0.029663311317563057,0.49383118748664856,0,-0.670199990272522
37126,536346111,641204735,0,0.029966406524181366,0.4930655360221863,0,-0.6703205704689026
37131,536346111,641204735,0,0.030144384130835533,0.4929048418998718,0,-0.6701346039772034
37135,536346111,641204735,0,0.030620267614722252,0.4924042522907257,0,-0.6700307726860046
37140,536346111,641204735,0,0.030919238924980164,0.49239107966423035,0,-0.6699206233024597
37148,536346111,641204735,0,0.03049342893064022,0.49379992485046387,0,-0.6698148250579834
37151,536346111,641204735,0,0.03025553934276104,0.49393168091773987,0,-0.6698986887931824
37154,536346111,641204735,0,0.03029109165072441,0.49373674392700195,0,-0.6698464155197144
37158,536346111,641204735,0,0.030554458498954773,0.49383097887039185,0,-0.6694172024726868
37161,536346111,641204735,0,0.030632900074124336,0.494208961725235,0,-0.6689283847808838
37164,536346111,641204735,0,0.030632900074124336,0.494208961725235,0,-0.6689283847808838
37167,536346111,641204735,0,0.03039717487990856,0.49451330304145813,0,-0.6687623858451843
37172,536346111,641204735,0,0.02994404174387455,0.49451133608818054,0,-0.6684512495994568
37176,536346111,641204735,0,0.02973872981965542,0.49427223205566406,0,-0.6685805320739746
37180,536346111,641204735,0,0.02975812554359436,0.49395957589149475,0,-0.6686944961547852
37185,535297535,641204735,0,0.02949029952287674,0.4936344027519226,0,-0.6695619821548462
37194,536346111,641204735,0,0.029632238671183586,0.4939506947994232,0,-0.6694743037223816
37196,536346111,641204735,0,0.029632238671183586,0.4939506947994232,0,-0.6694743037223816
37204,536346111,641204735,0,0.03034047968685627,0.4932120442390442,0,-0.6695302724838257
37207,536346111,641204735,0,0.030478620901703835,0.4928542673587799,0,-0.6697580218315125
37217,536346111,641204735,0,0.030141642317175865,0.49167850613594055,0,-0.6708945035934448
37226,536346111,641204735,0,0.029930924996733665,0.491881400346756,0,-0.6712408661842346
37228,536346111,641204735,0,0.029930924996733665,0.491881400346756,0,-0.6712408661842346
37231,536346111,642253311,0,0.029846979305148125,0.4915131628513336,0,-0.6713281869888306
37234,536346111,642253311,0,0.029682926833629608,0.4914124310016632,0,-0.6715911030769348
37238,536346111,641204735,0,0.029181966558098793,0.491284042596817,0,-0.6714030504226685
37240,536346111,641204735,0,0.029181966558098793,0.491284042596817,0,-0.6714030504226685
37248,536346111,641204735,0,0.02956884540617466,0.49115023016929626,0,-0.672357976436615
37251,536346111,641204735,0,0.029592951759696007,0.49137642979621887,0,-0.6726790070533752
37255,536346111,641204735,0,0.0293418001383543,0.49169018864631653,0,-0.6727677583694458
37258,536346111,642253311,0,0.02924611233174801,0.49156472086906433,0,-0.6730391383171082
37261,536346111,642253311,0,0.029206670820713043,0.49134668707847595,0,-0.6730006337165833
37264,536346111,642253311,0,0.029206670820713043,0.49134668707847595,0,-0.6730006337165833
37268,536346111,641204735,0,0.029406428337097168,0.49142616987228394,0,-0.6725826859474182
37270,536346111,641204735,0,0.02967299520969391,0.49159732460975647,0,-0.6723393201828003
37276,535297535,641204735,0,0.0300438329577446,0.49140724539756775,0,-0.6726154088973999
37280,536346111,641204735,0,0.030747361481189728,0.4911818504333496,0,-0.673201858997345
37282,536346111,641204735,0,0.030660398304462433,0.49078845977783203,0,-0.6731873750686646
37285,536346111,641204735,0,0.03050706535577774,0.4904688894748688,0,-0.6726871132850647
37288,536346111,641204735,0,0.03050706535577774,0.4904688894748688,0,-0.6726871132850647
37292,536346111,641204735,0,0.0303140040487051,0.49042803049087524,0,-0.6724168658256531
37295,536346111,641204735,0,0.030038194730877876,0.4900331199169159,0,-0.6721774935722351
37302,536346111,641204735,0,0.029725294560194016,0.4898248016834259,0,-0.6724402904510498
37305,536346111,641204735,0,0.029635416343808174,0.4894801378250122,0,-0.6728656888008118
37308,536346111,641204735,0,0.029635416343808174,0.4894801378250122,0,-0.6728656888008118
37314,536346111,641204735,0,0.02940000779926777,0.48863816261291504,0,-0.6736109852790833
37316,536346111,641204735,0,0.02940000779926777,0.48863816261291504,0,-0.6736109852790833
37328,536346111,641204735,0,0.02950163744390011,0.488400399684906,0,-0.674034595489502
37331,536346111,641204735,0,0.029512353241443634,0.4886927008628845,0,-0.6745250821113586
37336,536346111,641204735,0,0.029526567086577415,0.4888428747653961,0,-0.6746729612350464
37338,536346111,641204735,0,0.0294022299349308,0.4887939393520355,0,-0.6744669675827026
37341,536346111,641204735,0,0.02926335670053959,0.48900264501571655,0,-0.6746585369110107
37344,536346111,641204735,0,0.02926335670053959,0.48900264501571655,0,-0.6746585369110107
37348,536346111,641204735,0,0.028919298201799393,0.48877978324890137,0,-0.6748418211936951
37351,536346111,641204735,0,0.028738152235746384,0.4884985387325287,0,-0.674904465675354
37354,536346111,641204735,0,0.02888546884059906,0.48856276273727417,0,-0.675237238407135
37358,536346111,641204735,0,0.028851889073848724,0.4886848032474518,0,-0.6752966642379761
37360,536346111,641204735,0,0.028851889073848724,0.4886848032474518,0,-0.6752966642379761
37366,536346111,641204735,0,0.02885255217552185,0.48841381072998047,0,-0.6754657030105591
37370,536346111,641204735,0,0.02881973795592785,0.48813414573669434,0,-0.6753818392753601
37372,536346111,641204735,0,0.02881973795592785,0.48813414573669434,0,-0.6753818392753601
37375,536346111,641204735,0,0.028498640283942223,0.4878413677215576,0,-0.6748344898223877
37378,536346111,641204735,0,0.028005098924040794,0.48815086483955383,0,-0.674832820892334
37381,536346111,641204735,0,0.027520954608917236,0.48887813091278076,0,-0.6752969622612
37384,536346111,641204735,0,0.027520954608917236,0.48887813091278076,0,-0.6752969622612
37387,536346111,641204735,0,0.02713119238615036,0.4893944263458252,0,-0.6751829981803894
37390,536346111,641204735,0,0.027011631056666374,0.48970380425453186,0,-0.6748861074447632
37396,536346111,641204735,0,0.026712508872151375,0.4894505441188812,0,-0.6749897003173828
37400,536346111,641204735,0,0.026423770934343338,0.48921912908554077,0,-0.6748729944229126
37402,536346111,641204735,0,0.026387745514512062,0.48890966176986694,0,-0.6751973628997803
37405,536346111,641204735,0,0.026555608958005905,0.48826655745506287,0,-0.6752514839172363
37412,536346111,641204735,0,0.02659824676811695,0.4877810478210449,0,-0.6753085255622864
37414,536346111,641204735,0,0.026995576918125153,0.4873352646827698,0,-0.675371527671814
37417,536346111,642253311,0,0.02732769586145878,0.48728010058403015,0,-0.6755837202072144
37420,536346111,642253311,0,0.02732769586145878,0.48728010058403015,0,-0.6755837202072144
37424,536346111,642253311,0,0.02774517796933651,0.48721370100975037,0,-0.6761400699615479
37427,536346111,641204735,0,0.02743302471935749,0.48729315400123596,0,-0.6765116453170776
37432,536346111,641204735,0,0.027273666113615036,0.4874209463596344,0,-0.6765080690383911
37434,536346111,641204735,0,0.027249224483966827,0.487751841545105,0,-0.6766802072525024
37437,536346111,641204735,0,0.02712523750960827,0.487953245639801,0,-0.6770883202552795
37440,536346111,641204735,0,0.02712523750960827,0.487953245639801,0,-0.6770883202552795
37444,536346111,641204735,0,0.026966115459799767,0.48789796233177185,0,-0.6773596405982971
37446,536346111,641204735,0,0.02652386762201786,0.48777908086776733,0,-0.6772713661193848
37451,536346111,641204735,0,0.026543863117694855,0.48774591088294983,0,-0.677526593208313
37454,535297535,641204735,0,0.026673883199691772,0.4879465103149414,0,-0.6782642006874084
37457,536346111,641204735,0,0.026905614882707596,0.487969309091568,0,-0.6782206296920776
37460,536346111,641204735,0,0.026905614882707596,0.487969309091568,0,-0.6782206296920776
37464,536346111,641204735,0,0.027245432138442993,0.48792561888694763,0,-0.6779193878173828
37466,536346111,642253311,0,0.027882670983672142,0.4878689646720886,0,-0.6780529618263245
37468,536346111,642253311,0,0.027882670983672142,0.4878689646720886,0,-0.6780529618263245
37476,536346111,641204735,0,0.02860371768474579,0.4875833988189697,0,-0.6783803701400757
37478,536346111,641204735,0,0.028558308258652687,0.4872479736804962,0,-0.6783250570297241
37481,536346111,641204735,0,0.028230585157871246,0.4873628616333008,0,-0.6780975461006165
37486,536346111,641204735,0,0.028156865388154984,0.487719863653183,0,-0.6775765419006348
37492,536346111,641204735,0,0.028300773352384567,0.48787999153137207,0,-0.6770821809768677
37495,536346111,641204735,0,0.028234459459781647,0.4878997206687927,0,-0.6767020225524902
37498,536346111,641204735,0,0.028137298300862312,0.4881771206855774,0,-0.6762692332267761
37501,536346111,641204735,0,0.028184965252876282,0.4889238178730011,0,-0.6758809089660645
37504,536346111,642253311,0,0.028184965252876282,0.4889238178730011,0,-0.6758809089660645
37508,535297535,642253311,0,0.02862309105694294,0.4893001317977905,0,-0.6761540770530701
37511,535297535,642253311,0,0.02849675342440605,0.4896867573261261,0,-0.6768150329589844
37514,536346111,642253311,0,0.028226448222994804,0.48985588550567627,0,-0.6774193644523621
37517,536346111,642253311,0,0.027873128652572632,0.48961925506591797,0,-0.6774490475654602
37521,536346111,641204735,0,0.027822546660900116,0.48930129408836365,0,-0.6772641539573669
37526,536346111,641204735,0,0.028016386553645134,0.489115834236145,0,-0.6775424480438232
37530,536346111,641204735,0,0.028339266777038574,0.4890177845954895,0,-0.6778630018234253
37532,536346111,641204735,0,0.028339266777038574,0.4890177845954895,0,-0.6778630018234253
37535,536346111,641204735,0,0.02864135429263115,0.48904311656951904,0,-0.6778407692909241
37538,536346111,641204735,0,0.028436291962862015,0.48890751600265503,0,-0.6777262091636658
37541,536346111,641204735,0,0.02837655134499073,0.488852858543396,0,-0.6775057911872864
37544,536346111,641204735,0,0.02837655134499073,0.488852858543396,0,-0.6775057911872864
37547,536346111,641204735,0,0.028437089174985886,0.48884251713752747,0,-0.6774534583091736
37550,536346111,642253311,0,0.028374791145324707,0.4891287684440613,0,-0.6774263381958008
37556,536346111,642253311,0,0.028129732236266136,0.48929211497306824,0,-0.6772790551185608
37562,536346111,641204735,0,0.028693106025457382,0.48952412605285645,0,-0.6773297786712646
37565,536346111,641204735,0,0.02907833270728588,0.4895765483379364,0,-0.6772550344467163
37568,536346111,641204735,0,0.02907833270728588,0.4895765483379364,0,-0.6772550344467163
37572,536346111,641204735,0,0.029222765937447548,0.4898316264152527,0,-0.6769859194755554
37574,536346111,641204735,0,0.029289377853274345,0.49029695987701416,0,-0.6769756078720093
37577,536346111,641204735,0,0.029163049533963203,0.49061447381973267,0,-0.6770833730697632
37580,536346111,641204735,0,0.029163049533963203,0.49061447381973267,0,-0.6770833730697632
37584,536346111,641204735,0,0.02883046492934227,0.49048706889152527,0,-0.6774046421051025
37586,536346111,641204735,0,0.028724893927574158,0.49068984389305115,0,-0.6774976849555969
37588,536346111,641204735,0,0.028724893927574158,0.49068984389305115,0,-0.6774976849555969
37591,536346111,641204735,0,0.028742965310811996,0.49091342091560364,0,-0.6777468323707581
37596,535297535,641204735,0,0.02858947031199932,0.4911167025566101,0,-0.6783865690231323
37598,536346111,641204735,0,0.02820717915892601,0.4911065101623535,0,-0.6788273453712463
37601,536346111,641204735,0,0.028232116252183914,0.4908599555492401,0,-0.6788619160652161
37605,536346111,641204735,0,0.028302839025855064,0.4906654357910156,0,-0.6789166331291199
37607,536346111,641204735,0,0.028302839025855064,0.4906654357910156,0,-0.6789166331291199
37611,536346111,641204735,0,0.028010332956910133,0.49020031094551086,0,-0.6790899634361267
37616,536346111,641204735,0,0.028016557916998863,0.4899117350578308,0,-0.6793347001075745
37618,536346111,641204735,0,0.028242217376828194,0.48985907435417175,0,-0.6791428327560425
37621,536346111,641204735,0,0.028108134865760803,0.49008694291114807,0,-0.6796470880508423
37624,535297535,641204735,0,0.028108134865760803,0.49008694291114807,0,-0.6796470880508423
37628,535297535,641204735,0,0.028085071593523026,0.48984095454216003,0,-0.6808910369873047
37630,536346111,641204735,0,0.028037389740347862,0.48961010575294495,0,-0.6814358234405518
37637,536346111,641204735,0,0.028231985867023468,0.4897100627422333,0,-0.6816606521606445
37642,536346111,641204735,0,0.02847146987915039,0.48944318294525146,0,-0.6818855404853821
37645,536346111,641204735,0,0.028683532029390335,0.48940545320510864,0,-0.6820863485336304
37651,536346111,641204735,0,0.02883555367588997,0.48986703157424927,0,-0.6820782423019409
37654,536346111,641204735,0,0.02900424785912037,0.4898003339767456,0,-0.6823517680168152
37657,536346111,641204735,0,0.029049120843410492,0.48965081572532654,0,-0.6826221346855164
37661,536346111,641204735,0,0.028906885534524918,0.4897882640361786,0,-0.6827971935272217
37666,536346111,642253311,0,0.028805764392018318,0.4902020990848541,0,-0.6827369332313538
37670,536346111,641204735,0,0.02860751375555992,0.4902437925338745,0,-0.6828930974006653
37672,536346111,641204735,0,0.02860751375555992,0.4902437925338745,0,-0.6828930974006653
37677,536346111,641204735,0,0.028212856501340866,0.49013224244117737,0,-0.6833388805389404
37681,536346111,641204735,0,0.028370287269353867,0.49064725637435913,0,-0.6835458278656006
37695,536346111,641204735,0,0.028392305597662926,0.4908227324485779,0,-0.6833705902099609
37698,536346111,641204735,0,0.028554219752550125,0.491250604391098,0,-0.6834576725959778
37702,536346111,641204735,0,0.028494613245129585,0.49147894978523254,0,-0.6835833787918091
37704,536346111,641204735,0,0.028494613245129585,0.49147894978523254,0,-0.6835833787918091
37707,536346111,641204735,0,0.028326790779829025,0.491627961397171,0,-0.6837702393531799
37712,536346111,641204735,0,0.028277002274990082,0.49174022674560547,0,-0.6836153864860535
37714,536346111,641204735,0,0.028548769652843475,0.4918401539325714,0,-0.6835636496543884
37717,536346111,641204735,0,0.02855793759226799,0.4920552372932434,0,-0.6840429902076721
37720,536346111,641204735,0,0.02855793759226799,0.4920552372932434,0,-0.6840429902076721
37724,536346111,641204735,0,0.028368519619107246,0.4922531247138977,0,-0.6841539144515991
37726,536346111,641204735,0,0.02819954976439476,0.4924691617488861,0,-0.6840647459030151
37735,536346111,641204735,0,0.028258342295885086,0.4922337234020233,0,-0.6835622787475586
37738,536346111,642253311,0,0.028564488515257835,0.49251240491867065,0,-0.6836444735527039
37741,536346111,641204735,0,0.02857532724738121,0.49287810921669006,0,-0.6840131282806396
37745,536346111,641204735,0,0.02847439795732498,0.4930844306945801,0,-0.6841194033622742
37747,536346111,641204735,0,0.02847439795732498,0.4930844306945801,0,-0.6841194033622742
37750,536346111,641204735,0,0.028585556894540787,0.49310585856437683,0,-0.6840208172798157
37757,536346111,641204735,0,0.027845626696944237,0.49325984716415405,0,-0.6840053200721741
37762,536346111,641204735,0,0.027248835191130638,0.4930870831012726,0,-0.6840453743934631
37766,536346111,641204735,0,0.026880910620093346,0.4931282103061676,0,-0.6838072538375854
37768,536346111,641204735,0,0.026880910620093346,0.4931282103061676,0,-0.6838072538375854
37775,536346111,641204735,0,0.02695801854133606,0.49375665187835693,0,-0.6834166646003723
37777,536346111,641204735,0,0.027206167578697205,0.4938538074493408,0,-0.6830778121948242
37780,536346111,641204735,0,0.027206167578697205,0.4938538074493408,0,-0.6830778121948242
37787,536346111,641204735,0,0.027392733842134476,0.4934556782245636,0,-0.6835669279098511
37792,536346111,641204735,0,0.027284743264317513,0.4929549992084503,0,-0.6841307878494263
37795,536346111,641204735,0,0.027629565447568893,0.4929637908935547,0,-0.6841980218887329
37801,536346111,641204735,0,0.028352195397019386,0.4930376708507538,0,-0.6844254732131958
37804,536346111,641204735,0,0.028352195397019386,0.4930376708507538,0,-0.6844254732131958
37808,536346111,641204735,0,0.028656769543886185,0.493194043636322,0,-0.6841006278991699
37810,536346111,641204735,0,0.028968611732125282,0.49322012066841125,0,-0.6834911704063416
37816,536346111,641204735,0,0.02933797612786293,0.4933493733406067,0,-0.6831986904144287
37820,536346111,641204735,0,0.02966008149087429,0.49323081970214844,0,-0.6830135583877563
37822,536346111,641204735,0,0.029386043548583984,0.49280741810798645,0,-0.6832200288772583
37825,536346111,641204735,0,0.029029957950115204,0.4924784004688263,0,-0.6833270788192749
37831,536346111,641204735,0,0.02880527451634407,0.49226993322372437,0,-0.6831392645835876
37834,536346111,641204735,0,0.028810065239667892,0.49222415685653687,0,-0.6833686232566833
37837,536346111,641204735,0,0.02870677411556244,0.4924238920211792,0,-0.6835447549819946
37840,536346111,641204735,0,0.02870677411556244,0.4924238920211792,0,-0.6835447549819946
37842,536346111,641204735,0,0.028258033096790314,0.4925557076931,0,-0.6837739944458008
37845,536346111,641204735,0,0.027733955532312393,0.4928065240383148,0,-0.6842944025993347
37848,536346111,641204735,0,0.027733955532312393,0.4928065240383148,0,-0.6842944025993347
37852,536346111,641204735,0,0.027351871132850647,0.49299514293670654,0,-0.6847585439682007
37854,536346111,641204735,0,0.027294522151350975,0.4926675260066986,0,-0.6850074529647827
37857,536346111,641204735,0,0.027289701625704765,0.492444783449173,0,-0.685100257396698
37861,536346111,641204735,0,0.027271099388599396,0.4921944737434387,0,-0.6849997043609619
37866,536346111,641204735,0,0.026802726089954376,0.492116242647171,0,-0.6853532195091248
37876,536346111,641204735,0,0.026738211512565613,0.49223238229751587,0,-0.6847139000892639
37878,536346111,641204735,0,0.02665339969098568,0.4925159811973572,0,-0.6841466426849365
37882,536346111,641204735,0,0.02648286521434784,0.4927690923213959,0,-0.6838802099227905
37884,536346111,641204735,0,0.02648286521434784,0.4927690923213959,0,-0.6838802099227905
37888,536346111,641204735,0,0.026776999235153198,0.4929044246673584,0,-0.6841893792152405
37890,536346111,641204735,0,0.027348900213837624,0.49291911721229553,0,-0.6843946576118469
37894,536346111,641204735,0,0.027436893433332443,0.49312451481819153,0,-0.6840819716453552
37896,536346111,641204735,0,0.027436893433332443,0.49312451481819153,0,-0.6840819716453552
37899,536346111,641204735,0,0.027203982695937157,0.4931769371032715,0,-0.6841280460357666
37905,536346111,641204735,0,0.026511147618293762,0.4930613338947296,0,-0.6844369173049927
37912,536346111,641204735,0,0.026619184762239456,0.4928937256336212,0,-0.6846693158149719
37915,536346111,641204735,0,0.026899170130491257,0.49260956048965454,0,-0.6847100257873535
37917,536346111,641204735,0,0.02722140960395336,0.4922318756580353,0,-0.6849348545074463
37920,536346111,641204735,0,0.02722140960395336,0.4922318756580353,0,-0.6849348545074463
37924,536346111,641204735,0,0.02742314524948597,0.49175190925598145,0,-0.6851372718811035
37927,536346111,641204735,0,0.027798650786280632,0.4913296401500702,0,-0.685174286365509
37930,536346111,641204735,0,0.028000138700008392,0.49098941683769226,0,-0.6855658888816833
37931,536346111,641204735,0,0.028000138700008392,0.49098941683769226,0,-0.6855658888816833
37934,536346111,641204735,0,0.027801113203167915,0.49087226390838623,0,-0.6859980225563049
37938,536346111,641204735,0,0.0275163222104311,0.49109649658203125,0,-0.6862165927886963
37941,536346111,641204735,0,0.027216346934437752,0.4914567470550537,0,-0.6866369843482971
37944,535297535,641204735,0,0.027216346934437752,0.4914567470550537,0,-0.6866369843482971
37947,536346111,641204735,0,0.027219105511903763,0.49163806438446045,0,-0.6871523857116699
37951,536346111,641204735,0,0.026942245662212372,0.49131637811660767,0,-0.6868860125541687
37954,536346111,641204735,0,0.026711389422416687,0.49130505323410034,0,-0.6867402195930481
37958,536346111,641204735,0,0.02677397057414055,0.49122878909111023,0,-0.6869112849235535
37960,536346111,641204735,0,0.02677397057414055,0.49122878909111023,0,-0.6869112849235535
37964,536346111,641204735,0,0.026701150462031364,0.49108755588531494,0,-0.687049150466919
37966,536346111,641204735,0,0.0264300424605608,0.4912883937358856,0,-0.6872619390487671
37970,536346111,642253311,0,0.02655627205967903,0.49153998494148254,0,-0.6873558163642883
37972,536346111,642253311,0,0.02655627205967903,0.49153998494148254,0,-0.6873558163642883
37976,536346111,642253311,0,0.026666542515158653,0.4911652207374573,0,-0.6875683069229126
37982,536346111,642253311,0,0.026732265949249268,0.49109864234924316,0,-0.6877009868621826
37985,536346111,641204735,0,0.02694670855998993,0.49110880494117737,0,-0.6876687407493591
37996,536346111,641204735,0,0.02626209519803524,0.4913192391395569,0,-0.6874350905418396
38000,536346111,641204735,0,0.025924062356352806,0.4910767674446106,0,-0.6874770522117615
38006,536346111,641204735,0,0.025753410533070564,0.49128565192222595,0,-0.686610996723175
38009,536346111,641204735,0,0.025829950347542763,0.49127286672592163,0,-0.6865633726119995
38016,536346111,642253311,0,0.02600681409239769,0.4915179908275604,0,-0.6863810420036316
38018,536346111,641204735,0,0.026256171986460686,0.4916376769542694,0,-0.6859795451164246
38021,536346111,641204735,0,0.02653052844107151,0.4914645850658417,0,-0.6857814788818359
38025,536346111,641204735,0,0.026504140347242355,0.49176454544067383,0,-0.6860753297805786
38028,536346111,641204735,0,0.026504140347242355,0.49176454544067383,0,-0.6860753297805786
38031,535297535,641204735,0,0.026202961802482605,0.49202194809913635,0,-0.6866730451583862
38035,536346111,641204735,0,0.026026863604784012,0.4922994077205658,0,-0.6869798302650452
38038,536346111,641204735,0,0.026400314643979073,0.49266353249549866,0,-0.6869803071022034
38041,536346111,641204735,0,0.027179721742868423,0.4926525056362152,0,-0.6869257092475891
38045,536346111,641204736,0,0.027636289596557617,0.49270838499069214,0,-0.6867376565933228
38048,536346111,641204735,0,0.027636289596557617,0.49270838499069214,0,-0.6867376565933228
38051,536346111,641204735,0,0.027884462848305702,0.49281126260757446,0,-0.6866502165794373
38055,536346111,641204735,0,0.027869902551174164,0.4925711452960968,0,-0.6866847276687622
38058,536346111,641204735,0,0.027807926759123802,0.4924202263355255,0,-0.6871142983436584
38061,536346111,641204735,0,0.027539221569895744,0.49271947145462036,0,-0.6873818635940552
38065,536346111,641204735,0,0.027160778641700745,0.49318820238113403,0,-0.6873388290405273
38077,536346111,641204735,0,0.026682468131184578,0.49388930201530457,0,-0.6866366863250732
38081,536346111,641204735,0,0.02632497064769268,0.4937162697315216,0,-0.6868271827697754
38085,536346111,641204735,0,0.025962967425584793,0.49342086911201477,0,-0.6869902014732361
38097,536346111,641204735,0,0.024601619690656662,0.4928891956806183,0,-0.6876543164253235
38101,536346111,641204735,0,0.02441088855266571,0.49292752146720886,0,-0.6874334216117859
38105,536346111,641204735,0,0.024244170635938644,0.4931311011314392,0,-0.6870942711830139
38117,536346111,641204735,0,0.02387954480946064,0.49290043115615845,0,-0.6874167323112488
38121,536346111,641204735,0,0.023885566741228104,0.4927445650100708,0,-0.6875020861625671
38125,536346111,641204735,0,0.024117043241858482,0.49230414628982544,0,-0.6874573826789856
38128,536346111,641204735,0,0.024117043241858482,0.49230414628982544,0,-0.6874573826789856
38131,536346111,641204735,0,0.024494890123605728,0.4921426773071289,0,-0.6874492764472961
38135,536346111,641204735,0,0.024533994495868683,0.4923240840435028,0,-0.6870261430740356
38147,536346111,641204735,0,0.024314813315868378,0.4925582706928253,0,-0.6873130202293396
38151,536346111,641204735,0,0.024534640833735466,0.4921761751174927,0,-0.6872291564941406
38155,536346111,641204735,0,0.024772223085165024,0.4918084442615509,0,-0.6870635151863098
38160,536346111,641204735,0,0.02491660788655281,0.49122023582458496,0,-0.6874148845672607
38162,536346111,641204735,0,0.02486559934914112,0.4909513592720032,0,-0.6878639459609985
38165,536346111,641204735,0,0.025056499987840652,0.4904037415981293,0,-0.6876124739646912
38172,536346111,641204735,0,0.02506532333791256,0.48999205231666565,0,-0.687451183795929
38176,536346111,641204735,0,0.024948617443442345,0.49007266759872437,0,-0.6872013211250305
38187,536346111,641204735,0,0.024320367723703384,0.4906122386455536,0,-0.687229335308075
38191,536346111,641204735,0,0.02426888234913349,0.4900414049625397,0,-0.6870821714401245
38194,536346111,641204735,0,0.0240541473031044,0.48990345001220703,0,-0.6867255568504333
38197,536346111,641204735,0,0.023743003606796265,0.4898827075958252,0,-0.6867336630821228
38201,536346111,641204735,0,0.023495566099882126,0.4899718463420868,0,-0.6869974136352539
38204,536346111,641204735,0,0.023495566099882126,0.4899718463420868,0,-0.6869974136352539
38207,536346111,641204735,0,0.023651238530874252,0.4898957908153534,0,-0.6874855160713196
38211,536346111,641204735,0,0.023905331268906593,0.48975518345832825,0,-0.6878840923309326
38214,536346111,641204735,0,0.023842692375183105,0.48967859148979187,0,-0.6879929304122925
38217,536346111,641204735,0,0.023964278399944305,0.4895607531070709,0,-0.6879026889801025
38220,536346111,641204735,0,0.023964278399944305,0.4895607531070709,0,-0.6879026889801025
38226,536346111,641204735,0,0.023800352588295937,0.4894717335700989,0,-0.6872115135192871
38230,536346111,641204735,0,0.02377033606171608,0.48953551054000854,0,-0.6874122023582458
38237,536346111,641204735,0,0.023542435839772224,0.4895612597465515,0,-0.6878098845481873
38241,536346111,641204735,0,0.02345062792301178,0.4897417426109314,0,-0.6875690817832947
38244,536346111,641204735,0,0.02345062792301178,0.4897417426109314,0,-0.6875690817832947
38247,536346111,641204735,0,0.023655317723751068,0.4898664355278015,0,-0.6874843835830688
38251,536346111,641204735,0,0.02347860299050808,0.4897885322570801,0,-0.6871880292892456
38254,536346111,641204735,0,0.02311512641608715,0.48995816707611084,0,-0.6873074173927307
38257,536346111,641204735,0,0.02294968254864216,0.48997634649276733,0,-0.6872918009757996
38261,536346111,641204735,0,0.02278859168291092,0.48971495032310486,0,-0.6872240304946899
38266,536346111,641204735,0,0.022804459556937218,0.48915958404541016,0,-0.6872639656066895
38276,536346111,641204735,0,0.02300959825515747,0.48838770389556885,0,-0.6876101493835449
38287,536346111,641204735,0,0.02298436313867569,0.4879102110862732,0,-0.6873326301574707
38291,536346111,641204735,0,0.022787394002079964,0.487655371427536,0,-0.6875632405281067
38295,536346111,641204735,0,0.022757766768336296,0.48713141679763794,0,-0.6879647970199585
38307,536346111,641204735,0,0.022347362712025642,0.4858384132385254,0,-0.6873902678489685
38311,536346111,641204735,0,0.02208583615720272,0.4859912693500519,0,-0.6876872777938843
38315,536346111,641204735,0,0.02201364003121853,0.4858255386352539,0,-0.6875967979431152
38327,536346111,641203711,0,0.021963415667414665,0.48459720611572266,0,-0.6869287490844727
38331,536346111,641203711,0,0.022135335952043533,0.4843359589576721,0,-0.6868576407432556
