Timestamp,compactImu.a_xyz,compactImu.l_xyz,motorCompact.pwms,stabilizer.pitch,stabilizer.roll,stabilizer.thrust,stabilizer.yaw
20697,536346111,641204736,0,0.5990535020828247,0.4826716184616089,0,-0.31599462032318115
20707,536346111,641204736,0,0.5991762280464172,0.48360997438430786,0,-0.316898375749588
20717,536346111,641204736,0,0.5984606146812439,0.4831394553184509,0,-0.31660252809524536
20727,536346111,641203712,0,0.5981259942054749,0.482576459646225,0,-0.31598302721977234
20737,536346111,641203712,0,0.5977107286453247,0.480323851108551,0,-0.3159452974796295
20747,536346111,641203712,0,0.5974764227867126,0.4790623188018799,0,-0.3166382908821106
20757,536346111,641203712,0,0.5970965623855591,0.47864967584609985,0,-0.3164936304092407
20767,536346111,641204736,0,0.5965825915336609,0.47938376665115356,0,-0.3166023790836334
20777,536346111,641204736,0,0.5971879959106445,0.4808894395828247,0,-0.3168540298938751
20787,536346111,641204736,0,0.5975033640861511,0.4815721809864044,0,-0.3164384365081787
20797,536346111,641204737,0,0.5972578525543213,0.4824431538581848,0,-0.3171406686306
20807,536346111,641204736,0,0.5968941450119019,0.48252952098846436,0,-0.3167080283164978
20817,536346111,641203712,0,0.5973502397537231,0.4825060963630676,0,-0.3174948990345001
20827,536346111,641203712,0,0.5975044369697571,0.48221004009246826,0,-0.31784433126449585
20837,535297535,641203712,0,0.5967281460762024,0.48058822751045227,0,-0.3184109628200531
20847,536346111,641203712,0,0.5955923795700073,0.4794999957084656,0,-0.3190475106239319
20857,536346111,641204736,0,0.5950380563735962,0.47880178689956665,0,-0.31864914298057556
20867,536346111,641204736,0,0.5942703485488892,0.47937771677970886,0,-0.31776219606399536
20877,536346111,641204737,0,0.594079315662384,0.47973114252090454,0,-0.31927281618118286
20887,536346111,641204737,0,0.5943442583084106,0.4797956943511963,0,-0.31956177949905396
20897,536346111,641204737,0,0.595106840133667,0.4797273576259613,0,-0.31921714544296265
20907,536346111,641203712,0,0.5950711965560913,0.47924575209617615,0,-0.31934428215026855
20917,536346111,641203712,0,0.5942126512527466,0.47914743423461914,0,-0.32061606645584106
20927,536346111,641204736,0,0.5935737490653992,0.4789566099643707,0,-0.32063165307044983
20937,536346111,641204736,0,0.593242347240448,0.4793054759502411,0,-0.32041555643081665
20947,536346111,641204736,0,0.5933142900466919,0.47915104031562805,0,-0.32026004791259766
20957,536346111,641204736,0,0.593009352684021,0.47931838035583496,0,-0.3193276524543762
20967,536346111,641204736,0,0.5933953523635864,0.4799608290195465,0,-0.3190053105354309
20977,536346111,641204736,0,0.5939764380455017,0.48090335726737976,0,-0.31862956285476685
20987,536346111,641204736,0,0.5938172936439514,0.48104721307754517,0,-0.31897181272506714
20997,536346111,641204736,0,0.5945466160774231,0.4818471074104309,0,-0.319600373506546
21007,536346111,641204736,0,0.5943917632102966,0.4814588129520416,0,-0.3194039463996887
21017,536346111,641204736,0,0.5944045782089233,0.48153436183929443,0,-0.3190837502479553
21027,536346111,641203712,0,0.5943508744239807,0.480398952960968,0,-0.31920790672302246
21037,536346111,641204736,0,0.5957610011100769,0.48041170835494995,0,-0.3198530375957489
21047,536346111,641204736,0,0.5953943133354187,0.48010727763175964,0,-0.31962868571281433
21057,536346111,641204736,0,0.594402551651001,0.4818211793899536,0,-0.31906259059906006
21067,536346111,641204736,0,0.5941763520240784,0.4831027090549469,0,-0.3197731077671051
21077,536346111,641204736,0,0.5941734910011292,0.48263341188430786,0,-0.3196130692958832
21087,536346111,641203712,0,0.5943820476531982,0.48228371143341064,0,-0.3187750279903412
21097,536346111,641203713,0,0.5954394340515137,0.48175153136253357,0,-0.3190213143825531
21107,535297535,642252289,0,0.595611572265625,0.48143190145492554,0,-0.31891173124313354
21117,536346111,641204736,0,0.5954412817955017,0.48086103796958923,0,-0.32017505168914795
21127,536346111,641204736,0,0.5946241617202759,0.4808165729045868,0,-0.3203454911708832
21137,536346111,641204736,0,0.5929514765739441,0.48221948742866516,0,-0.3195720613002777
21147,536346111,641204736,0,0.5928516387939453,0.48403799533843994,0,-0.3197248578071594
21157,536346111,641204737,0,0.5932714343070984,0.485490620136261,0,-0.31882810592651367
21167,536346111,641204737,0,0.5938979387283325,0.48606160283088684,0,-0.3183237910270691
21177,536346111,641204736,0,0.5945680141448975,0.4862500727176666,0,-0.31839507818222046
21187,536346111,642252288,0,0.5944494605064392,0.486080139875412,0,-0.3179834187030792
21197,536346111,641204736,0,0.5933065414428711,0.4861052334308624,0,-0.318337082862854
21207,535297535,641204736,0,0.5937504768371582,0.4862813651561737,0,-0.31879204511642456
21217,536346111,641204737,0,0.5952212810516357,0.48640280961990356,0,-0.3199327290058136
21227,536346111,641204737,0,0.5955897569656372,0.48759934306144714,0,-0.320383220911026
21237,536346111,641204736,0,0.5967118144035339,0.48786354064941406,0,-0.32041463255882263
21247,536346111,641204736,0,0.5965085625648499,0.4880586266517639,0,-0.32108813524246216
21257,536346111,641204736,0,0.5951134562492371,0.48881465196609497,0,-0.32187265157699585
21267,536346111,641204736,0,0.5947566628456116,0.4887755215167999,0,-0.32258278131484985
21277,536346111,642252288,0,0.5948278903961182,0.4884400963783264,0,-0.3229069411754608
21287,536346111,641203712,0,0.5952854156494141,0.48800987005233765,0,-0.32263892889022827
21297,536346111,641204736,0,0.5950499773025513,0.4884517788887024,0,-0.3224717676639557
21307,536346111,641204736,0,0.5946992039680481,0.48870790004730225,0,-0.32205817103385925
21317,536346111,641204736,0,0.5943321585655212,0.4892723262310028,0,-0.3230918049812317
21327,536346111,641204736,0,0.5944944024085999,0.4904370903968811,0,-0.32378461956977844
21337,536346111,641204737,0,0.5947170257568359,0.4901091158390045,0,-0.3238125741481781
21347,536346111,641204737,0,0.5954957008361816,0.4899137020111084,0,-0.3236939013004303
21357,536346111,642253312,0,0.5955917239189148,0.4907219707965851,0,-0.32513630390167236
21367,536346111,641203712,0,0.5955865383148193,0.49076348543167114,0,-0.3259321451187134
21377,536346111,641203712,0,0.5943859815597534,0.48968109488487244,0,-0.3253955543041229
21387,536346111,641203712,0,0.5937709212303162,0.48985183238983154,0,-0.32520797848701477
21397,536346111,641204736,0,0.5940051674842834,0.48871803283691406,0,-0.32560181617736816
21407,536346111,641204736,0,0.5942152738571167,0.489410400390625,0,-0.32515254616737366
21417,536346111,641204737,0,0.5955910086631775,0.48981213569641113,0,-0.3244573175907135
21427,536346111,641204736,0,0.5958707928657532,0.4900640547275543,0,-0.3248201906681061
21437,536346111,641204736,0,0.5952469706535339,0.49039363861083984,0,-0.324390709400177
21447,536346111,641204736,0,0.5950061678886414,0.4903442859649658,0,-0.3241184651851654
21457,536346111,641204736,0,0.5948491096496582,0.49046167731285095,0,-0.3240997791290283
21467,536346111,641203712,0,0.5949063301086426,0.49116572737693787,0,-0.3242887556552887
21477,536346111,641203712,0,0.5942822694778442,0.4911437928676605,0,-0.3249547481536865
21487,536346111,641203712,0,0.5935827493667603,0.4908747673034668,0,-0.32545584440231323
21497,536346111,641204736,0,0.5938218832015991,0.4908842146396637,0,-0.32593199610710144
21507,536346111,641204736,0,0.5935941338539124,0.49043065309524536,0,-0.32598018646240234
21517,536346111,641204736,0,0.5929743647575378,0.4911026656627655,0,-0.32598522305488586
21527,535297535,641204736,0,0.5925346612930298,0.4919719099998474,0,-0.32651519775390625
21537,536346111,641204736,0,0.593086838722229,0.49270904064178467,0,-0.3283071219921112
21547,536346111,641204737,0,0.593115508556366,0.4930664896965027,0,-0.3286052942276001
21557,536346111,642253312,0,0.5930010676383972,0.4933924078941345,0,-0.3296290636062622
21567,536346111,641203712,0,0.5930130481719971,0.4930993318557739,0,-0.3290857970714569
21577,536346111,641204736,0,0.5933274626731873,0.492763876914978,0,-0.32997164130210876
21587,536346111,641204736,0,0.5933477282524109,0.4934026300907135,0,-0.33001086115837097
21597,536346111,641204736,0,0.5929000377655029,0.4933607280254364,0,-0.33007487654685974
21607,536346111,641204736,0,0.5925725102424622,0.49349769949913025,0,-0.3299159109592438
21617,536346111,641204736,0,0.5927444696426392,0.49436214566230774,0,-0.3303472399711609
21627,536346111,641204736,0,0.5926823019981384,0.49458011984825134,0,-0.3317273259162903
21637,536346111,641204736,0,0.5923625826835632,0.49452775716781616,0,-0.3328937590122223
21647,536346111,641204736,0,0.5921581983566284,0.4945929944515228,0,-0.3327420651912689
21657,536346111,641203712,0,0.5916794538497925,0.49385225772857666,0,-0.3326532244682312
21667,536346111,641204736,0,0.5907348394393921,0.49407657980918884,0,-0.3328828811645508
21677,536346111,641204736,0,0.5912888646125793,0.49438852071762085,0,-0.3324677646160126
21687,536346111,641204736,0,0.5916727185249329,0.49345433712005615,0,-0.33152592182159424
21697,536346111,641204736,0,0.5916313529014587,0.4945473372936249,0,-0.33196738362312317
21707,536346111,641204736,0,0.5923083424568176,0.49423205852508545,0,-0.3322693407535553
21717,536346111,641204736,0,0.5929112434387207,0.49427205324172974,0,-0.33236268162727356
21727,536346111,641204736,0,0.593066930770874,0.4949205815792084,0,-0.33247193694114685
21737,536346111,641204736,0,0.5938187837600708,0.49472635984420776,0,-0.33300504088401794
21747,536346111,641203712,0,0.5944675803184509,0.49476560950279236,0,-0.33350756764411926
21757,536346111,641204736,0,0.5937420129776001,0.4949338734149933,0,-0.3336279094219208
21767,536346111,642253312,0,0.593325138092041,0.4953405261039734,0,-0.33446425199508667
21777,536346111,641204736,0,0.5938300490379333,0.4950769543647766,0,-0.3338865637779236
21787,536346111,641204736,0,0.593738317489624,0.4956037998199463,0,-0.3329964280128479
21797,536346111,642253312,0,0.593853235244751,0.49631109833717346,0,-0.3330540060997009
21807,536346111,641204736,0,0.5941362380981445,0.49614110589027405,0,-0.33357903361320496
21817,536346111,641204736,0,0.5939943194389343,0.49647748470306396,0,-0.33459609746932983
21827,536346111,641204736,0,0.5933647751808167,0.4970489740371704,0,-0.3355456292629242
21837,536346111,641204736,0,0.5932823419570923,0.49738091230392456,0,-0.3367878794670105
21847,536346111,641204736,0,0.5939469337463379,0.497424453496933,0,-0.33756688237190247
21857,536346111,642253312,0,0.5947162508964539,0.49726980924606323,0,-0.3377557694911957
21867,536346111,641204736,0,0.5949718952178955,0.49699923396110535,0,-0.3375258445739746
21877,536346111,641204736,0,0.5962380766868591,0.4973278343677521,0,-0.3376249670982361
21887,536346111,641204736,0,0.595960795879364,0.49744805693626404,0,-0.33757954835891724
21897,536346111,641204736,0,0.5964422821998596,0.49679672718048096,0,-0.33720073103904724
21907,536346111,641204736,0,0.5965686440467834,0.4973704516887665,0,-0.3371386229991913
21917,536346111,641204737,0,0.5968097448348999,0.498571515083313,0,-0.33764755725860596
21927,536346111,641204736,0,0.5963435173034668,0.49810048937797546,0,-0.33753252029418945
21937,536346111,641204736,0,0.5956325531005859,0.49870768189430237,0,-0.3380405902862549
21947,536346111,641204736,0,0.5953405499458313,0.4996618926525116,0,-0.3379642367362976
21957,536346111,641204736,0,0.5946395397186279,0.49946409463882446,0,-0.3376750946044922
21967,536346111,641204736,0,0.5951679944992065,0.49941107630729675,0,-0.3383358120918274
21977,536346111,641204736,0,0.5952014327049255,0.49960601329803467,0,-0.3392484188079834
21987,536346111,641204736,0,0.5952898263931274,0.49977821111679077,0,-0.33916592597961426
21997,535297535,641204736,0,0.5950416922569275,0.49969837069511414,0,-0.340197890996933
22007,536346111,641204736,0,0.5946939587593079,0.5001077651977539,0,-0.34088316559791565
22017,536346111,641204736,0,0.5946320295333862,0.5006309747695923,0,-0.34153878688812256
22027,536346111,641204736,0,0.5948098301887512,0.5000890493392944,0,-0.3417426645755768
22037,536346111,641204736,0,0.5949558615684509,0.49966365098953247,0,-0.34171804785728455
22047,536346111,641204736,0,0.5954108238220215,0.49926990270614624,0,-0.3425435721874237
22057,536346111,641204736,0,0.5957236886024475,0.499039888381958,0,-0.34303683042526245
22067,536346111,641204736,0,0.5951759219169617,0.4991302788257599,0,-0.3433811366558075
22077,536346111,641204736,0,0.5959593653678894,0.4987427592277527,0,-0.34245792031288147
22087,535297535,641204736,0,0.5955115556716919,0.498344361782074,0,-0.34201356768608093
22097,536346111,641203712,0,0.5958989262580872,0.4988929033279419,0,-0.34272098541259766
22107,536346111,641204736,0,0.5954446196556091,0.4984058737754822,0,-0.3429276645183563
22117,536346111,641204736,0,0.5948340892791748,0.49840667843818665,0,-0.34364497661590576
22127,536346111,641204736,0,0.5953599214553833,0.4982156455516815,0,-0.3430503010749817
22137,535297535,641204736,0,0.5951981544494629,0.49821531772613525,0,-0.3428433835506439
22147,536346111,641204736,0,0.5953119397163391,0.4978126585483551,0,-0.3439939022064209
22157,535297535,641204736,0,0.5955011248588562,0.4971984922885895,0,-0.3451365828514099
22167,536346111,641204736,0,0.5956822037696838,0.49743542075157166,0,-0.3457288444042206
22177,536346111,641204736,0,0.5962868928909302,0.4976702630519867,0,-0.34544360637664795
22187,536346111,641204736,0,0.596348762512207,0.4971417486667633,0,-0.3456597328186035
22197,536346111,641204736,0,0.5959519743919373,0.4973248839378357,0,-0.3467310667037964
22207,536346111,641204736,0,0.5952449440956116,0.4970106780529022,0,-0.346339613199234
22217,536346111,641204736,0,0.5941780805587769,0.4966338276863098,0,-0.3464798033237457
22227,536346111,641204736,0,0.5938193798065186,0.4976467788219452,0,-0.3469775915145874
22237,535297535,641204736,0,0.5946307182312012,0.4985847771167755,0,-0.3479664921760559
22247,536346111,641204736,0,0.5952876210212708,0.49806109070777893,0,-0.3483172059059143
22257,536346111,641204736,0,0.5954208970069885,0.4981735944747925,0,-0.34913012385368347
22267,536346111,641204736,0,0.595723569393158,0.4978528618812561,0,-0.3493063449859619
22277,536346111,641204736,0,0.5956836342811584,0.4966273009777069,0,-0.3505721092224121
22287,536346111,641204736,0,0.5952903032302856,0.49679499864578247,0,-0.3502868115901947
22297,536346111,641204736,0,0.5950503349304199,0.4964783787727356,0,-0.35091355443000793
22307,536346111,641204736,0,0.5948376059532166,0.4958312213420868,0,-0.35085439682006836
22317,536346111,641204736,0,0.5950371026992798,0.4951685070991516,0,-0.35085591673851013
22327,536346111,641204736,0,0.5952358841896057,0.49460369348526,0,-0.3514465093612671
22337,536346111,641204736,0,0.5950485467910767,0.49336957931518555,0,-0.35240328311920166
22347,536346111,641204736,0,0.5949810743331909,0.4935395121574402,0,-0.3528505861759186
22357,536346111,641204736,0,0.5940269827842712,0.49381542205810547,0,-0.3527638614177704
22367,536346111,641204736,0,0.5942915678024292,0.4943194091320038,0,-0.3533685505390167
22377,536346111,641204736,0,0.594635546207428,0.4951266646385193,0,-0.3537006974220276
22387,536346111,641204736,0,0.594971776008606,0.495621919631958,0,-0.35348084568977356
22397,536346111,641204736,0,0.5957193970680237,0.49502989649772644,0,-0.35360392928123474
22407,536346111,641204736,0,0.5959477424621582,0.4956274926662445,0,-0.353422611951828
22417,536346111,641203712,0,0.5961005091667175,0.4966195225715637,0,-0.3525860011577606
22427,536346111,641204736,0,0.5960856676101685,0.49699604511260986,0,-0.3533042073249817
22437,536346111,641204736,0,0.5957837104797363,0.49599531292915344,0,-0.3527083694934845
22447,536346111,641204736,0,0.595903754234314,0.4958604574203491,0,-0.35329315066337585
22457,536346111,641204736,0,0.595985472202301,0.49673429131507874,0,-0.35373973846435547
22467,536346111,641204736,0,0.5959324240684509,0.49647247791290283,0,-0.35481181740760803
22477,536346111,641204736,0,0.5952433347702026,0.49698519706726074,0,-0.3556549847126007
22487,536346111,641204736,0,0.595913827419281,0.4967447817325592,0,-0.3546185791492462
22497,536346111,641204736,0,0.5961320996284485,0.4960996210575104,0,-0.3548903465270996
22507,536346111,641204736,0,0.5958940982818604,0.4962051808834076,0,-0.3551703691482544
22517,536346111,641204736,0,0.5955737233161926,0.4952484965324402,0,-0.35513195395469666
22527,536346111,641204736,0,0.5949140787124634,0.49510279297828674,0,-0.35473963618278503
22537,536346111,641204736,0,0.5944651961326599,0.4954296946525574,0,-0.3549191951751709
22547,536346111,641204736,0,0.5936550498008728,0.4947671890258789,0,-0.3544594347476959
22557,536346111,641204736,0,0.594254195690155,0.49379295110702515,0,-0.35451120138168335
22567,536346111,641204736,0,0.5943895578384399,0.4938408136367798,0,-0.35404056310653687
22577,536346111,641204736,0,0.5944876670837402,0.49528205394744873,0,-0.35390225052833557
22587,536346111,641204736,0,0.5945340394973755,0.49560046195983887,0,-0.3534878194332123
22597,536346111,641204736,0,0.593867301940918,0.494052916765213,0,-0.352634072303772
22607,536346111,641204736,0,0.5943590998649597,0.4942151606082916,0,-0.35274460911750793
22617,536346111,641204736,0,0.5945218205451965,0.4946778416633606,0,-0.3523443043231964
22627,536346111,641204736,0,0.5944024324417114,0.49408525228500366,0,-0.35205623507499695
22637,536346111,641204736,0,0.5938595533370972,0.4938470721244812,0,-0.35203272104263306
22647,536346111,641204736,0,0.5937061905860901,0.4938850402832031,0,-0.35181644558906555
22657,536346111,641204736,0,0.5932762622833252,0.4937084913253784,0,-0.3513520061969757
22667,536346111,641204736,0,0.5926493406295776,0.49380382895469666,0,-0.3519299328327179
22677,536346111,641204736,0,0.5925745964050293,0.4920484125614166,0,-0.3520255386829376
22687,536346111,641204736,0,0.5929094552993774,0.492250919342041,0,-0.3522140681743622
22697,536346111,641204736,0,0.5926350355148315,0.49179136753082275,0,-0.35207849740982056
22707,536346111,641204736,0,0.5930554270744324,0.4917980134487152,0,-0.3532577157020569
22717,536346111,641204736,0,0.5936939716339111,0.4922426640987396,0,-0.35338714718818665
22727,536346111,641204736,0,0.5935990810394287,0.4930153787136078,0,-0.35463589429855347
22737,536346111,641204736,0,0.5945079326629639,0.49388015270233154,0,-0.3547521233558655
22747,536346111,641204736,0,0.5947795510292053,0.49448534846305847,0,-0.35450270771980286
22757,536346111,641204736,0,0.5941985249519348,0.49516233801841736,0,-0.3549058437347412
22767,536346111,641204736,0,0.5941673517227173,0.4955894351005554,0,-0.3546913266181946
22777,536346111,641204736,0,0.5946274399757385,0.4955976903438568,0,-0.35393309593200684
22787,536346111,641204736,0,0.5946342945098877,0.4963545799255371,0,-0.3541928827762604
22797,536346111,641204736,0,0.5952039361000061,0.4973895847797394,0,-0.35353967547416687
22807,536346111,641204736,0,0.5951893925666809,0.4982067346572876,0,-0.35345008969306946
22817,536346111,641203712,0,0.5958714485168457,0.49862807989120483,0,-0.3544798493385315
22827,536346111,641204736,0,0.5958310961723328,0.49799931049346924,0,-0.3536454141139984
22837,536346111,641204736,0,0.5955403447151184,0.4973925054073334,0,-0.3546421527862549
22847,536346111,641204736,0,0.5961728096008301,0.49723368883132935,0,-0.35497069358825684
22857,536346111,641204736,0,0.5965197086334229,0.4979279041290283,0,-0.3546070158481598
22867,536346111,641204736,0,0.5969600081443787,0.49724265933036804,0,-0.3546282947063446
22877,536346111,641204736,0,0.5970838665962219,0.4974901080131531,0,-0.35480812191963196
22887,536346111,641204736,0,0.5970791578292847,0.4978727102279663,0,-0.3553788363933563
22897,536346111,641204736,0,0.5965995192527771,0.4980521500110626,0,-0.35630500316619873
22907,536346111,641204736,0,0.5965092778205872,0.4980892837047577,0,-0.3559472858905792
22917,536346111,641204736,0,0.5966794490814209,0.4976505637168884,0,-0.35556361079216003
22927,536346111,641204736,0,0.5968597531318665,0.4974953234195709,0,-0.35525891184806824
22937,536346111,641204736,0,0.5977357625961304,0.4980117082595825,0,-0.35560017824172974
22947,536346111,641204736,0,0.5984063148498535,0.49867042899131775,0,-0.3562782406806946
22957,536346111,641204736,0,0.597654402256012,0.49832481145858765,0,-0.35790368914604187
22967,536346111,641204736,0,0.5969597101211548,0.49861112236976624,0,-0.3588463366031647
22977,536346111,641203712,0,0.5965929627418518,0.49733757972717285,0,-0.35910651087760925
22987,536346111,641204736,0,0.5969947576522827,0.49714964628219604,0,-0.35949596762657166
22997,536346111,641204736,0,0.5960155725479126,0.49801233410835266,0,-0.35902464389801025
23007,536346111,641204736,0,0.595770001411438,0.4983139932155609,0,-0.3595494329929352
23017,536346111,641204736,0,0.5959444046020508,0.4988086521625519,0,-0.3594037890434265
23027,536346111,641204736,0,0.5964691042900085,0.4988754093647003,0,-0.35969027876853943
23037,536346111,641204736,0,0.5957362651824951,0.4979645013809204,0,-0.35918715596199036
23047,536346111,641204736,0,0.5953912138938904,0.49804815649986267,0,-0.35907217860221863
23057,536346111,641204736,0,0.5948017835617065,0.4972642958164215,0,-0.35994836688041687
23067,536346111,641204736,0,0.5948619246482849,0.49671608209609985,0,-0.3600238561630249
23077,536346111,641204736,0,0.5946352481842041,0.49618083238601685,0,-0.36129674315452576
23087,536346111,641204736,0,0.5949057936668396,0.49608394503593445,0,-0.3605766296386719
23097,536346111,641204736,0,0.5950019359588623,0.49590688943862915,0,-0.36011627316474915
23107,536346111,641203713,0,0.5954737663269043,0.4957612156867981,0,-0.3602549433708191
23117,536346111,641203713,0,0.5947799682617188,0.49476495385169983,0,-0.36116161942481995
23127,536345087,641204736,0,0.5969724059104919,0.4949716031551361,0,-0.36144575476646423
23137,536346111,641204735,0,0.595230758190155,0.49611756205558777,0,-0.36151590943336487
23147,535297535,642253311,0,0.5918124914169312,0.4976538419723511,0,-0.36149221658706665
23157,536345087,641204736,0,0.5914985537528992,0.4996195137500763,0,-0.36362510919570923
23167,536346111,640155137,0,0.5924647450447083,0.49849429726600647,0,-0.3631727993488312
23177,536346111,641203713,0,0.5942249894142151,0.49706488847732544,0,-0.36274033784866333
23187,536346111,642253313,0,0.5954803228378296,0.4973307251930237,0,-0.36322492361068726
23197,536346111,642253312,0,0.5966871976852417,0.49630266427993774,0,-0.36256951093673706
23207,536346111,640156159,0,0.5960520505905151,0.49626263976097107,0,-0.36244139075279236
23217,536346111,641204736,0,0.5947955250740051,0.49761706590652466,0,-0.36326587200164795
23227,536346111,642253313,0,0.5943894386291504,0.4976094365119934,0,-0.3629162013530731
23237,536346111,642252289,0,0.5957034230232239,0.4972938895225525,0,-0.3635087311267853
23247,536346111,641203713,0,0.5973492860794067,0.4965493977069855,0,-0.36428138613700867
23257,536346111,640156160,0,0.5984154939651489,0.49738526344299316,0,-0.36590999364852905
23267,536346111,642253312,0,0.5978538990020752,0.4983137845993042,0,-0.36653944849967957
23277,536346111,642253312,0,0.5964520573616028,0.4978083372116089,0,-0.3668515384197235
23287,536346111,641204736,0,0.5954993367195129,0.4976840615272522,0,-0.3679000735282898
23297,536346111,641203713,0,0.5958372950553894,0.4970375895500183,0,-0.3688028156757355
23307,536346111,641203713,0,0.59751296043396,0.4959878623485565,0,-0.3680589199066162
23317,536346111,641203712,0,0.5972364544868469,0.4961439073085785,0,-0.36743754148483276
23327,535297535,641204736,0,0.5974724292755127,0.4949195683002472,0,-0.36743924021720886
23337,536346111,641204736,0,0.5959047079086304,0.4951847195625305,0,-0.36837345361709595
23347,536346111,641204736,0,0.594974935054779,0.4971647560596466,0,-0.3683720529079437
23357,536346111,642253313,0,0.5953254103660583,0.49776068329811096,0,-0.36957189440727234
23367,536346111,641203713,0,0.5965069532394409,0.49671468138694763,0,-0.36935582756996155
23377,536346111,641204737,0,0.5974440574645996,0.4967181384563446,0,-0.36954525113105774
23387,536346111,641204736,0,0.5973817706108093,0.4963281750679016,0,-0.370403528213501
23397,536346111,642253312,0,0.596017599105835,0.4967339038848877,0,-0.3711010217666626
23407,536346111,641204736,0,0.5952370166778564,0.496743768453598,0,-0.3717515170574188
23417,536346111,640155136,0,0.5956447720527649,0.4968215227127075,0,-0.37090232968330383
23427,536346111,641204737,0,0.5955979228019714,0.49790263175964355,0,-0.37090036273002625
23437,536346111,642253313,0,0.596666157245636,0.49879083037376404,0,-0.37099289894104004
23447,536346111,641204736,0,0.5977658033370972,0.4981217384338379,0,-0.37123969197273254
23457,536346111,641204736,0,0.5979722738265991,0.498959481716156,0,-0.37124454975128174
23467,536346111,641204736,0,0.5967340469360352,0.4994620382785797,0,-0.3713735342025757
23477,536346111,642253312,0,0.5951140522956848,0.49939414858818054,0,-0.3718506395816803
23487,536346111,641203712,0,0.595683217048645,0.4991227388381958,0,-0.37139445543289185
23497,536346111,641204737,0,0.5953322649002075,0.49906855821609497,0,-0.3717644512653351
23507,536346111,641204736,0,0.5957000255584717,0.4987648129463196,0,-0.3713211715221405
23517,536346111,642253312,0,0.5962991714477539,0.49912527203559875,0,-0.37142762541770935
23527,535297535,641204736,0,0.5954055786132812,0.49808380007743835,0,-0.3721601366996765
23537,536346111,641204736,0,0.5947726368904114,0.49843570590019226,0,-0.3727887272834778
23547,536346111,641204736,0,0.5947126150131226,0.4981153905391693,0,-0.37308821082115173
23557,536346111,642252288,0,0.5942222476005554,0.4973461925983429,0,-0.37351664900779724
23567,536346111,641204737,0,0.5942462682723999,0.49643823504447937,0,-0.3739682137966156
23577,536346111,641204736,0,0.5948300957679749,0.4963313639163971,0,-0.37419652938842773
23587,536346111,641204736,0,0.5942894220352173,0.4960750639438629,0,-0.37305590510368347
23597,536346111,641204736,0,0.5937751531600952,0.49648600816726685,0,-0.3726116120815277
23607,536346111,641204736,0,0.5932771563529968,0.49695447087287903,0,-0.3720914423465729
23617,536346111,641204736,0,0.5939235091209412,0.4964391589164734,0,-0.372562438249588
23627,536346111,641204737,0,0.5946780443191528,0.49668025970458984,0,-0.372342586517334
23637,535297535,641204736,0,0.5944865345954895,0.4968891143798828,0,-0.37252458930015564
23647,535297535,641204736,0,0.5943359732627869,0.49673235416412354,0,-0.37364840507507324
23657,536346111,641204736,0,0.5933150053024292,0.4970119297504425,0,-0.3752577602863312
23667,536346111,641204736,0,0.5919119715690613,0.497239887714386,0,-0.37549108266830444
23677,536346111,641204736,0,0.5929447412490845,0.4974273443222046,0,-0.37505263090133667
23687,536346111,642252288,1028147775,0.5925248265266418,0.49752581119537354,8192,-0.3755108118057251
23697,535297535,641204736,1112362820,0.5919824838638306,0.49613410234451294,38400,-0.3754532039165497
23707,536346111,641204736,1162891847,0.5919644832611084,0.4962460994720459,53760,-0.37578049302101135
23717,536345087,641203712,1196643657,0.5928295254707336,0.49447429180145264,4096,-0.3741123080253601
23727,535297535,642254336,1196578122,0.5928541421890259,0.4955645203590393,4096,-0.37514805793762207
23737,536345086,641202688,1196709192,0.5920400023460388,0.4930315613746643,4096,-0.3737014830112457
23747,538443263,640156161,1179931977,0.5913187265396118,0.49753043055534363,4096,-0.37707480788230896
23757,531103231,641204736,1229936967,0.5929980278015137,0.49677950143814087,4096,-0.38754191994667053
23767,531103230,640156160,1247172938,0.5935536026954651,0.4979270398616791,19456,-0.3699871003627777
23777,539492861,641203712,1213813837,0.5927398204803467,0.493840754032135,19456,-0.3719402253627777
23787,535297536,641204736,1280793423,0.5975581407546997,0.49790123105049133,35328,-0.37762266397476196
23797,536345088,640158206,1213750863,0.594864010810852,0.5035397410392761,35328,-0.37804731726646423
23807,537393663,640157184,1298030159,0.5896362662315369,0.5075505375862122,49664,-0.38245639204978943
23817,534248959,640156160,1297636687,0.589004397392273,0.5072419047355652,31744,-0.388702929019928
23827,534249980,644351487,1348294986,0.5866926312446594,0.5075759887695312,31744,-0.3921026289463043
23837,534248960,640154111,1381259344,0.5850974917411804,0.5093070268630981,54784,-0.4098794460296631
23847,535298557,641205761,1365269579,0.5838759541511536,0.5103725790977478,49664,-0.419267475605011
23857,535297536,640156160,1297637459,0.5755118727684021,0.5061525702476501,49664,-0.426488995552063
23867,533201406,644351487,1431656531,0.581811249256134,0.5221211314201355,5120,-0.44277945160865784
23877,539488767,641202688,1063348042,0.5781921744346619,0.5121046900749207,30720,-0.4402482509613037
23887,537394686,640150016,1214013259,0.5786421895027161,0.4928828179836273,57344,-0.42870935797691345
23897,537395710,640154109,1432049233,0.5771936774253845,0.48995792865753174,49664,-0.41967812180519104
23907,544734719,643300860,1264278358,0.5667283535003662,0.48584917187690735,49664,-0.3882991671562195
23917,534251006,644349439,1364613973,0.5506622791290283,0.4750292897224426,49664,-0.36395299434661865
23927,534247936,645400067,1280925775,0.5489067435264587,0.4767203629016876,7168,-0.38015487790107727
23937,546833918,650643974,1314542170,0.5633772611618042,0.49235960841178894,7168,-0.3470197916030884
23947,547881472,648543751,1213619038,0.557182252407074,0.4782511293888092,49664,-0.27427607774734497
23957,542640639,647495180,1264212313,0.5704488158226013,0.483765184879303,49664,-0.20855151116847992
23967,548931073,643302925,1197431894,0.581785261631012,0.4901564121246338,49664,-0.15936562418937683
23977,554170881,639103495,1097225049,0.6217806935310364,0.5123310089111328,6656,-0.029916677623987198
23987,554177021,643295749,1248022612,0.6251204013824463,0.5042447447776794,27136,0.0741782933473587
23997,549977596,638054914,946691148,0.5950803756713867,0.45879065990448,52224,0.1995401531457901
24007,553116162,634909177,1080710729,0.6370987296104431,0.4880092740058899,4608,0.2840040624141693
24017,555218431,639109623,795305054,0.6162694096565247,0.4673994183540344,49664,0.43448546528816223
24027,551024131,643307005,1113480028,0.6083472967147827,0.48247820138931274,49664,0.523597002029419
24037,552074750,635965956,1248676949,0.6345635652542114,0.5327011346817017,49664,0.6398158073425293
24047,557318647,633865729,1013996623,0.6046451330184937,0.48345986008644104,49664,0.7438305020332336
24057,554162698,641206782,627469153,0.6390861868858337,0.508342444896698,49664,0.9026602506637573
24067,557326838,642258441,1298680408,0.624452531337738,0.5213600993156433,49664,1.0014714002609253
24077,562554370,640156167,729439318,0.6392421722412109,0.5172559022903442,49664,1.1957634687423706
24087,564656643,646444537,1147490664,0.6733936667442322,0.5414524078369141,0,1.346462607383728
24097,562569719,644353542,1198998115,0.628042459487915,0.5210545659065247,0,1.5701348781585693
24107,560463363,632818188,1030314084,0.6612567901611328,0.5184506177902222,0,1.7108628749847412
24117,556271108,639106561,946820454,0.7077489495277405,0.5702043771743774,0,1.8946402072906494
24127,553127413,644350467,1148736595,0.6695125699043274,0.559586226940155,0,1.9948676824569702
24137,549975554,647495168,862740324,0.654358446598053,0.4976520538330078,0,2.122917413711548
24147,542628355,634911232,963339353,0.6807510256767273,0.5313215851783752,0,2.1787614822387695
24157,537394692,643298815,1046962779,0.6976807117462158,0.5575743317604065,0,2.20345401763916
24167,541597171,647497217,1181833299,0.6333841681480408,0.5240715742111206,0,2.2210192680358887
24177,542636554,639106561,811690599,0.624828577041626,0.5085049867630005,0,2.2719361782073975
24187,539491836,645400068,1199332685,0.5964635610580444,0.5532186031341553,15360,2.2982170581817627
24197,535296518,642255363,1046898527,0.6455719470977783,0.5615766644477844,39424,2.3072338104248047
24207,536342014,643303934,1064395858,0.6390167474746704,0.5942385196685791,57856,2.3070340156555176
24217,534247931,639107584,963209558,0.6178925037384033,0.5656982064247131,14336,2.3020851612091064
24227,534247942,641203711,929392985,0.6079379320144653,0.5693641304969788,33280,2.2876036167144775
24237,535297534,635960832,1298356835,0.6287599205970764,0.6068682074546814,15360,2.2801105976104736
24247,536349183,643302911,1181704279,0.6123387217521667,0.5990857481956482,15360,2.2801034450531006
24257,537391617,638061055,1098016860,0.6014044284820557,0.6177700757980347,31232,2.2895100116729736
24267,539489792,643307009,1064462939,0.5892180800437927,0.6263543367385864,31232,2.292832851409912
24277,540545532,641203710,1198415715,0.5692644715309143,0.6209491491317749,31232,2.3270833492279053
24287,540537343,644345346,1199533146,0.5610043406486511,0.6093982458114624,61440,2.350130796432495
24297,537392637,644346367,1165717342,0.5637398958206177,0.5853830575942993,61440,2.3699026107788086
24307,542639618,631765505,1316186221,0.591640055179596,0.5731911063194275,11264,2.3910062313079834
24317,543684094,642252287,1233348706,0.5992427468299866,0.6022465825080872,11264,2.453186273574829
24327,544742905,646446588,1383753582,0.5789663791656494,0.5632118582725525,26624,2.498340606689453
24337,543682050,638057987,1082553958,0.5555742383003235,0.5477558970451355,26624,2.5700247287750244
24347,538436096,643302911,1199864422,0.5544806122779846,0.5712034106254578,42496,2.595465660095215
24357,541593086,642248195,1367502962,0.5642530918121338,0.5536065697669983,57856,2.62600040435791
24367,537395709,639105536,1334278248,0.5413339734077454,0.5247918963432312,57856,2.642106771469116
24377,536339969,638059006,1317304937,0.5612016320228577,0.5420688986778259,57856,2.6443932056427
24387,538447360,640152068,1434415473,0.569754958152771,0.5481549501419067,57856,2.65263295173645
24397,535297533,632812033,1317370473,0.5519099831581116,0.5042778253555298,57856,2.6567015647888184
24407,537387528,640155131,1266975088,0.5595847964286804,0.5453870296478271,8192,2.656839609146118
24417,538444281,650640894,1468954734,0.5503514409065247,0.545882523059845,22528,2.676939010620117
24427,538433025,632814084,1234537579,0.5632896423339844,0.5021291971206665,38400,2.688828706741333
24437,543689236,628620798,1332641945,0.6404609680175781,0.5769512057304382,38400,2.728865385055542
24447,543691255,638061054,1621324385,0.6078919172286987,0.6187582612037659,38400,2.7669131755828857
24457,540540399,648548863,1554612325,0.5098039507865906,0.5259754657745361,4096,2.815142869949341
24467,541579792,655884803,1351523471,0.5599855780601501,0.5485734343528748,57600,2.844268798828125
24477,538447359,639103488,1687128461,0.5895872116088867,0.5899348258972168,57600,2.874960422515869
24487,539488756,649590273,1689294198,0.5427354574203491,0.5275896191596985,7680,2.887669086456299
24497,540540411,622329342,1704696473,0.567176342010498,0.44807949662208557,22784,2.9180989265441895
24507,542624280,632815102,1470018720,0.5861758589744568,0.4798031747341156,38400,2.9449398517608643
24517,544714228,648538625,1909694076,0.6989888548851013,0.5459296703338623,54016,3.0088863372802734
24527,543709688,629666303,2158795171,0.6232886910438538,0.48520493507385254,28928,3.049715757369995
24537,543689205,633857546,1842064526,0.4296257495880127,0.39360567927360535,3584,3.1162781715393066
24547,544724479,645402124,1807921811,0.44242149591445923,0.3543693423271179,3584,3.155522346496582
24557,543695363,644359688,2242942377,0.5606001019477844,0.42064985632896423,3584,3.2213590145111084
24567,543668721,645406200,2093064341,0.6486127972602844,0.38661709427833557,3584,3.2609853744506836
24577,538442263,638051834,1840230821,0.6250531077384949,0.4707605540752411,3584,3.296660900115967
24587,540539386,638046722,2177473931,0.6226696372032166,0.545759916305542,3584,3.3171613216400146
24597,539516384,635968012,2445380756,0.5416855812072754,0.3674865961074829,3584,3.346846103668213
24607,535311865,656935418,2142347681,0.4443505108356476,0.2883014976978302,3584,3.353276491165161
24617,534262266,651671025,2176688787,0.23279397189617157,0.24070963263511658,3584,3.334115505218506
24627,534313465,643308046,2627109302,0.0661279559135437,0.18047602474689484,28928,3.329901695251465
24637,529038855,643301881,2275516586,-0.2941044569015503,0.21422746777534485,3584,3.2989208698272705
24647,529066494,640142833,2493681062,-0.649237334728241,0.22502604126930237,28928,3.263061761856079
24657,529055228,653792780,2510329001,-1.049096941947937,0.17642569541931152,3584,3.2083489894866943
24667,526960121,664279552,2427099041,-1.3495817184448242,0.16789864003658295,3584,3.1645617485046387
24677,526953970,652728821,2912059061,-1.713243007659912,0.06739646941423416,3584,3.0879786014556885
24687,527993323,628612616,2411174036,-1.9582304954528809,-0.05815964564681053,3584,3.038656711578369
24697,528007651,637009415,3063903656,-2.2570762634277344,-0.27317216992378235,3584,2.9739301204681396
24707,527995355,649605618,2713159572,-2.5342061519622803,-0.41622447967529297,3584,2.9276442527770996
24717,529060311,646441453,3064296611,-2.9620168209075928,-0.7252081632614136,3584,2.864159107208252
24727,529038810,639096318,2829680546,-3.1628119945526123,-0.9712464809417725,3584,2.823927640914917
24737,529047016,646448655,2695400606,-3.4463372230529785,-1.2153997421264648,3584,2.766845226287842
24747,527993341,659035643,2761131191,-3.6217234134674072,-1.2574955224990845,3584,2.72165584564209
24757,526932487,649585141,2459933861,-3.9220471382141113,-1.235073447227478,3584,2.6437695026397705
24767,526946833,639100415,2643167417,-4.0710344314575195,-1.1728687286376953,28928,2.5918731689453125
24777,526921242,649595390,2241701026,-4.25474214553833,-0.9826854467391968,28928,2.511162519454956
24787,527972893,643299841,2342231726,-4.3492512702941895,-0.8184515833854675,3584,2.4661624431610107
24797,527957533,645399035,2442042550,-4.349268436431885,-0.5695518255233765,3584,2.3997159004211426
24807,529003033,639099387,2208407971,-4.370228290557861,-0.41674184799194336,28928,2.358640670776367
24817,530053648,628614655,2610270641,-4.306243419647217,-0.2630958557128906,3584,2.3028454780578613
24827,530042373,629663231,2393742491,-4.251780033111572,-0.22207103669643402,3584,2.27150297164917
24837,529001979,644354568,2628227741,-4.129634857177734,-0.22214242815971375,3584,2.215852975845337
24847,528985587,634922512,2511771026,-4.0030646324157715,-0.24762263894081116,3584,2.1802353858947754
24857,530038254,650653179,2444926091,-3.8569464683532715,-0.3279048800468445,3584,2.1331145763397217
24867,530035182,643287540,2594803872,-3.760894536972046,-0.43074795603752136,3584,2.101840019226074
24877,531086829,647477745,2494666900,-3.64770245552063,-0.631788969039917,3584,2.05440092086792
24887,530044399,648548874,2645200286,-3.5264487266540527,-0.740570604801178,3584,2.0291457176208496
24897,530035187,639119886,2444663951,-3.35026478767395,-0.8192781805992126,3584,1.9855952262878418
24907,530044405,633865724,2544800921,-3.277665376663208,-0.8576185703277588,3584,1.9529592990875244
24917,531088884,627562995,2594935706,-3.1673483848571777,-0.9648311138153076,3584,1.9088295698165894
24927,531091961,632825357,2494600856,-3.075766086578369,-1.005155086517334,3584,1.8893705606460571
24937,531095041,648550910,2460850841,-2.9586281776428223,-0.9808542132377625,3584,1.8582653999328613
24947,531092995,650626536,2427165341,-2.9545130729675293,-0.9773555994033813,3584,1.8320797681808472
24957,532147716,643288580,2476971422,-2.876577138900757,-0.9798137545585632,28928,1.7961325645446777
24967,532145673,634906115,2410322845,-2.8333842754364014,-0.9458275437355042,3584,1.7728626728057861
24977,532155922,638057975,2443090856,-2.8366596698760986,-0.8180335164070129,3584,1.7396458387374878
24987,531108370,637005301,2493224621,-2.8492624759674072,-0.7261708974838257,3584,1.7165263891220093
24997,531111443,626532875,2459671721,-2.8822264671325684,-0.5476818680763245,3584,1.675362467765808
25007,531113488,635971084,2476972451,-2.909022808074951,-0.4026575982570648,3584,1.6492761373519897
25017,530061837,646441458,2476907937,-2.9948785305023193,-0.26148924231529236,3584,1.6009882688522339
25027,530059781,651676144,2543883942,-3.050422191619873,-0.22884586453437805,3584,1.5624138116836548
25037,527959553,628602374,2610730661,-3.0542049407958984,-0.2576952278614044,3584,1.502407193183899
25047,529009150,635976205,2611188897,-3.011650323867798,-0.2505526840686798,3584,1.4637845754623413
25057,529010169,631776772,2628424856,-2.9981327056884766,-0.22199125587940216,3584,1.4144889116287231
25067,529010167,639110654,2611581851,-3.009664297103882,-0.2554941773414612,3584,1.3754898309707642
25077,530056694,645387761,2644808605,-3.059365749359131,-0.33893150091171265,3584,1.3204330205917358
25087,531101174,635946498,2611254176,-3.0361106395721436,-0.42882445454597473,3584,1.2905892133712769
25097,530054651,640157199,2627901087,-2.9676361083984375,-0.5083423256874084,3584,1.2454172372817993
25107,527955453,648551944,2578028441,-2.938110589981079,-0.49999189376831055,3584,1.2123217582702637
25117,530051583,640155130,2594609307,-2.9181854724884033,-0.4972858428955078,3584,1.157723069190979
25127,528995838,637007342,2560989342,-2.8817594051361084,-0.5072664618492126,3584,1.1169865131378174
25137,530044416,625474054,2544147356,-2.789919137954712,-0.510392427444458,3584,1.0652990341186523
25147,530046467,641210889,2510920602,-2.7097790241241455,-0.47954216599464417,3584,1.0366227626800537
25157,531096070,659031545,2409995670,-2.6555893421173096,-0.4091929495334625,28928,0.9899358749389648
25167,531100171,648530419,2493488036,-2.6486778259277344,-0.3709639608860016,3584,0.9585742354393005
25177,533197325,629651965,2493160361,-2.606691837310791,-0.31651926040649414,3584,0.9279392957687378
25187,532156942,638070284,2526714025,-2.577981948852539,-0.23128452897071838,3584,0.911016047000885
25197,534260239,633874952,2510068136,-2.5967986583709717,-0.053802862763404846,3584,0.8949791789054871
25207,536358413,648557051,2476906661,-2.685163974761963,0.07117918878793716,3584,0.8921223878860474
25217,536363530,636997107,2577109932,-2.832271099090576,0.17987160384655,3584,0.894291877746582
25227,536361479,638044664,2560267436,-2.9384119510650635,0.19362202286720276,3584,0.8956817388534546
25237,537404932,626509316,2593690032,-3.014051914215088,0.20114140212535858,3584,0.8992757201194763
25247,538445311,631773707,2610728876,-2.9900569915771484,0.20453780889511108,3584,0.9147099852561951
25257,538437116,630729223,2494272926,-2.937986373901367,0.22963395714759827,3584,0.9376636743545532
25267,538428920,653797880,2428017296,-2.9010794162750244,0.24455030262470245,3584,0.9547505974769592
25277,538427893,655881716,2461440147,-2.7999305725097656,0.1868790239095688,3584,0.9756129384040833
25287,538425846,647482865,2444007837,-2.729844331741333,0.11698631942272186,3584,0.9856351017951965
25297,538424825,624415242,2443548836,-2.5596864223480225,0.009885229170322418,3584,1.0046648979187012
25307,539470333,630726158,2376572066,-2.3804404735565186,-0.024374496191740036,3584,1.0214122533798218
25317,538423808,634924551,2377556377,-2.1795620918273926,0.0213446244597435,44032,1.0481841564178467
25327,537381380,631758318,2444205982,-2.114501476287842,0.05408911406993866,44032,1.0538601875305176
25337,536339973,639105532,2493815722,-2.0476601123809814,0.08406201004981995,44032,1.0625423192977905
25347,536347137,645402107,2678824108,-2.0325498580932617,0.1190253272652626,59648,1.0633282661437988
25357,536350204,639104511,2746522793,-2.0503089427948,0.11860383301973343,34816,1.063961386680603
25367,535306744,631763459,2847251629,-2.080512285232544,0.08850283175706863,9216,1.0618659257888794
25377,534262259,627565051,3047920309,-2.149815797805786,-0.007611152250319719,9216,1.0519824028015137
25387,535310834,629678604,2880345517,-2.1940858364105225,-0.07824960350990295,34816,1.0463773012161255
25397,535311863,652747264,2780142759,-2.290370464324951,-0.13245144486427307,34816,1.0448328256607056
25407,536353273,656915941,2712772523,-2.389608144760132,-0.18255259096622467,34816,1.0383747816085815
25417,537394685,641201664,2763039154,-2.4418487548828125,-0.23848670721054077,9216,1.0403921604156494
25427,537387521,633875992,2663032489,-2.3774776458740234,-0.21045571565628052,9216,1.051450252532959
25437,536337928,642248194,2578491052,-2.267244338989258,-0.15211430191993713,34816,1.0572669506072998
25447,537383435,653770227,2594612663,-2.203917980194092,-0.12755754590034485,34816,1.0590660572052002
25457,536336909,648561175,2612309683,-2.0925188064575195,-0.005874150432646275,49920,1.0650864839553833
25467,539484684,645408254,2680271794,-2.046363592147827,0.11133939772844315,0,1.075238823890686
25477,535289350,650620391,3032659652,-2.005697727203369,0.17972655594348907,30720,1.0843994617462158
25487,536334853,653788679,3033251783,-1.9322224855422974,0.19553130865097046,46336,1.0882015228271484
25497,539479550,648558087,3118645949,-1.8152309656143188,0.2519752085208893,61440,1.1043329238891602
25507,538431993,646426092,3251880143,-1.7545359134674072,0.20192013680934906,36352,1.1138033866882324
25517,537387507,660092435,3319644360,-1.665912389755249,0.11857414990663528,8192,1.1259821653366089
25527,536349166,653787634,3453729226,-1.6680445671081543,0.05833340436220169,8192,1.1260918378829956
25537,537397736,656927234,3537679306,-1.6838399171829224,-0.12612922489643097,8192,1.134119987487793
25547,536353259,657979902,3352870860,-1.734463095664978,-0.24801893532276154,8192,1.1363645792007446
25557,536352244,659039752,3386490316,-1.7562812566757202,-0.35905659198760986,8192,1.137599229812622
25567,538447355,669501939,3234972886,-1.7939318418502808,-0.42452701926231384,8192,1.1464693546295166
25577,537396739,659033622,3269116621,-1.7921239137649536,-0.4004557728767395,8192,1.1595251560211182
25587,538443269,666372591,3235038421,-1.7824267148971558,-0.3768034279346466,8192,1.1735889911651611
25597,537398796,664251906,3201222361,-1.8179562091827393,-0.30699536204338074,8192,1.1899923086166382
25607,538441231,664265217,3117534165,-1.8152706623077393,-0.2391776442527771,8192,1.2026026248931885
25617,539483664,671597037,3050622420,-1.7821519374847412,-0.12075107544660568,8192,1.2293599843978882
25627,538434062,666344958,3151349970,-1.7366552352905273,-0.050800029188394547,8192,1.2453136444091797
25637,536333835,654844424,3118255305,-1.6350654363632202,0.06679356843233109,8192,1.2503759860992432
25647,538432008,662178303,3134769615,-1.5574463605880737,0.1360376477241516,8192,1.2609854936599731
25657,538428934,666355191,3101280975,-1.455033540725708,0.1844760626554489,8192,1.2760365009307861
25667,537381379,661115397,3135032010,-1.3859984874725342,0.2039353996515274,8192,1.2807180881500244
25677,537381377,655887881,3151939785,-1.2524837255477905,0.23670126497745514,8192,1.293661117553711
25687,537385470,661126650,3218785741,-1.1809451580047607,0.23490051925182343,8192,1.302504539489746
25697,538437115,681032179,3201811666,-1.131622552871704,0.18252775073051453,8192,1.3209558725357056
25707,541580794,664261134,3169109445,-1.102908968925476,0.159298375248909,8192,1.3403881788253784
25717,538433017,643314191,3152332741,-0.9904381036758423,0.1329721063375473,8192,1.3690348863601685
25727,537381366,665333232,3202598340,-0.9256251454353333,0.11680992692708969,8192,1.3783351182937622
25737,537379316,671596022,3168651210,-0.8238301277160645,0.008691880851984024,8192,1.3921993970870972
25747,538429941,676833782,3185624776,-0.7607016563415527,-0.07894319295883179,8192,1.3976566791534424
25757,537385467,664269323,3135555781,-0.6705677509307861,-0.13511547446250916,8192,1.408523440361023
25767,538435070,640167425,3202598342,-0.6115822196006775,-0.09797738492488861,8192,1.4206273555755615
25777,538435072,661138930,3084634830,-0.5599201321601868,-0.0757506713271141,8192,1.4408372640609741
25787,536343046,671599099,3134245591,-0.5331177115440369,-0.06609074771404266,8192,1.4477906227111816
25797,537391624,673693174,3084307156,-0.5168240666389465,-0.031397461891174316,8192,1.4560197591781616
25807,537392650,665312784,3084897481,-0.5120049118995667,0.026792658492922783,8192,1.462692379951477
25817,537391627,641222142,3152201415,-0.4725053310394287,0.17573297023773193,8192,1.4738553762435913
25827,535296520,661135858,3117796306,-0.4707624614238739,0.247077077627182,8192,1.4787572622299194
25837,535297542,679987699,3084111061,-0.49022114276885986,0.2987130880355835,8192,1.4815083742141724
25847,533203460,669502974,3151219410,-0.5029473304748535,0.3116363286972046,8192,1.4717684984207153
25857,533204481,662176254,3218852041,-0.543658435344696,0.3332725763320923,8192,1.4422547817230225
25867,534252032,644367869,3235955911,-0.5617938041687012,0.36996883153915405,8192,1.4354544878005981
25877,534248957,665324011,3151219411,-0.5838340520858765,0.36600062251091003,8192,1.4298944473266602
25887,534248956,664272376,3185428426,-0.6069912314414978,0.3568173348903656,8192,1.4213993549346924
25897,534247930,662176253,3235825095,-0.6110021471977234,0.32735660672187805,8192,1.4088726043701172
25907,532152829,663225852,3168324045,-0.6131653785705566,0.3003152906894684,8192,1.3988265991210938
25917,533201405,651708925,3252405706,-0.6166122555732727,0.31103387475013733,8192,1.3758741617202759
25927,534244861,660081147,3151874761,-0.6083049178123474,0.31744760274887085,8192,1.3590648174285889
25937,534243839,685221371,3034108365,-0.5815471410751343,0.271516889333725,8192,1.3384584188461304
25947,533197313,656927243,3185494471,-0.5541003942489624,0.2729834020137787,8192,1.3254711627960205
25957,533197314,647513599,3202271686,-0.5140393376350403,0.3334178030490875,8192,1.3016951084136963
25967,533197314,657987068,3134901195,-0.49738869071006775,0.36246082186698914,8192,1.2885074615478516
25977,533196289,669511149,3117731536,-0.4799158573150635,0.36124467849731445,8192,1.2672690153121948
25987,533198336,683122167,3117731025,-0.4748702049255371,0.33792412281036377,8192,1.2541989088058472
25997,533200386,652734988,3185560261,-0.4645301103591919,0.3466430902481079,8192,1.232066035270691
26007,533200383,645414407,3185690820,-0.45062267780303955,0.37781959772109985,8192,1.220093011856079
26017,532151806,653799930,3218917576,-0.44311749935150146,0.41393420100212097,8192,1.2030619382858276
26027,532151805,660079099,3202009290,-0.4527466893196106,0.41603177785873413,8192,1.1820677518844604
26037,532152828,679978498,3033253833,-0.4538689851760864,0.35142236948013306,21248,1.15207040309906
26047,533200383,655886863,2899556527,-0.4557034969329834,0.352848619222641,55552,1.1299506425857544
26057,533201408,639128067,2696915625,-0.43573200702667236,0.40266430377960205,49920,1.1129908561706543
26067,532154880,651700724,2646124969,-0.45379841327667236,0.43540990352630615,9216,1.0922125577926636
26077,533202429,664262124,2443616166,-0.4933373034000397,0.413856565952301,44032,1.068048357963562
26087,532156927,655870469,2444271517,-0.5323395133018494,0.4010121524333954,44032,1.0492509603500366
26097,534251006,640176644,2477825437,-0.5473942160606384,0.41738206148147583,44032,1.023682951927185
26107,533204476,653776366,2410126241,-0.57191401720047,0.40345054864883423,3584,1.0146126747131348
26117,532158971,645404167,2511313046,-0.6304109692573547,0.38057905435562134,3584,0.9836239218711853
26127,533206522,635961849,2477103266,-0.6561970710754395,0.3535061180591583,3584,0.9630087614059448
26137,532159994,645399039,2427755922,-0.7422115802764893,0.3123151957988739,3584,0.9345636963844299
26147,536349177,638053880,2443942046,-0.7737276554107666,0.2862916886806488,3584,0.9245774149894714
26157,533205498,617081361,2444532626,-0.8096919059753418,0.24273410439491272,3584,0.9140812158584595
26167,534251002,638039517,2410257311,-0.841508150100708,0.16883158683776855,3584,0.9018429517745972
26177,536344059,644375058,2477890461,-0.8630435466766357,0.15136981010437012,44032,0.8989734649658203
26187,534248955,642256366,2360712851,-0.8727687001228333,0.16091638803482056,3584,0.8921367526054382
26197,535293435,626522630,2460391842,-0.837039589881897,0.11747392266988754,3584,0.8818556666374207
26207,535294460,616047121,2377292951,-0.7908141613006592,0.11606386303901672,3584,0.8806561231613159
26217,536344061,625462757,2394200981,-0.7950981855392456,0.09865463525056839,3584,0.8758084774017334
26227,535297534,629660147,2393545631,-0.8274791240692139,0.061781905591487885,3584,0.8741542100906372
26237,535299581,641211905,2410716056,-0.8710792660713196,0.06270970404148102,3584,0.8702153563499451
26247,535301629,631766526,2427427481,-0.8773918747901917,0.06392938643693924,3584,0.8710460066795349
26257,534254078,621291022,2476906406,-0.8576739430427551,0.05968081206083298,3584,0.8637111186981201
26267,533207553,628622851,2477168802,-0.8667048215866089,0.0868794322013855,3584,0.8542537093162537
26277,535304706,626509290,2410781336,-0.9657383561134338,0.09514202177524567,3584,0.8411473631858826
26287,534257155,616025598,2460129447,-1.016503095626831,0.0694509744644165,3584,0.8367981910705566
26297,533207553,622327298,2477103521,-1.071848750114441,0.06906396895647049,3584,0.8220326900482178
26307,533207554,629668349,2443811486,-1.112062931060791,0.08355814963579178,3584,0.8064814805984497
26317,533206530,632802802,2443746206,-1.1778825521469116,0.07165645062923431,3584,0.7845028042793274
26327,533205505,637018633,2443680161,-1.1969151496887207,0.0678899958729744,3584,0.7740780115127563
26337,535301635,638074375,2393676956,-1.2059547901153564,0.13516461849212646,3584,0.761873185634613
26347,535299586,625471982,2427230876,-1.2362345457077026,0.17074912786483765,3584,0.7580222487449646
26357,535297536,611839485,2477234336,-1.2556226253509521,0.16667722165584564,3584,0.7510362863540649
26367,534249984,623386117,2427231132,-1.2494162321090698,0.17465199530124664,3584,0.7447768449783325
26377,533202431,644353526,2427296921,-1.2777432203292847,0.21179766952991486,3584,0.732802152633667
26387,534247934,644342254,2427100061,-1.3040324449539185,0.20533834397792816,3584,0.71687912940979
26397,534247933,632807944,2494011551,-1.2824735641479492,0.16839878261089325,3584,0.7018114924430847
26407,534248958,625483280,2460915866,-1.2512807846069336,0.16384287178516388,3584,0.6921697854995728
26417,534247934,624427526,2410323101,-1.2092998027801514,0.17773497104644775,3584,0.6759136319160461
26427,533200382,623367673,2443680416,-1.1959069967269897,0.15885241329669952,3584,0.6618830561637878
26437,534249983,621285899,2443942556,-1.1776856184005737,0.13873188197612762,3584,0.6479501128196716
26447,534252032,631772671,2443877022,-1.1742061376571655,0.16092415153980255,3584,0.6359161734580994
26457,534252032,633863677,2443549346,-1.1962566375732422,0.17952628433704376,3584,0.6258427500724792
26467,535300607,627564030,2460522911,-1.2129590511322021,0.17050166428089142,3584,0.6164427995681763
26477,534255105,634918412,2443811486,-1.2264902591705322,0.17394614219665527,3584,0.6099466681480408
26487,534254080,644350452,2427362201,-1.2582727670669556,0.19677691161632538,3584,0.598074734210968
26497,535298559,632805872,2460523167,-1.319689154624939,0.18410828709602356,3584,0.5804257988929749
26507,534249984,621294090,2460588446,-1.320589303970337,0.18320968747138977,3584,0.5717812776565552
26517,534251009,625492487,2410651032,-1.2982780933380127,0.2547270357608795,3584,0.5606992244720459
26527,534249984,625470959,2427296922,-1.3129055500030518,0.28109124302864075,3584,0.5527533292770386
26537,535295488,625470973,2393742745,-1.3338346481323242,0.27801087498664856,3584,0.5390939712524414
26547,534247937,625479178,2410192030,-1.3041502237319946,0.28220808506011963,3584,0.5296527743339539
26557,534247936,639111677,2410651031,-1.292458176612854,0.3265972137451172,3584,0.5143153667449951
26567,535295485,639095277,2443942812,-1.2990975379943848,0.32381683588027954,3584,0.5054829716682434
26577,535294461,630707716,2443680416,-1.2783236503601074,0.27003777027130127,3584,0.4981769025325775
26587,535298558,625479183,2443942557,-1.2475666999816895,0.2505995035171509,3584,0.4970220625400543
26597,534252030,628623873,2477496731,-1.2409394979476929,0.2718810439109802,3584,0.48855382204055786
26607,533202429,625468911,2527763361,-1.2618253231048584,0.2598653733730316,44032,0.47602367401123047
26617,534252028,624431617,2510919580,-1.2909736633300781,0.2352980375289917,3584,0.4582713842391968
26627,534254077,640168448,2444204696,-1.3132715225219727,0.2439030557870865,3584,0.4496099054813385
26637,534251005,645388778,2427231385,-1.3806692361831665,0.24351154267787933,3584,0.4343715310096741
26647,534248956,635942389,2494077086,-1.4080482721328735,0.20189882814884186,3584,0.4248121678829193
26657,534248959,629667329,2427296921,-1.4135931730270386,0.1650039702653885,3584,0.4131906032562256
26667,534248960,644358647,2427296921,-1.415379285812378,0.18142803013324738,3584,0.4058428704738617
26677,534244864,637013499,2410192541,-1.4133456945419312,0.20893938839435577,3584,0.39197373390197754
26687,535292416,622334476,2410323101,-1.3698996305465698,0.21686159074306488,3584,0.3812755346298218
26697,534246914,618144274,2393677722,-1.274132490158081,0.25729605555534363,3584,0.3730931878089905
26707,535293442,618130933,2377162391,-1.2471683025360107,0.2849515974521637,3584,0.3665264844894409
26717,535293439,618122736,2427100316,-1.2534680366516113,0.26371631026268005,3584,0.35864391922950745
26727,534247936,632820227,2410257566,-1.2460416555404663,0.25300732254981995,3584,0.3568887710571289
26737,534252030,645400062,2460982166,-1.260832667350769,0.28221309185028076,3584,0.3429562449455261
26747,533201405,643286508,2460654236,-1.287421464920044,0.2662242650985718,3584,0.33051955699920654
26757,534247932,628609538,2493946015,-1.2940618991851807,0.19940364360809326,3584,0.3119034767150879
26767,535298558,631773707,2443942555,-1.2758889198303223,0.18281280994415283,3584,0.3052414059638977
26777,533203455,642259450,2460720537,-1.2974683046340942,0.20076078176498413,3584,0.28727617859840393
26787,533201406,639112697,2477365916,-1.3139430284500122,0.20983055233955383,3584,0.27194106578826904
26797,533200382,624435720,2477235101,-1.2824482917785645,0.21335183084011078,3584,0.25494876503944397
26807,533202431,624440838,2444139671,-1.272704839706421,0.24251189827919006,3584,0.24212363362312317
26817,534247934,627574274,2443681181,-1.2454766035079956,0.26439037919044495,3584,0.22550952434539795
26827,535295486,628609527,2427100316,-1.2431315183639526,0.24856071174144745,3584,0.21542400121688843
26837,535297535,631764473,2444008345,-1.2456703186035156,0.22529807686805725,3584,0.20686203241348267
26847,534247935,638063101,2443746461,-1.2468383312225342,0.23007096350193024,3584,0.19850066304206848
26857,534246909,635949551,2494274202,-1.2639236450195312,0.22367094457149506,3584,0.18327313661575317
26867,534245885,628609540,2460457631,-1.2524302005767822,0.18573784828186035,3584,0.17883576452732086
26877,535296510,627570179,2427428246,-1.228832483291626,0.15317359566688538,3584,0.16535602509975433
26887,534248958,630717952,2410256791,-1.2125316858291626,0.14919181168079376,28928,0.15893280506134033
26897,535293437,627561972,2410059930,-1.2104970216751099,0.12409951537847519,28928,0.14576329290866852
26907,534248958,629668346,2443679641,-1.216294765472412,0.10284298658370972,28928,0.14096850156784058
26917,535299585,637027837,2326699411,-1.2385953664779663,0.1319812834262848,28928,0.1333392858505249
26927,534251008,634908135,2360056981,-1.2726176977157593,0.15909427404403687,28928,0.12446809560060501
26937,534248960,626517499,2409994650,-1.3199036121368408,0.15303832292556763,28928,0.11255787312984467
26947,535295487,624434697,2427033751,-1.299544095993042,0.15638311207294464,28928,0.10352004319429398
26957,535298561,641211895,2377292687,-1.2875487804412842,0.19876903295516968,28928,0.09627745300531387
26967,534246910,641210873,2444008601,-1.294391393661499,0.2106945812702179,3584,0.09227948635816574
26977,535294461,631763453,2426968216,-1.2745485305786133,0.20652364194393158,28928,0.08357030898332596
26987,535294461,632818188,2393545110,-1.2492698431015015,0.18979036808013916,28928,0.07949487864971161
26997,534247934,635966976,2410453652,-1.203609585762024,0.1864299178123474,28928,0.0712502971291542
