Timestamp,compactImu.a_xyz,compactImu.l_xyz,motorCompact.pwms,stabilizer.pitch,stabilizer.roll,stabilizer.thrust,stabilizer.yaw
388703,536346111,641203712,0,-0.14625780284404755,0.4658631682395935,0,77.40975952148438
388713,535297535,641203712,0,-0.14658166468143463,0.4658459424972534,0,77.4084701538086
388743,536346111,641203712,0,-0.14546401798725128,0.4646262228488922,0,77.40819549560547
388753,536346111,641203712,0,-0.14547553658485413,0.46369022130966187,0,77.40741729736328
388763,535297535,641202688,0,-0.14584402740001678,0.4632398188114166,0,77.40656280517578
388773,536346111,641203712,0,-0.1447937935590744,0.4626649022102356,0,77.4059066772461
388783,536346111,641203712,0,-0.14438793063163757,0.4632068872451782,0,77.4051513671875
388803,535297535,641203712,0,-0.14343465864658356,0.4645754098892212,0,77.40409851074219
388823,536346111,641203712,0,-0.14385630190372467,0.4637821614742279,0,77.4036865234375
388833,536346111,641203712,0,-0.1433580070734024,0.4630049765110016,0,77.4033203125
388843,536346111,640155136,0,-0.1433606743812561,0.46255502104759216,0,77.40316009521484
388863,536346111,641203712,0,-0.1443995088338852,0.46159258484840393,0,77.4029312133789
388883,536346111,641203712,0,-0.14414289593696594,0.4623159170150757,0,77.4012451171875
388893,536346111,641203712,0,-0.1445845663547516,0.46308696269989014,0,77.40039825439453
388903,536346111,641203712,0,-0.14426344633102417,0.4634491801261902,0,77.40069580078125
388913,536346111,641203712,0,-0.14406628906726837,0.46273019909858704,0,77.39999389648438
388923,535297535,641202688,0,-0.14387080073356628,0.46187588572502136,0,77.39938354492188
388943,536346111,641203712,0,-0.14424236118793488,0.4589196443557739,0,77.40032196044922
388973,535297535,641203712,0,-0.14580754935741425,0.4585205316543579,0,77.39722442626953
388993,535297535,641203712,0,-0.14449140429496765,0.45842546224594116,0,77.3960952758789
389003,536346111,641203712,0,-0.1439739167690277,0.459153413772583,0,77.39533233642578
389013,536346111,641203712,0,-0.14342939853668213,0.45915257930755615,0,77.39448547363281
389043,536346111,641203712,0,-0.1455042064189911,0.45989084243774414,0,77.39183807373047
389053,536346111,641203712,0,-0.14554066956043243,0.46042919158935547,0,77.3923110961914
389073,536346111,641203712,0,-0.1452183574438095,0.4603898227214813,0,77.39237213134766
389083,536346111,641203712,0,-0.14504416286945343,0.46043896675109863,0,77.39261627197266
389103,535297535,641203712,0,-0.14420415461063385,0.46132582426071167,0,77.39120483398438
389123,536346111,641203712,0,-0.14316433668136597,0.46127745509147644,0,77.38902282714844
389133,535297535,641203712,0,-0.14306232333183289,0.4615130126476288,0,77.38795471191406
389163,536346111,641203712,0,-0.14323042333126068,0.46055901050567627,0,77.38631439208984
389183,536346111,641203712,0,-0.14307475090026855,0.4598526656627655,0,77.38546752929688
389193,535297535,641203712,0,-0.1429770588874817,0.4604276716709137,0,77.38445281982422
389213,536346111,641203712,0,-0.14289583265781403,0.4592798054218292,0,77.38417053222656
389233,536346111,641203712,0,-0.1420750617980957,0.4586745500564575,0,77.38408660888672
389253,535297535,641203712,0,-0.14119964838027954,0.45773443579673767,0,77.38246154785156
389273,536346111,641203712,0,-0.14078277349472046,0.4583036005496979,0,77.38118743896484
389303,536346111,641203712,0,-0.14108487963676453,0.45782387256622314,0,77.380615234375
389323,536346111,641203712,0,-0.14246578514575958,0.4585588872432709,0,77.3784408569336
389343,535297535,641203712,0,-0.14279596507549286,0.4590722620487213,0,77.37593078613281
389363,535297535,641203712,0,-0.143249049782753,0.46042773127555847,0,77.37469482421875
389383,535297535,641203712,0,-0.14261876046657562,0.45998191833496094,0,77.3749771118164
389403,536346111,641203712,0,-0.14265985786914825,0.4588581323623657,0,77.37364196777344
389413,536346111,641203712,0,-0.1417863965034485,0.45838385820388794,0,77.3729248046875
389433,536346111,641203712,0,-0.14076277613639832,0.46001264452934265,0,77.37377166748047
389453,536346111,640155136,0,-0.14119580388069153,0.4598533511161804,0,77.37183380126953
389473,535297535,641203712,0,-0.14082923531532288,0.460875540971756,0,77.3706283569336
389483,536346111,641203712,0,-0.14082197844982147,0.46053391695022583,0,77.37010955810547
389493,535297535,641203712,0,-0.1408976912498474,0.4603678584098816,0,77.36907958984375
389503,536346111,641203712,0,-0.1406179666519165,0.46031343936920166,0,77.36854553222656
389523,536346111,641203712,0,-0.14063183963298798,0.46189823746681213,0,77.36607360839844
389533,536346111,641203712,0,-0.14056611061096191,0.4630868136882782,0,77.36629486083984
389543,536346111,641203712,0,-0.13973718881607056,0.46403488516807556,0,77.36516571044922
389563,536346111,641203712,0,-0.13915778696537018,0.46389657258987427,0,77.3633804321289
389573,535297535,641203712,0,-0.13891683518886566,0.46467334032058716,0,77.3623275756836
389593,536346111,641203712,0,-0.13928620517253876,0.46572378277778625,0,77.36119842529297
389603,536346111,641203712,0,-0.13927054405212402,0.4663493037223816,0,77.36104583740234
389613,536346111,641203712,0,-0.1391032338142395,0.4655296802520752,0,77.36013793945312
389633,536346111,640155136,0,-0.13894730806350708,0.46517977118492126,0,77.35967254638672
389643,536346111,641203712,0,-0.13857850432395935,0.4651528000831604,0,77.3597412109375
389663,536346111,641203712,0,-0.13902553915977478,0.4645339846611023,0,77.35993957519531
389673,536346111,641203712,0,-0.1388096660375595,0.4643697440624237,0,77.3588638305664
389683,535297535,641203712,0,-0.1394173800945282,0.4649520218372345,0,77.35803985595703
389703,536346111,641203712,0,-0.13938051462173462,0.46411359310150146,0,77.35601806640625
389713,536346111,641203712,0,-0.1390804797410965,0.4640442430973053,0,77.35546112060547
389733,535297535,641203712,0,-0.14095354080200195,0.46600595116615295,0,77.35279083251953
389753,536346111,640155136,0,-0.14095088839530945,0.4659405052661896,0,77.35150146484375
389763,536346111,641203712,0,-0.14110761880874634,0.46579915285110474,0,77.35208129882812
389773,536346111,641203712,0,-0.13988365232944489,0.46524670720100403,0,77.35147857666016
389783,536346111,641203712,0,-0.14001724123954773,0.465639591217041,0,77.35030364990234
389793,535297535,641203712,0,-0.14004364609718323,0.4649582505226135,0,77.34942626953125
389823,536346111,641203712,0,-0.13848581910133362,0.46443432569503784,0,77.34680938720703
389833,535297535,641203712,0,-0.13877518475055695,0.46396875381469727,0,77.34552764892578
389843,536346111,641203712,0,-0.13877850770950317,0.46375882625579834,0,77.3445053100586
389863,536346111,641203712,0,-0.13858623802661896,0.461450457572937,0,77.34331512451172
389873,536346111,641203712,0,-0.13873893022537231,0.4628288447856903,0,77.34331512451172
389883,536346111,641203712,0,-0.13925014436244965,0.46280333399772644,0,77.34298706054688
389903,536346111,641203712,0,-0.1407238095998764,0.462712824344635,0,77.34149169921875
389913,536346111,641203712,0,-0.14206230640411377,0.46318456530570984,0,77.34088897705078
389933,536346111,640155136,0,-0.14182676374912262,0.46343713998794556,0,77.34065246582031
389953,535297535,641203712,0,-0.14192278683185577,0.4621780216693878,0,77.33942413330078
389973,535297535,641203712,0,-0.14104251563549042,0.4615200459957123,0,77.33795166015625
389983,536346111,641203712,0,-0.14049285650253296,0.4614580273628235,0,77.33760070800781
390003,536346111,641203712,0,-0.13868063688278198,0.46034592390060425,0,77.33721160888672
390023,536346111,641203712,0,-0.13894790410995483,0.45981499552726746,0,77.33597564697266
390033,535297535,641203712,0,-0.13907134532928467,0.45898714661598206,0,77.33502197265625
390063,536346111,641203712,0,-0.13906656205654144,0.459009051322937,0,77.3318099975586
390083,536346111,641203712,0,-0.13947829604148865,0.4584306478500366,0,77.32987976074219
390103,535297535,641203712,0,-0.14057639241218567,0.4586699604988098,0,77.32733917236328
390123,535297535,641203712,0,-0.13866208493709564,0.45684561133384705,0,77.32483673095703
390143,536346111,641203712,0,-0.13841843605041504,0.45711198449134827,0,77.3228530883789
390163,535297535,641203712,0,-0.13948149979114532,0.4573582708835602,0,77.32072448730469
390173,536346111,641203712,0,-0.13944566249847412,0.4590914249420166,0,77.31996154785156
390193,536346111,641202688,0,-0.13948525488376617,0.4593079686164856,0,77.31970977783203
390213,535297535,641202688,0,-0.1411447674036026,0.4578914940357208,0,77.3175048828125
390233,535297535,641203712,0,-0.14235056936740875,0.4567940831184387,0,77.31576538085938
390253,536346111,641203712,0,-0.14241784811019897,0.4561695158481598,0,77.3158187866211
390283,536346111,640155136,0,-0.14380942285060883,0.4577252268791199,0,77.31414794921875
390303,535297535,641203712,0,-0.14403434097766876,0.45698919892311096,0,77.31136322021484
390323,536346111,641203712,0,-0.14389652013778687,0.45601949095726013,0,77.30827331542969
390343,536346111,641203712,0,-0.1441328376531601,0.4573349952697754,0,77.30734252929688
390353,536346111,641203712,0,-0.14300724864006042,0.4577123522758484,0,77.3066177368164
390373,536347135,640155136,0,-0.1436460018157959,0.4580056369304657,0,77.30524444580078
390403,536346111,641203712,0,-0.14445951581001282,0.4571821093559265,0,77.30323028564453
390423,536346111,641203712,0,-0.14325618743896484,0.45633581280708313,0,77.30158233642578
390443,535297535,641203712,0,-0.14160294830799103,0.4556165933609009,0,77.29955291748047
390453,536346111,641203712,0,-0.14130809903144836,0.45609989762306213,0,77.29875946044922
390463,536346111,640155136,0,-0.14202527701854706,0.4561348259449005,0,77.29769897460938
390473,535297535,641203712,0,-0.14358776807785034,0.45646899938583374,0,77.2957763671875
390483,536346111,641203712,0,-0.1441071331501007,0.45592114329338074,0,77.29511260986328
390493,536346111,641203712,0,-0.14426903426647186,0.4555523693561554,0,77.29557800292969
390503,536346111,641203712,0,-0.14379069209098816,0.45538076758384705,0,77.29534912109375
390523,535297535,641203712,0,-0.14446410536766052,0.45422855019569397,0,77.29408264160156
390533,536346111,641203712,0,-0.14454947412014008,0.4537687599658966,0,77.29438781738281
390553,536346111,641203712,0,-0.1442842334508896,0.4533766806125641,0,77.29391479492188
390563,535297535,641203712,0,-0.144132599234581,0.45333805680274963,0,77.29304504394531
390573,536346111,641203712,0,-0.14302031695842743,0.4546283185482025,0,77.29216766357422
390593,535297535,641203712,0,-0.14297102391719818,0.454926073551178,0,77.29080963134766
390603,535297535,641203712,0,-0.1425272673368454,0.45500069856643677,0,77.29002380371094
390613,536346111,641203712,0,-0.1425812840461731,0.4559459686279297,0,77.28923797607422
390623,536346111,641203712,0,-0.1420859843492508,0.45620694756507874,0,77.28905487060547
390643,536346111,641203712,0,-0.14196768403053284,0.4573614001274109,0,77.2877426147461
390653,535297535,641203712,0,-0.14182214438915253,0.4572596251964569,0,77.28636169433594
390673,536346111,641203712,0,-0.1410260647535324,0.4580172598361969,0,77.28572845458984
390683,536346111,641203712,0,-0.1402232050895691,0.4586063325405121,0,77.28518676757812
390693,536346111,641203712,0,-0.1398167908191681,0.4582086205482483,0,77.28494262695312
390713,536346111,641203712,0,-0.1387280970811844,0.4574870765209198,0,77.28279113769531
390723,535297535,641203712,0,-0.1391414850950241,0.45816919207572937,0,77.28229522705078
390743,536346111,641203712,0,-0.13883274793624878,0.45897677540779114,0,77.28133392333984
390753,535297535,641203712,0,-0.13798946142196655,0.45951932668685913,0,77.28007507324219
390773,535297535,641203712,0,-0.13795217871665955,0.46016600728034973,0,77.27816772460938
390783,536346111,641203712,0,-0.13802987337112427,0.45992395281791687,0,77.2773208618164
390803,535297535,641203712,0,-0.138574481010437,0.4597397446632385,0,77.2751235961914
390823,535297535,641203712,0,-0.13842563331127167,0.45877984166145325,0,77.2733383178711
390843,535297535,641203712,0,-0.13820350170135498,0.457918643951416,0,77.27207946777344
390863,535297535,641203712,0,-0.13920924067497253,0.4573976695537567,0,77.2701187133789
390883,535297535,641203712,0,-0.1406320035457611,0.45678436756134033,0,77.26891326904297
390893,536346111,641203712,0,-0.1407604217529297,0.4571453332901001,0,77.26847839355469
390903,535297535,641203712,0,-0.14101827144622803,0.4566231071949005,0,77.26802825927734
390913,535297535,641203712,0,-0.14146208763122559,0.4564462900161743,0,77.26710510253906
390923,536346111,641203712,0,-0.14188745617866516,0.45591309666633606,0,77.26669311523438
390933,535297535,641203712,0,-0.14239591360092163,0.4573442041873932,0,77.2652816772461
390943,535297535,641203712,0,-0.14236490428447723,0.45722025632858276,0,77.26467895507812
390953,536346111,641203712,0,-0.14244681596755981,0.4571742117404938,0,77.26412963867188
390963,535297535,641203712,0,-0.1415572464466095,0.4579232931137085,0,77.26333618164062
390973,536346111,641203712,0,-0.14139951765537262,0.45809319615364075,0,77.26287078857422
390983,536346111,641203712,0,-0.14173099398612976,0.4579979479312897,0,77.26212310791016
391003,536346111,641203712,0,-0.14109639823436737,0.4585154950618744,0,77.26004028320312
391023,535297535,641203712,0,-0.14049132168293,0.45943212509155273,0,77.25968933105469
391033,535297535,641203712,0,-0.1407260000705719,0.45903438329696655,0,77.25801849365234
391053,536346111,641203712,0,-0.14061231911182404,0.45796170830726624,0,77.25763702392578
391073,535297535,641203712,0,-0.13972195982933044,0.45709213614463806,0,77.25533294677734
391083,536346111,641203712,0,-0.13960781693458557,0.4566895365715027,0,77.25498962402344
391103,536346111,641203712,0,-0.13986808061599731,0.4560508131980896,0,77.25423431396484
391113,535297535,641203712,0,-0.14055800437927246,0.45680710673332214,0,77.25279235839844
391133,536346111,641203712,0,-0.14179781079292297,0.45724231004714966,0,77.25020599365234
391163,536346111,641203712,0,-0.14222800731658936,0.45845332741737366,0,77.247802734375
391173,536346111,641203712,0,-0.1414375752210617,0.45806029438972473,0,77.24781799316406
391203,535297535,641203712,0,-0.14224644005298615,0.45806199312210083,0,77.24459838867188
391223,536346111,641203712,0,-0.1417381763458252,0.45827019214630127,0,77.24163818359375
391233,535297535,641203712,0,-0.1423499584197998,0.4584749937057495,0,77.24114990234375
391243,536346111,641203712,0,-0.14244338870048523,0.45914241671562195,0,77.24063873291016
391263,535297535,641203712,0,-0.14237692952156067,0.46082815527915955,0,77.23836517333984
391283,536346111,641203712,0,-0.1423899382352829,0.4597946107387543,0,77.23661804199219
391293,535297535,641203712,0,-0.14236803352832794,0.460544228553772,0,77.23583221435547
391323,536346111,641203712,0,-0.14304018020629883,0.461492657661438,0,77.23560333251953
391333,535297535,641203712,0,-0.14302679896354675,0.4610583484172821,0,77.23464965820312
391343,536346111,641203712,0,-0.14295323193073273,0.4615500271320343,0,77.23382568359375
391363,535297535,641203712,0,-0.14253047108650208,0.46181219816207886,0,77.23255157470703
391383,536346111,641203712,0,-0.14291320741176605,0.46161890029907227,0,77.23051452636719
391403,536346111,641203712,0,-0.14212566614151,0.46204572916030884,0,77.22940063476562
391423,536346111,641203712,0,-0.14226368069648743,0.4622005820274353,0,77.2284164428711
391433,536346111,641203712,0,-0.14218012988567352,0.4632069766521454,0,77.22866821289062
391443,536346111,641203712,0,-0.14240947365760803,0.4633648693561554,0,77.2286148071289
391453,536346111,641203712,0,-0.14304500818252563,0.4643497169017792,0,77.22819519042969
391463,535297535,641203712,0,-0.1428910344839096,0.46499955654144287,0,77.22747039794922
391473,536346111,641203712,0,-0.14312860369682312,0.46501538157463074,0,77.22651672363281
391483,536346111,641203712,0,-0.14336508512496948,0.46489429473876953,0,77.22579193115234
391503,536346111,641203712,0,-0.14356860518455505,0.4645375907421112,0,77.2256851196289
391523,536346111,641203712,0,-0.14420244097709656,0.4648404121398926,0,77.22569274902344
391563,536346111,641203712,0,-0.14290185272693634,0.4643127918243408,0,77.2229995727539
391603,535297535,641203712,0,-0.14387860894203186,0.4652232527732849,0,77.2201919555664
391683,536346111,641203712,0,-0.14282795786857605,0.4622901380062103,0,77.2134017944336
391693,536346111,641203712,0,-0.14187845587730408,0.4625343382358551,0,77.21229553222656
391713,535297535,641203712,0,-0.14040908217430115,0.4631679654121399,0,77.21119689941406
391733,536346111,641203712,0,-0.14117206633090973,0.46480050683021545,0,77.20994567871094
391753,536346111,641203712,0,-0.14191265404224396,0.465261846780777,0,77.20840454101562
391763,536346111,641203712,0,-0.14220283925533295,0.46495321393013,0,77.20799255371094
391783,536346111,641203712,0,-0.14175556600093842,0.4645218253135681,0,77.2061538696289
391803,536346111,641203712,0,-0.1405419111251831,0.4644605219364166,0,77.20575714111328
391813,535297535,641203712,0,-0.14046414196491241,0.46458661556243896,0,77.2049331665039
391833,536346111,641203712,0,-0.14038139581680298,0.46530845761299133,0,77.20379638671875
391843,536346111,641203712,0,-0.140288308262825,0.46600496768951416,0,77.2037124633789
391863,535297535,641203712,0,-0.14030931890010834,0.4656583368778229,0,77.2024917602539
391873,535297535,641203712,0,-0.1407335102558136,0.4658380448818207,0,77.2009048461914
391903,535297535,641203712,0,-0.13867296278476715,0.46562278270721436,0,77.19876861572266
391913,536346111,641203712,0,-0.13830147683620453,0.4643097221851349,0,77.19830322265625
391933,535297535,641203712,0,-0.1379818320274353,0.46362534165382385,0,77.19624328613281
391953,536346111,641203712,0,-0.1383591592311859,0.4627991020679474,0,77.19461822509766
391983,535297535,641203712,0,-0.1365566849708557,0.46313121914863586,0,77.19140625
391993,536346111,641203712,0,-0.13718779385089874,0.46234098076820374,0,77.19011688232422
392023,535297535,641203712,0,-0.13850028812885284,0.46158158779144287,0,77.18831634521484
392033,536346111,641203712,0,-0.13824260234832764,0.4617803990840912,0,77.18644714355469
392063,535297535,641203712,0,-0.13767589628696442,0.46225646138191223,0,77.18527221679688
392083,535297535,641203712,0,-0.13719213008880615,0.46301478147506714,0,77.18389129638672
392093,535297535,641203712,0,-0.13761331140995026,0.4633585512638092,0,77.18168640136719
392113,535297535,640155136,0,-0.13724292814731598,0.46324315667152405,0,77.17984008789062
392123,536346111,641203712,0,-0.1367032676935196,0.4635638892650604,0,77.17948150634766
392143,536346111,641203712,0,-0.13551892340183258,0.4627203643321991,0,77.17982482910156
392153,536346111,641203712,0,-0.13576140999794006,0.46222373843193054,0,77.18002319335938
392173,536346111,641203712,0,-0.13517306745052338,0.46255651116371155,0,77.17916107177734
392193,536346111,641203712,0,-0.13526596128940582,0.46411868929862976,0,77.17888641357422
392213,536346111,641203712,0,-0.13482312858104706,0.46472328901290894,0,77.17800903320312
392233,536346111,641203712,0,-0.1342727690935135,0.46512946486473083,0,77.1769790649414
392253,535297535,641203712,0,-0.13520309329032898,0.4645828604698181,0,77.17498016357422
392273,536346111,640155136,0,-0.13498561084270477,0.46489521861076355,0,77.17424011230469
392293,536346111,641203712,0,-0.13433773815631866,0.46481484174728394,0,77.17337799072266
392313,536346111,641203712,0,-0.1325685828924179,0.4645429253578186,0,77.17337799072266
392333,536346111,641203712,0,-0.13134823739528656,0.4635249674320221,0,77.17234802246094
392343,536346111,641203712,0,-0.13119763135910034,0.462922066450119,0,77.17163848876953
392363,535297535,641203712,0,-0.13092851638793945,0.46331098675727844,0,77.17024230957031
392383,536346111,641203712,0,-0.13008417189121246,0.4626752436161041,0,77.16886138916016
392403,536346111,641203712,0,-0.12977251410484314,0.46289658546447754,0,77.16819763183594
392413,536346111,641203712,0,-0.12955766916275024,0.464111328125,0,77.16739654541016
392433,536346111,641203712,0,-0.13061271607875824,0.4635823667049408,0,77.16499328613281
392463,536346111,641203712,0,-0.131630539894104,0.46332627534866333,0,77.1639175415039
392483,535297535,641203712,0,-0.1323380023241043,0.4632517695426941,0,77.1630630493164
392493,536346111,641203712,0,-0.1332668662071228,0.4621089696884155,0,77.16295623779297
392523,536346111,641203712,0,-0.13231311738491058,0.46196624636650085,0,77.16000366210938
392533,536346111,641203712,0,-0.1319665163755417,0.46114543080329895,0,77.15982818603516
392543,536346111,641203712,0,-0.13230407238006592,0.46181219816207886,0,77.15962982177734
392553,535297535,641203712,0,-0.13215792179107666,0.46231579780578613,0,77.15834045410156
392583,536346111,641203712,0,-0.1310068815946579,0.46196505427360535,0,77.15718078613281
392593,536346111,641203712,0,-0.13169704377651215,0.4612547755241394,0,77.15677642822266
392603,536346111,641203712,0,-0.13197553157806396,0.4606551229953766,0,77.15690612792969
392613,536346111,640155136,0,-0.1332603245973587,0.4589989483356476,0,77.15609741210938
392623,535297535,641203712,0,-0.1337459683418274,0.4593675434589386,0,77.15504455566406
392633,535297535,641203712,0,-0.13415877521038055,0.4584074914455414,0,77.15312957763672
392643,536346111,641203712,0,-0.134104922413826,0.45901286602020264,0,77.15174865722656
392653,536346111,641203712,0,-0.13461802899837494,0.4589759409427643,0,77.15327453613281
392663,536346111,641203712,0,-0.13455744087696075,0.45882248878479004,0,77.15267181396484
392683,536346111,641203712,0,-0.13447117805480957,0.45773327350616455,0,77.1522445678711
392693,536346111,641203712,0,-0.1347387433052063,0.4576352834701538,0,77.15203094482422
392713,536346111,641203712,0,-0.1333622932434082,0.4585897922515869,0,77.15067291259766
392733,536346111,641203712,0,-0.13337987661361694,0.4576224982738495,0,77.14956665039062
392753,536346111,641203712,0,-0.13239912688732147,0.4585309326648712,0,77.14791107177734
392773,536346111,641203712,0,-0.13297373056411743,0.45785093307495117,0,77.14563751220703
392793,536346111,641203712,0,-0.13322585821151733,0.4585239291191101,0,77.14469909667969
392803,536346111,641203712,0,-0.13369566202163696,0.45797866582870483,0,77.14490509033203
392823,536346111,641203712,0,-0.13228605687618256,0.4565916061401367,0,77.14327239990234
392833,536346111,641203712,0,-0.13202814757823944,0.4577121436595917,0,77.14331817626953
392853,535297535,641203712,0,-0.13167598843574524,0.45759180188179016,0,77.14187622070312
392873,536346111,641203712,0,-0.1314856857061386,0.456607460975647,0,77.13964080810547
392903,535297535,641203712,0,-0.1317053586244583,0.45689156651496887,0,77.13733673095703
392923,536346111,641203712,0,-0.13211023807525635,0.4568594992160797,0,77.13736724853516
392943,536346111,641203712,0,-0.13100309669971466,0.45816880464553833,0,77.13575744628906
392953,535297535,641203712,0,-0.1313781589269638,0.45862877368927,0,77.13446807861328
392963,535297535,640155136,0,-0.13176971673965454,0.4586811065673828,0,77.13298797607422
392993,536346111,641203712,0,-0.13135698437690735,0.4574929177761078,0,77.1314697265625
393003,536346111,641203712,0,-0.13118736445903778,0.45711055397987366,0,77.13079071044922
393013,535297535,641203712,0,-0.13218995928764343,0.4576418697834015,0,77.12980651855469
393033,535297535,641203712,0,-0.1313183307647705,0.45794326066970825,0,77.12723541259766
393063,536346111,641203712,0,-0.13022756576538086,0.45843279361724854,0,77.12619018554688
393083,536346111,641203712,0,-0.13001973927021027,0.4601859450340271,0,77.1261215209961
393093,536346111,641203712,0,-0.1312844157218933,0.4609468877315521,0,77.1260757446289
393103,536346111,641203712,0,-0.1315242499113083,0.46154266595840454,0,77.12555694580078
393113,536346111,641203712,0,-0.13163691759109497,0.46160730719566345,0,77.12548065185547
393133,536346111,641203712,0,-0.131369486451149,0.4610145092010498,0,77.12484741210938
393143,535297535,641203712,0,-0.13083408772945404,0.4609110951423645,0,77.12413787841797
393153,536346111,641203712,0,-0.13090723752975464,0.46073418855667114,0,77.12342834472656
393163,535297535,641203712,0,-0.13045017421245575,0.4599092900753021,0,77.12240600585938
393183,535297535,640155136,0,-0.1295221596956253,0.4599938988685608,0,77.11961364746094
393203,536346111,640155136,0,-0.12948057055473328,0.4609769582748413,0,77.11862182617188
393213,536346111,641203712,0,-0.12948216497898102,0.4604664742946625,0,77.11820983886719
393243,536346111,641203712,0,-0.12931497395038605,0.45903950929641724,0,77.1192855834961
393253,536346111,641203712,0,-0.12986049056053162,0.4590899348258972,0,77.11825561523438
393273,535297535,641203712,0,-0.12963497638702393,0.45922183990478516,0,77.11785125732422
393303,535297535,641203712,0,-0.13110333681106567,0.4594371020793915,0,77.11531829833984
393323,536346111,641203712,0,-0.13100644946098328,0.4576469361782074,0,77.11378479003906
393333,536346111,641203712,0,-0.1306663453578949,0.45900726318359375,0,77.11339569091797
393343,536346111,641203712,0,-0.1306157112121582,0.45911705493927,0,77.11339569091797
393353,536346111,641203712,0,-0.13084079325199127,0.4581078588962555,0,77.11368560791016
393373,535297535,641203712,0,-0.13118073344230652,0.459063857793808,0,77.11384582519531
393383,535297535,641203712,0,-0.13197441399097443,0.45932549238204956,0,77.11329650878906
393393,536346111,641203712,0,-0.13264460861682892,0.45771342515945435,0,77.11270904541016
393403,536346111,641203712,0,-0.13262362778186798,0.4574536383152008,0,77.11267852783203
393413,535297535,641203712,0,-0.13203522562980652,0.4574119746685028,0,77.11168670654297
393423,536346111,641203712,0,-0.13155771791934967,0.4567383825778961,0,77.11090850830078
393433,536346111,641203712,0,-0.1305583119392395,0.45714548230171204,0,77.11058044433594
393443,536346111,641203712,0,-0.12957718968391418,0.4567326605319977,0,77.11075592041016
393453,536346111,641203712,0,-0.13025440275669098,0.45648083090782166,0,77.11134338378906
393463,535297535,641203712,0,-0.13050027191638947,0.45566752552986145,0,77.11076354980469
393483,535297535,641203712,0,-0.1298467516899109,0.45584145188331604,0,77.10847473144531
393503,536346111,641203712,0,-0.12875907123088837,0.4557478129863739,0,77.10806274414062
393523,536346111,641203712,0,-0.12869827449321747,0.4549223482608795,0,77.10660552978516
393533,536346111,641203712,0,-0.12773634493350983,0.45442599058151245,0,77.1060791015625
393553,536346111,641203712,0,-0.12692371010780334,0.4540773630142212,0,77.10498046875
393573,536346111,641203712,0,-0.12721219658851624,0.4530532658100128,0,77.10381317138672
393593,536346111,641203712,0,-0.12539607286453247,0.45219263434410095,0,77.10372161865234
393613,536346111,641203712,0,-0.12579227983951569,0.45333054661750793,0,77.10320281982422
393623,536346111,641203712,0,-0.12577097117900848,0.45364364981651306,0,77.10272216796875
393643,536346111,641203712,0,-0.126502126455307,0.4542030990123749,0,77.1014633178711
393653,536346111,641203712,0,-0.1267077773809433,0.4545164108276367,0,77.10116577148438
393663,536346111,641203712,0,-0.126742422580719,0.45445409417152405,0,77.10022735595703
393673,536346111,641203712,0,-0.12658827006816864,0.45286792516708374,0,77.09976196289062
393693,536346111,641203712,0,-0.12841416895389557,0.4512639045715332,0,77.10040283203125
393703,536346111,641203712,0,-0.12889157235622406,0.45120227336883545,0,77.10028839111328
393713,536346111,641203712,0,-0.12942741811275482,0.4521579444408417,0,77.10063171386719
393733,536346111,641203712,0,-0.12959924340248108,0.4522032141685486,0,77.10110473632812
393753,536346111,641203712,0,-0.1301904171705246,0.4527363181114197,0,77.09992980957031
393763,536346111,641203712,0,-0.13089367747306824,0.4532840847969055,0,77.09912109375
393783,536346111,641203712,0,-0.13146308064460754,0.4539753496646881,0,77.09764099121094
393803,535297535,641203712,0,-0.13038335740566254,0.45486852526664734,0,77.0977783203125
393823,536346111,641203712,0,-0.1306057572364807,0.45531198382377625,0,77.09678649902344
393833,536346111,641203712,0,-0.13032887876033783,0.4555734395980835,0,77.09622955322266
393843,535297535,641203712,0,-0.1305672526359558,0.4560709297657013,0,77.09474182128906
393853,535297535,641203712,0,-0.13045549392700195,0.45546257495880127,0,77.09356689453125
393883,535297535,640155136,0,-0.13038595020771027,0.4565105140209198,0,77.09180450439453
393903,536346111,641203712,0,-0.13112308084964752,0.4560812711715698,0,77.08995819091797
393913,536346111,641203712,0,-0.1309504359960556,0.45489513874053955,0,77.09011840820312
393923,535297535,640155136,0,-0.13081106543540955,0.45468437671661377,0,77.08963012695312
393943,536346111,641203712,0,-0.12945467233657837,0.4553842842578888,0,77.0890884399414
393963,535297535,641203712,0,-0.12882328033447266,0.45570892095565796,0,77.08776092529297
393973,535297535,641203712,0,-0.1288730502128601,0.4545972943305969,0,77.08625030517578
393993,536346111,641203712,0,-0.12773160636425018,0.4545116722583771,0,77.08602905273438
394013,536346111,641203712,0,-0.1270846575498581,0.45343920588493347,0,77.08538818359375
394033,535297535,640155136,0,-0.12832169234752655,0.4520718455314636,0,77.0833969116211
394043,536346111,641203712,0,-0.12740308046340942,0.45142653584480286,0,77.08306884765625
394063,536346111,641203712,0,-0.12794890999794006,0.45315495133399963,0,77.08241271972656
394083,535297535,641203712,0,-0.12694624066352844,0.45415008068084717,0,77.08143615722656
394103,536346111,641203712,0,-0.12580269575119019,0.4546258747577667,0,77.08100128173828
394113,535297535,641203712,0,-0.12584103643894196,0.4537207782268524,0,77.07950592041016
394123,536346111,641203712,0,-0.12581926584243774,0.4531383514404297,0,77.07884216308594
394143,535297535,641203712,0,-0.12578117847442627,0.4526785612106323,0,77.07771301269531
394153,535297535,641203712,0,-0.12435702234506607,0.45231178402900696,0,77.07624053955078
394173,536346111,641203712,0,-0.12369886040687561,0.4502933621406555,0,77.07501220703125
394193,536346111,641203712,0,-0.12537409365177155,0.44977423548698425,0,77.07508087158203
394203,536346111,641203712,0,-0.12573258578777313,0.44963037967681885,0,77.0757064819336
394213,536346111,641203712,0,-0.12585164606571198,0.44970279932022095,0,77.07521057128906
394243,536346111,641203712,0,-0.12373968958854675,0.4501483142375946,0,77.07378387451172
394253,536346111,641203712,0,-0.12321490049362183,0.4504750072956085,0,77.07303619384766
394273,536346111,641203712,0,-0.12139681726694107,0.44904106855392456,0,77.07239532470703
394293,536346111,641203712,0,-0.12069403380155563,0.44817572832107544,0,77.07137298583984
394303,536346111,641203712,0,-0.12066588550806046,0.4480589032173157,0,77.07152557373047
394323,536346111,641203712,0,-0.120292529463768,0.4469802677631378,0,77.06926727294922
394343,535297535,641203712,0,-0.12010069936513901,0.44602686166763306,0,77.0675277709961
394363,535297535,641203712,0,-0.12001711875200272,0.4473778009414673,0,77.0667495727539
394373,536346111,641203712,0,-0.1201658695936203,0.44758284091949463,0,77.06572723388672
394383,536346111,641203712,0,-0.1202777624130249,0.44715532660484314,0,77.0661392211914
394393,535297535,641203712,0,-0.12033679336309433,0.44779178500175476,0,77.06559753417969
394403,536346111,641203712,0,-0.12079345434904099,0.44785168766975403,0,77.06526947021484
394423,535297535,641203712,0,-0.12171830981969833,0.44645920395851135,0,77.06180572509766
394433,536346111,641203712,0,-0.12184714525938034,0.446167916059494,0,77.06008911132812
394453,536346111,641203712,0,-0.12161792069673538,0.4469738304615021,0,77.05870056152344
394483,536346111,641203712,0,-0.12183519452810287,0.44705164432525635,0,77.05732727050781
394493,535297535,641203712,0,-0.1216895580291748,0.44633543491363525,0,77.05552673339844
394513,535297535,641203712,0,-0.12091170251369476,0.4455666244029999,0,77.05414581298828
394543,536346111,640155136,0,-0.12153224647045135,0.44737380743026733,0,77.05192565917969
394553,536346111,640155136,0,-0.12194178253412247,0.44765567779541016,0,77.05150604248047
394563,536346111,641203712,0,-0.12192055583000183,0.447500079870224,0,77.05137634277344
394573,535297535,641203712,0,-0.12265609949827194,0.44735655188560486,0,77.05027770996094
394593,536346111,641203712,0,-0.12148994952440262,0.4482977092266083,0,77.04884338378906
394613,536346111,640155136,0,-0.12127720564603806,0.4484841823577881,0,77.04844665527344
394643,536346111,641203712,0,-0.12144569307565689,0.44766125082969666,0,77.04623413085938
394663,536346111,641203712,0,-0.12039938569068909,0.44686535000801086,0,77.04598236083984
394683,536346111,641203712,0,-0.11980384588241577,0.4476831555366516,0,77.04449462890625
394703,536346111,641203712,0,-0.11957788467407227,0.4461926519870758,0,77.0425796508789
394723,536346111,640155136,0,-0.1188836321234703,0.4474768340587616,0,77.04084777832031
394743,535297535,641203712,0,-0.12066690623760223,0.450290709733963,0,77.03887176513672
394753,535297535,641203712,0,-0.12143270671367645,0.45092999935150146,0,77.0377197265625
394763,536346111,641203712,0,-0.12152992188930511,0.45054948329925537,0,77.03691864013672
394783,535297535,641203712,0,-0.1222723051905632,0.4509492516517639,0,77.03551483154297
394803,536346111,641203712,0,-0.12285381555557251,0.4501686990261078,0,77.03313446044922
394813,535297535,641203712,0,-0.12347292900085449,0.45002877712249756,0,77.03214263916016
394833,535297535,641203712,0,-0.12319355458021164,0.44887450337409973,0,77.03165435791016
394853,535297535,640155136,0,-0.12348482012748718,0.44920048117637634,0,77.03035736083984
394873,536346111,641203712,0,-0.12290441989898682,0.4495396912097931,0,77.02898406982422
394903,535297535,641203712,0,-0.12420272827148438,0.452548086643219,0,77.02812194824219
394923,536346111,641203712,0,-0.12464674562215805,0.45068633556365967,0,77.02685546875
394933,536346111,641203712,0,-0.1254345029592514,0.45087626576423645,0,77.02576446533203
394943,536346111,641203712,0,-0.12488967925310135,0.45115670561790466,0,77.02542877197266
394963,536346111,641203712,0,-0.12515942752361298,0.45106303691864014,0,77.02459716796875
394973,536346111,641203712,0,-0.1255844533443451,0.450946569442749,0,77.02383422851562
394983,536346111,641203712,0,-0.1263640820980072,0.4510447680950165,0,77.02347564697266
395003,535297535,641203712,0,-0.125657320022583,0.4515644311904907,0,77.02344512939453
395023,535297535,641203712,0,-0.1261851191520691,0.45071718096733093,0,77.02169799804688
395043,536346111,641203712,0,-0.12692709267139435,0.45204463601112366,0,77.0201187133789
395063,535297535,641203712,0,-0.12645629048347473,0.4510685205459595,0,77.01759338378906
395083,536346111,640155136,0,-0.12660838663578033,0.45004597306251526,0,77.01638793945312
395093,536346111,641203712,0,-0.12632401287555695,0.44991594552993774,0,77.01631927490234
395113,536346111,641203712,0,-0.12477773427963257,0.4510001540184021,0,77.0157470703125
395133,536346111,641203712,0,-0.124844990670681,0.451659232378006,0,77.01477813720703
395153,535297535,641203712,0,-0.12638822197914124,0.45244264602661133,0,77.01240539550781
395183,536346111,641203712,0,-0.1261311024427414,0.451715886592865,0,77.01000213623047
395203,536346111,641203712,0,-0.12676598131656647,0.4507691264152527,0,77.00873565673828
395223,536346111,641203712,0,-0.12698382139205933,0.4521779716014862,0,77.00752258300781
395233,526905856,640155146,0,-0.1041947528719902,0.45344626903533936,0,76.98194122314453
395253,486014463,640155140,0,-0.057329945266246796,0.439302921295166,0,76.44381713867188
395273,479725055,641198591,0,-0.058774977922439575,0.42610588669776917,0,75.63550567626953
395303,497548799,640156160,0,-0.0943937599658966,0.39970216155052185,0,74.86613464355469
395323,497548799,641209853,0,-0.10054201632738113,0.41953274607658386,0,74.30614471435547
395343,509083136,642251262,0,-0.11697708815336227,0.426111102104187,0,73.87003326416016
395353,518520319,641200635,0,-0.12691935896873474,0.420024037361145,0,73.6891098022461
395373,534248959,641201663,0,-0.1534544676542282,0.41777727007865906,0,73.60882568359375
395403,586715607,662162960,0,-0.23630931973457336,0.30617964267730713,0,73.72112274169922
395423,527100390,696788478,0,-1.450560450553894,-0.09821819514036179,0,74.40867614746094
395433,492585444,683166204,0,-3.478931188583374,-0.30985450744628906,0,74.14672088623047
395463,472363497,563609087,0,-6.696588516235352,-1.0554767847061157,0,73.21125030517578
395473,468070940,575143418,0,-6.059866905212402,-1.0676699876785278,0,72.68229675292969
395503,466703854,604498423,0,-1.1899298429489136,0.6994225978851318,0,71.49779510498047
395523,491318726,568850935,0,0.003814258612692356,0.25481516122817993,0,70.89476776123047
395533,512208430,654826997,0,-0.14602342247962952,0.3707803785800934,0,70.61100769042969
395553,534256121,647494142,0,-0.13993211090564728,0.3623555302619934,0,70.52190399169922
395583,538441217,641202690,0,-0.14569061994552612,0.37173959612846375,0,70.49451446533203
395603,539489792,642251265,0,-0.14791883528232574,0.36984243988990784,0,70.48518371582031
395623,538442240,640154113,0,-0.15081337094306946,0.36962440609931946,0,70.4788589477539
395643,538442239,642252290,0,-0.13615082204341888,0.3707728385925293,0,70.4747314453125
395663,413656572,648548910,0,0.11046719551086426,0.3681052625179291,0,69.7337646484375
395673,302537221,644353602,0,0.17729540169239044,0.37006938457489014,0,68.26651763916016
395693,467141122,640124374,0,0.14420291781425476,0.34835270047187805,0,65.80931091308594
395723,566753790,641206771,0,-0.03377974405884743,0.3257277309894562,0,66.04019927978516
395743,530057725,640162302,0,-0.06845413893461227,0.35037440061569214,0,66.24268341064453
395753,537399808,641202684,0,-0.11400958895683289,0.35733088850975037,0,66.23743438720703
395773,538445310,638056961,0,-0.18008124828338623,0.3489052951335907,0,66.2430648803711
395793,535297535,641203714,0,-0.1594671905040741,0.3482094407081604,0,66.24829864501953
395813,536346111,641203712,0,-0.1532861590385437,0.3500881791114807,0,66.2513656616211
395823,536346111,641203713,0,-0.15324553847312927,0.35139256715774536,0,66.25508880615234
395843,536345088,639104528,0,-0.12476999312639236,0.3481121063232422,0,66.24934387207031
395853,532150783,642247193,0,-0.05973167344927788,0.34176480770111084,0,66.23462677001953
395863,514326016,642242072,0,-0.014147027395665646,0.3272346556186676,0,66.1669692993164
395873,494405119,642237965,0,0.0259336456656456,0.29698875546455383,0,65.89703369140625
395893,457701887,642232826,0,0.025198256596922874,0.2194092720746994,0,65.03595733642578
395903,446168574,642233847,0,0.011132015846669674,0.18629638850688934,0,64.58230590820312
395923,434636286,643273200,0,-0.05193919315934181,0.09457720816135406,0,63.27278518676758
395933,432541187,645365235,0,-0.11109710484743118,0.03466117009520531,0,62.44065856933594
395943,437773848,648509939,0,-0.1397075057029724,0.059801600873470306,0,61.902427673339844
395963,421009948,641174017,0,-0.1517801582813263,0.361256867647171,0,60.46339416503906
395973,365433393,652716560,0,-0.18163077533245087,0.6244181394577026,0,59.30686569213867
395983,292024927,668448270,0,-0.17487068474292755,1.014583706855774,0,58.15251922607422
395993,250073750,671593985,0,-0.162128746509552,2.0565829277038574,0,55.95045852661133
396013,186094314,662151649,0,-0.17632533609867096,4.817165374755859,0,51.57466506958008
396023,168253193,656921062,0,-0.20202308893203735,6.186446189880371,0,49.63438415527344
396043,158788434,653804012,0,-0.24654819071292877,10.376022338867188,0,44.47316360473633
396063,215411603,649625059,0,-0.325948029756546,15.683598518371582,0,39.6070442199707
396083,218581934,637065723,0,-0.9549764394760132,21.59638786315918,0,35.41461944580078
396103,197645272,626607643,0,-2.464413642883301,27.869508743286133,0,31.115514755249023
396123,388430693,626657781,0,-4.098822116851807,35.55792999267578,0,28.205347061157227
396143,532212734,595126741,0,-4.414121150970459,41.22755813598633,0,27.306718826293945
396163,538536958,595120610,0,-4.627113342285156,47.613948822021484,0,27.811100006103516
396183,526997375,599314931,0,-5.57808780670166,54.07412338256836,0,28.76198959350586
396203,471386019,600389111,0,-6.673506736755371,60.4119873046875,0,29.308818817138672
396223,420032461,580479487,0,-8.206656455993652,66.70738983154297,0,29.677522659301758
396233,398033860,568949241,0,-9.375768661499023,70.53199005126953,0,29.974157333374023
396253,385459128,545890787,0,-11.785394668579102,77.32965087890625,0,30.89972686767578
396263,422150019,541709800,0,-12.604325294494629,79.77275848388672,0,31.327960968017578
396283,552155950,533327321,0,-13.403164863586426,84.96528625488281,0,32.47807312011719
396303,611904060,519675358,0,-12.779309272766113,88.0821533203125,0,33.65749740600586
396323,650631454,518622703,0,-11.612407684326172,87.03083038330078,0,34.124473571777344
396333,664217802,517568998,0,-10.57957935333252,84.72103881835938,0,33.883819580078125
396343,679975096,534340059,0,-9.85522174835205,82.86420440673828,0,33.76679611206055
396363,717839729,544834018,0,-7.791917324066162,79.5880126953125,0,34.366668701171875
396373,723135977,540639720,0,-6.559304714202881,79.20549011230469,0,35.70762634277344
396413,792363286,525943270,0,-1.842913269996643,78.57613372802734,0,41.642826080322266
396423,816428129,523831781,0,-0.6461091041564941,76.80823516845703,0,42.696022033691406
396443,843612160,550009334,0,2.7332184314727783,68.896484375,0,44.66870880126953
396463,804831232,581455366,0,6.042426109313965,59.85695266723633,0,46.85651779174805
396483,714698844,601382417,0,7.964859962463379,52.24967956542969,0,49.464839935302734
396493,664366254,604539413,0,8.452343940734863,48.79774856567383,0,50.884483337402344
396513,542725463,604576269,0,8.087955474853516,45.230262756347656,0,52.1269416809082
396533,614018352,601465357,0,7.611789703369141,42.677120208740234,0,53.39448165893555
396543,664340720,608808455,0,7.6941351890563965,41.27839279174805,0,54.083580017089844
396553,705207482,616128008,0,8.133692741394043,38.5909309387207,0,55.323883056640625
396573,729261205,621313556,0,9.587916374206543,33.27589797973633,0,57.527442932128906
396593,649540759,615016996,0,11.263633728027344,27.765100479125977,0,58.94267654418945
396613,587743490,617114156,0,12.035983085632324,23.278059005737305,0,59.790122985839844
396623,583594290,615010860,0,11.967387199401855,21.931310653686523,0,60.124305725097656
396633,588866887,613956136,0,11.573774337768555,20.157459259033203,0,60.77020263671875
396653,579456307,620242460,0,10.428669929504395,17.216083526611328,0,61.879756927490234
396663,598302992,620236308,0,9.965126037597656,15.832869529724121,0,62.34342956542969
396683,593000677,630726168,0,9.465776443481445,11.858245849609375,0,63.40140151977539
396693,577279178,633867801,0,9.298345565795898,9.259840965270996,0,63.85685729980469
396703,575193270,633861662,0,9.100129127502441,7.369282245635986,0,64.11685943603516
396723,487142555,626529828,0,8.410367012023926,2.872657299041748,0,64.39710998535156
396743,389503020,587708960,0,8.43209457397461,-2.9443211555480957,0,63.12834548950195
396753,396989441,603412991,0,8.251446723937988,-7.031670570373535,0,61.88056564331055
396763,550293654,618082792,0,7.0030083656311035,-9.405863761901855,0,61.381343841552734
396783,568256230,634892779,0,1.398472547531128,-10.716964721679688,0,61.17509078979492
396803,512752379,636986813,0,-6.394084930419922,-5.704017162322998,0,60.01641845703125
396823,546306604,663216578,0,-15.400007247924805,-4.681754112243652,0,59.216819763183594
396843,565155383,681067971,0,-23.144298553466797,-3.652459144592285,0,58.893836975097656
396863,590105082,695739848,0,-28.386798858642578,-3.2482705116271973,0,59.17137908935547
396873,621482500,702020031,0,-30.31638526916504,-2.9441275596618652,0,59.72208023071289
396893,626545177,699899333,0,-31.578046798706055,-1.9282665252685547,0,61.19173049926758
396923,569737774,683135409,0,-29.860483169555664,-0.8938543200492859,0,62.32904815673828
396943,590668360,663245232,0,-27.1916561126709,0.4139682650566101,0,62.98002624511719
396953,620046924,659062189,0,-25.640050888061523,1.3654481172561646,0,63.60853958129883
396963,666187337,650676660,0,-24.6479549407959,2.1158411502838135,0,64.25164031982422
396983,776273443,645424559,0,-22.083026885986328,3.953070640563965,0,66.8396987915039
396993,820314683,655907265,0,-20.278583526611328,5.16281795501709,0,69.00428009033203
397013,816178838,654813632,0,-17.740602493286133,8.11530876159668,0,72.88375091552734
397023,779536037,663199174,0,-16.973981857299805,9.338656425476074,0,74.23210906982422
397033,747039473,664253913,0,-16.128955841064453,11.489423751831055,0,75.93767547607422
397053,717654794,662158828,0,-14.393478393554688,15.957874298095703,0,78.27074432373047
397063,662039205,659016161,0,-13.54044246673584,17.2098388671875,0,78.85704803466797
397073,615849547,662163929,0,-12.014187812805176,18.067062377929688,0,79.15066528320312
397083,589547062,666368496,0,-10.674417495727539,18.30312728881836,0,79.04911804199219
397103,558952012,652745208,0,-5.611958980560303,19.0059757232666,0,77.81094360351562
397113,547357243,635981311,0,-1.5647542476654053,19.446544647216797,0,76.53215789794922
397123,538968615,621318653,0,1.6066309213638306,19.715896606445312,0,75.42781829833984
397133,548405792,609798641,0,6.968145370483398,20.20167350769043,0,73.52304077148438
397143,572523059,598275559,0,10.846744537353516,20.714820861816406,0,72.17361450195312
397153,602931776,587793892,0,16.94054412841797,21.84735679626465,0,70.13456726074219
397173,657457677,556311032,0,27.237438201904297,23.988508224487305,0,66.84907531738281
397183,656408995,542670340,0,31.35801887512207,24.540199279785156,0,65.43276977539062
397193,643825994,537418256,0,37.356536865234375,24.702939987182617,0,63.17252731323242
397213,603980143,537413152,0,46.10232925415039,25.040325164794922,0,59.289031982421875
397233,589407703,530083374,0,52.536136627197266,26.742223739624023,0,55.6971321105957
397253,608360942,509112898,0,57.43313980102539,29.164127349853516,0,52.734840393066406
397283,605404552,504907341,0,62.58619689941406,29.913166046142578,0,49.89448928833008
397303,610813373,507006546,0,64.03877258300781,28.159055709838867,0,50.50661087036133
397323,616204738,511190607,0,63.58229446411133,24.413089752197266,0,53.79020309448242
397343,603759046,525863496,0,61.24067306518555,19.492015838623047,0,58.36256408691406
397353,597532117,534249026,0,58.887447357177734,16.695390701293945,0,61.11534118652344
397363,592355809,543684157,0,56.91828536987305,15.020769119262695,0,62.8609733581543
397383,581958105,559409707,0,50.599891662597656,11.40868854522705,0,66.72384643554688
397393,579860947,568846884,0,45.944091796875,9.564878463745117,0,68.6630859375
397413,566229467,587720203,0,36.753047943115234,7.181090831756592,0,71.25069427490234
397423,549452257,598207998,0,32.66461944580078,6.545912265777588,0,71.99835205078125
397443,544209357,617090533,0,21.57051658630371,5.358669281005859,0,73.3768310546875
397463,570423760,637021646,0,9.943469047546387,4.258183479309082,0,74.62986755371094
397473,595589616,656945599,0,2.781355619430542,3.9285483360290527,0,75.52531433105469
397483,619706887,669527488,0,-2.1080870628356934,3.9189326763153076,0,76.23474884033203
397493,634386958,676867522,0,-9.439779281616211,4.16476583480835,0,77.49718475341797
397503,642775557,684203454,0,-14.029287338256836,4.414736747741699,0,78.41727447509766
397523,635435495,700966323,0,-23.726299285888672,4.984030723571777,0,80.76876831054688
397543,568234494,714591667,0,-30.783361434936523,5.543493270874023,0,82.4991455078125
397553,541920773,716688817,0,-33.76539611816406,5.793664455413818,0,82.97804260253906
397573,506031611,715656636,0,-36.25871276855469,5.75004243850708,0,82.93402099609375
397593,521562624,700986790,0,-35.797664642333984,5.394443035125732,0,82.45225524902344
397613,551852571,681060772,0,-33.308433532714844,5.5430827140808105,0,82.2522201538086
397643,542377492,667418020,0,-28.502628326416016,5.8083977699279785,0,81.95941162109375
397653,536082971,666369462,0,-26.38671112060547,5.887035846710205,0,81.72337341308594
397673,536057411,662171065,0,-22.630817413330078,6.348100185394287,0,81.25542449951172
397693,516119095,660081073,0,-18.69864273071289,7.0185065269470215,0,80.56929779052734
397713,507679256,660091340,0,-14.319432258605957,7.202765941619873,0,79.60103607177734
397723,520216101,657993179,0,-12.269431114196777,7.28151273727417,0,79.21244049072266
397743,535861854,645403116,0,-6.264527320861816,8.079652786254883,0,78.33265686035156
397763,513802821,621280763,0,0.7376039624214172,9.248692512512207,0,77.13633728027344
397783,475005453,600317446,0,8.429018020629883,9.90260124206543,0,75.23715209960938
397793,466616826,589834758,0,13.00793170928955,10.188324928283691,0,73.8484878540039
397813,470837695,570968590,0,20.020296096801758,10.381647109985352,0,71.52880096435547
397833,487761386,562587158,0,25.554685592651367,10.640674591064453,0,69.5289077758789
397853,505769521,553151013,0,28.937471389770508,11.841825485229492,0,68.14674377441406
397873,516421198,550005295,0,29.994539260864258,13.327882766723633,0,67.4292221069336
397893,530191936,558387759,0,29.126983642578125,14.508169174194336,0,67.48978424072266
397913,528194066,570965548,0,26.68585777282715,14.792025566101074,0,68.12555694580078
397943,526226035,598230557,0,21.07950210571289,15.308810234069824,0,69.55810546875
397953,526267051,603473431,0,17.968730926513672,16.310070037841797,0,70.40614318847656
397963,523148997,605572628,0,15.719139099121094,17.20216941833496,0,71.04693603515625
397973,518981324,607676947,0,12.150969505310059,18.677169799804688,0,72.10443878173828
397993,527386349,617135614,0,6.042231559753418,21.5223445892334,0,74.1133804321289
398003,548390663,623431142,0,3.486750841140747,22.8975830078125,0,75.16212463378906
398013,565181206,627629532,0,-0.4868652820587158,25.204648971557617,0,77.09972381591797
398023,581958437,629729752,0,-3.1576125621795654,26.905780792236328,0,78.620361328125
398033,599784247,634972627,0,-7.089768409729004,29.744352340698242,0,81.2364501953125
398063,602930070,646504909,0,-15.560276985168457,38.328147888183594,0,88.71218872070312
398083,589280143,640214490,0,-20.587120056152344,45.8970832824707,0,94.60635375976562
398103,549298014,634971605,0,-24.131444931030273,53.03802490234375,0,99.7807846069336
398123,514584367,627636684,0,-26.554847717285156,59.07844161987305,0,103.51946258544922
398143,497734453,617156040,0,-28.351511001586914,64.4114761352539,0,106.2021255493164
398163,481963861,606677443,0,-29.82007598876953,69.9125747680664,0,108.2164306640625
398183,467219246,594096574,0,-31.1090087890625,75.07583618164062,0,109.55631256103516
398193,460886797,588855741,0,-31.805612564086914,77.54682922363281,0,109.84461212158203
398213,445064907,581513658,0,-32.91707229614258,80.27902221679688,0,109.19043731689453
398233,415620754,577312182,0,-34.15629959106445,81.37689208984375,0,107.0511703491211
398243,391471717,575209906,0,-34.776390075683594,81.32386779785156,0,105.83218383789062
398263,359936549,573129132,0,-36.4896125793457,79.69577026367188,0,101.82774353027344
398273,358860293,574182818,0,-37.486480712890625,77.96756744384766,0,98.74105072021484
398293,364066226,576270750,0,-38.788352966308594,73.63410949707031,0,92.8666763305664
398323,366057821,579437991,0,-39.254791259765625,64.35861206054688,0,82.90528869628906
398343,393260362,584688021,0,-38.05900573730469,56.767086029052734,0,74.56942749023438
398353,428906834,587837851,0,-36.57207489013672,52.383811950683594,0,69.80667114257812
398363,459303280,590991783,0,-35.24467468261719,49.81069564819336,0,66.86470031738281
398373,510660002,594148777,0,-32.71421432495117,46.653778076171875,0,62.8153076171875
398403,653263102,603563443,0,-25.047292709350586,40.3853874206543,0,56.06183624267578
398423,713031994,615079342,0,-17.036088943481445,36.07838439941406,0,52.007999420166016
398433,737149219,608770474,0,-11.498149871826172,33.77854919433594,0,49.88869094848633
398453,719323433,591992260,0,-1.342598557472229,30.641393661499023,0,46.428619384765625
398473,722469141,584638926,0,9.003412246704102,27.52066421508789,0,43.30132293701172
398493,739246361,559476200,0,19.31825828552246,25.30564308166504,0,40.79460906982422
398523,785383862,540580360,0,32.405479431152344,22.884008407592773,0,39.28581237792969
398533,783341010,526933525,0,37.03324508666992,22.532310485839844,0,39.45907974243164
398543,771897776,513287709,0,39.73515319824219,22.022920608520508,0,39.81947326660156
398563,731195759,508033585,0,44.79050064086914,19.249814987182617,0,41.50990676879883
398583,692623785,516405826,0,46.73524856567383,15.535152435302734,0,44.351558685302734
398603,632009154,535269958,0,45.4664306640625,12.174001693725586,0,47.582191467285156
398623,590211528,563591741,0,41.56349563598633,9.382364273071289,0,50.17292022705078
398643,584017371,591922728,0,35.726688385009766,7.523719787597656,0,52.181175231933594
398663,605026752,619190805,0,28.740814208984375,5.779053211212158,0,54.06722640991211
398683,623881678,641207823,0,21.602397918701172,4.098300457000732,0,55.95004653930664
398703,644812250,654840324,0,15.0213041305542,2.970174789428711,0,57.768699645996094
398723,674177524,664263158,0,8.728302955627441,2.197936534881592,0,59.748104095458984
398743,661609967,671587825,0,2.1748621463775635,1.7305344343185425,0,61.80479431152344
398753,642740740,678925802,0,-1.844421625137329,1.6290855407714844,0,62.84239196777344
398783,572399147,692571608,0,-10.530635833740234,2.3955790996551514,0,64.3337631225586
398803,571276852,708311498,0,-15.536005973815918,3.1588563919067383,0,65.03401947021484
398823,569047610,712516037,0,-19.20683479309082,4.257793426513672,0,65.77136993408203
398843,589823481,720920010,0,-20.555587768554688,4.829145908355713,0,66.44693756103516
398863,624212525,717763020,0,-18.956829071044922,5.3713788986206055,0,67.3707504272461
398883,598895123,690480593,0,-14.86915397644043,6.161670207977295,0,68.06693267822266
398893,573677053,679992787,0,-11.60490608215332,6.183108806610107,0,68.09931182861328
398913,542179871,666373591,0,-5.589848518371582,6.266124248504639,0,67.64676666259766
398923,543215142,655892960,0,-3.088768720626831,6.452853679656982,0,67.40084075927734
398943,547378683,633876972,0,3.432403326034546,6.76205587387085,0,66.76201629638672
398963,553654775,616052214,0,10.293323516845703,6.678797245025635,0,66.12852478027344
398973,559950344,604515837,0,14.449944496154785,6.7954583168029785,0,65.79778289794922
398983,565213706,591929859,0,17.159610748291016,6.925288677215576,0,65.61050415039062
398993,565246457,578298379,0,20.998075485229492,7.037437438964844,0,65.3529281616211
399003,565281259,567814677,0,23.422019958496094,7.029311656951904,0,65.19384002685547
399023,567509502,557329950,0,28.519287109375,7.028807163238525,0,64.930908203125
399033,569678356,554185253,0,30.711591720581055,7.208179473876953,0,64.9043960571289
399043,572872226,544746030,0,31.868982315063477,7.3934760093688965,0,64.95243835449219
399063,576188954,542646836,0,33.37422180175781,7.709463119506836,0,65.36405944824219
399073,577310222,545791539,0,33.267822265625,7.6739654541015625,0,65.7852783203125
399093,581641717,558372400,0,31.45144271850586,7.118124485015869,0,66.80970764160156
399103,581708267,567808552,0,30.176605224609375,6.782924652099609,0,67.28357696533203
399113,588051939,576197154,0,27.795621871948242,6.20001220703125,0,68.05427551269531
399123,595430884,583537185,0,25.930809020996094,5.790981292724609,0,68.61882781982422
399143,598656504,603451923,0,20.557302474975586,4.956311225891113,0,70.09449768066406
399153,594505213,608691725,0,16.69694709777832,4.603522300720215,0,70.9632568359375
399173,587201034,624421373,0,9.581372261047363,4.333998680114746,0,72.28546905517578
399193,583006750,639102443,0,1.547372579574585,4.445847511291504,0,73.56114959716797
399213,573569579,655875546,0,-6.849641799926758,5.015377998352051,0,74.8096923828125
399223,578812462,662164949,0,-10.13827133178711,5.315925598144531,0,75.29548645019531
399243,560986668,681046470,0,-17.669509887695312,6.266609191894531,0,76.64329528808594
399253,544173611,683147713,0,-21.84284782409668,6.819326400756836,0,77.26595306396484
399273,537736745,694686140,0,-27.236705780029297,7.76403284072876,0,78.03614807128906
399283,541850143,699932091,0,-28.81780433654785,8.07861328125,0,78.30470275878906
399303,553205268,702031291,0,-31.14862060546875,8.716659545898438,0,78.88888549804688
399313,546822667,700977593,0,-31.354341506958008,8.910154342651367,0,79.04753112792969
399333,525692436,694685114,0,-29.88326072692871,8.954864501953125,0,78.78742218017578
399343,508845577,685247934,0,-28.76048469543457,8.866150856018066,0,78.4552230834961
399363,482528749,669525432,0,-24.89704704284668,8.180959701538086,0,77.17039489746094
399383,468850120,661143994,0,-20.10562515258789,7.079054355621338,0,75.55878448486328
399393,470927800,660097473,0,-16.96170997619629,6.237020015716553,0,74.6036148071289
399433,472917413,650661345,0,-4.841955661773682,3.5314056873321533,0,71.8170394897461
399453,492831099,637033957,0,2.8470983505249023,2.0117647647857666,0,70.74301147460938
399473,524288377,620254709,0,11.156106948852539,0.2023121565580368,0,70.2465591430664
399493,542114202,600312321,0,19.534997940063477,-1.404839038848877,0,70.3614730834961
399503,541065628,589820423,0,22.714082717895508,-2.008741855621338,0,70.49668884277344
399523,544218547,568850972,0,29.984220504760742,-3.5120530128479004,0,70.99268341064453
399543,534940134,559401513,0,36.39396286010742,-4.747653007507324,0,71.67546081542969
399563,529872412,541577785,0,40.49521255493164,-4.922282695770264,0,72.12095642089844
399573,529958420,533192253,0,41.757301330566406,-4.811347007751465,0,72.2139892578125
399593,534329906,534242875,0,42.00257873535156,-4.332862377166748,0,72.18685913085938
399613,534524508,543679026,0,39.617801666259766,-3.1564619541168213,0,71.9887924194336
399623,530421368,553118251,0,37.93932342529297,-2.4956412315368652,0,71.8641586303711
399633,526316206,564656673,0,34.60563659667969,-1.1069978475570679,0,71.65191650390625
399653,536869656,575159829,0,27.407236099243164,2.5204548835754395,0,71.61656188964844
399663,551549703,587747846,0,24.066226959228516,4.025783061981201,0,71.84161376953125
399673,573569802,602429941,0,18.252418518066406,6.047121047973633,0,72.59906768798828
399683,591395641,613966310,0,13.965903282165527,7.524251461029053,0,73.38015747070312
399703,598735721,634938829,0,2.6010193824768066,12.085245132446289,0,76.13304138183594
399713,613415774,637042115,0,-4.270425796508789,15.162430763244629,0,78.35651397705078
399743,653261604,651748764,0,-18.374313354492188,22.476707458496094,0,84.94872283935547
399753,667941666,677978549,0,-23.073461532592773,26.214101791381836,0,88.4229507446289
399763,675281685,683220399,0,-26.124204635620117,28.924467086791992,0,91.080078125
399783,687864555,684254629,0,-32.30457305908203,36.07854080200195,0,98.26355743408203
399803,677154521,691597747,0,-35.408531188964844,42.615909576416016,0,104.37471771240234
399823,670635706,685305267,0,-35.88175582885742,47.5140380859375,0,108.12974548339844
399843,671509214,662238649,0,-34.32959747314453,50.866058349609375,0,109.26543426513672
399863,652532440,632868281,0,-31.668062210083008,53.48639678955078,0,108.42051696777344
399883,595849904,611886528,0,-28.83031463623047,54.95298767089844,0,106.11817932128906
399903,529772161,596161988,0,-26.449344635009766,55.47724914550781,0,102.74578857421875
399923,493093493,589891014,0,-24.691749572753906,55.474830627441406,0,99.02816009521484
399933,495212166,589899202,0,-23.859458923339844,55.6832160949707,0,96.9500503540039
399953,526722711,585728450,0,-22.616073608398438,56.69898986816406,0,94.18375396728516
399973,589669017,586787272,0,-21.142587661743164,58.198490142822266,0,92.31727600097656
399983,635809443,585739728,0,-20.36272430419922,58.92646026611328,0,91.80011749267578
399993,692426449,585737692,0,-18.811033248901367,60.32648849487305,0,91.20447540283203
400003,749047621,586777059,0,-17.477577209472656,61.7886962890625,0,90.92147827148438
