Timestamp,compactImu.a_xyz,compactImu.l_xyz,motorCompact.pwms,stabilizer.pitch,stabilizer.roll,stabilizer.thrust,stabilizer.yaw
811595,542615038,628620800,966818606,-0.4461240768432617,0.9416370987892151,63488,147.41558837890625
811615,546783746,637011451,730039117,-0.05591423064470291,0.8960146307945251,18432,147.5357208251953
811635,542648821,655884794,1181509471,0.01779033988714218,0.9020741581916809,0,147.60850524902344
811655,539485702,639106561,796424782,0.02761894278228283,0.8919342160224915,9728,147.6930694580078
811675,535300602,640158205,1148085842,-0.0002819865185301751,0.8767724633216858,51200,147.69129943847656
811695,535303672,637011453,1197957463,0.006878850515931845,0.905568540096283,4608,147.69515991210938
811715,538439171,641205762,677804887,-0.003232430201023817,0.893317699432373,59904,147.71937561035156
811735,536342019,638059010,727938390,-2.8607995773199946e-05,0.8947317600250244,38912,147.74502563476562
811755,535295491,639108608,794914644,0.00042341320659033954,0.898616373538971,13824,147.73573303222656
811775,534249983,643301887,861956432,0.00039477183599956334,0.9015395641326904,59904,147.70828247070312
811795,535298558,643299841,861955664,0.004305256996303797,0.9013522863388062,12288,147.67587280273438
811815,533200384,642254336,777873742,0.008740967139601707,0.9000466465950012,0,147.63992309570312
811835,533200384,640156160,744056653,0.0021309906151145697,0.8944439888000488,13312,147.60165405273438
811855,533200384,641204735,1047494241,0.001045383047312498,0.8945345282554626,61440,147.56600952148438
811875,535299583,642253311,1603246976,-0.01102370209991932,0.8865546584129333,57600,147.5379638671875
811895,534251004,643300864,1620220797,-0.021372968330979347,0.8812016248703003,57600,147.5234375
811915,533202430,642253311,1653578111,-0.022476183250546455,0.8775514364242554,57600,147.49842834472656
811935,533201407,643300861,1317113196,-0.050100527703762054,0.8624023795127869,33792,147.46214294433594
811955,533200384,645400063,1182765418,-0.0643385574221611,0.8600209951400757,10240,147.42074584960938
811975,535299581,645401088,1300137834,-0.05236828327178955,0.8874655961990356,36864,147.39166259765625
811995,540541440,639107582,1165592944,-0.0897437110543251,0.8715381026268005,12800,147.40621948242188
812015,537398779,644351486,1283096682,-0.08386246114969254,0.8736314177513123,56832,147.44471740722656
812035,536346112,645402110,1165460585,-0.0728357583284378,0.8901034593582153,33280,147.45960998535156
812055,535296510,642255359,998017889,-0.09455811232328415,0.8793901801109314,16384,147.4637451171875
812075,536347133,643301887,1014531682,-0.09393124282360077,0.8847684860229492,58368,147.4601593017578
812095,535296512,646447616,963872868,-0.08521993458271027,0.8877874612808228,11776,147.453857421875
812115,536348158,640156161,997491297,-0.08293096721172333,0.8870149850845337,58880,147.44700622558594
812135,535295488,638056960,947225179,-0.06393574178218842,0.890239953994751,34304,147.44683837890625
812155,533199360,639108609,913539929,-0.06593306362628937,0.8884382247924805,13312,147.41836547851562
812175,535302651,644351487,1014003801,-0.061561234295368195,0.9021639227867126,53248,147.39273071289062
812195,534248960,644351485,879591514,-0.05989566445350647,0.9144530892372131,15360,147.37042236328125
812215,537394689,639106559,778862682,-0.07533788681030273,0.8987827301025391,62464,147.35780334472656
812235,532151807,639108610,778862675,-0.06328944861888885,0.9114440083503723,40960,147.33042907714844
812255,533202430,642253313,761822548,-0.05109676718711853,0.9177916646003723,23552,147.2848663330078
812275,536346113,641204735,711424852,-0.05121247097849846,0.9199018478393555,2048,147.27561950683594
812295,534249984,642254336,728135760,-0.046336982399225235,0.9189948439598083,46592,147.25352478027344
812315,533200383,642254336,661027662,-0.04736535996198654,0.9250763058662415,3584,147.22740173339844
812335,533200384,642252288,593787725,-0.058200035244226456,0.9035801887512207,46080,147.199951171875
812355,535298558,639108608,627340875,-0.05452248081564903,0.9131340384483337,31744,147.1732940673828
812375,534251006,641205759,559970122,-0.054760560393333435,0.9067875146865845,15360,147.1529083251953
812395,534251005,641204736,559903816,-0.053768642246723175,0.9136972427368164,512,147.14561462402344
812415,537394688,643301887,459175239,-0.056944817304611206,0.9061748385429382,47616,147.1337432861328
812435,535296512,640157185,459109189,-0.04902460053563118,0.9105204343795776,23552,147.1337127685547
812455,535296512,640155135,408646466,-0.049505338072776794,0.9109498858451843,1024,147.12008666992188
812475,536346110,641203712,391934272,-0.0490608774125576,0.8971705436706543,23040,147.1151885986328
812495,536345087,643301888,324694591,-0.0454888753592968,0.8890923857688904,2560,147.10379028320312
812515,535297535,640158210,291008574,-0.04061752185225487,0.8853662014007568,43520,147.09158325195312
812535,536347135,641204735,307653693,-0.03661320358514786,0.8883213400840759,21504,147.0848846435547
812555,535297536,642253312,223637051,-0.034565895795822144,0.8828486800193787,4608,147.08445739746094
812575,535298559,641203712,223636793,-0.034628599882125854,0.8787826895713806,29696,147.08145141601562
812595,535297535,641204735,189950777,-0.036475736647844315,0.8779879212379456,12288,147.08404541015625
812615,535298560,641205758,0,-0.041606541723012924,0.8802050352096558,0,147.08197021484375
812635,535298558,642254335,0,-0.0361623615026474,0.8892027139663696,0,147.0722198486328
812655,535297535,643301887,0,-0.021551258862018585,0.8917735815048218,0,147.06422424316406
812675,534249983,644351489,0,-0.016232486814260483,0.8893550634384155,0,147.067138671875
812695,535297535,642251264,0,-0.019432445988059044,0.8839366436004639,0,147.06333923339844
812715,536347135,640157183,0,-0.014355638064444065,0.8822876811027527,0,147.0574188232422
812735,535297536,641204736,0,-0.011963405646383762,0.8840940594673157,0,147.0616912841797
812755,536346111,642253312,0,-0.009918543510138988,0.878508985042572,0,147.05601501464844
812775,535297535,641204735,0,-0.008340228348970413,0.8792505264282227,0,147.05453491210938
812795,536347135,642253312,0,-0.007942873984575272,0.8783077597618103,0,147.05482482910156
812815,535297535,641205760,0,-0.005904387217015028,0.8766323924064636,0,147.04867553710938
812835,536347135,641204736,0,-0.003575412090867758,0.8768060207366943,0,147.04409790039062
812855,536346111,641205760,0,-0.0031014359556138515,0.8767592310905457,0,147.04246520996094
812875,535297535,640158207,0,-0.002421602373942733,0.8823842406272888,0,147.0391387939453
812895,535297535,641205760,0,-0.0030693248845636845,0.888278067111969,0,147.0293731689453
812915,534248959,641205761,0,0.00037336943205446005,0.8906578421592712,0,147.02352905273438
812935,535297535,641204737,0,0.004033534787595272,0.8926331996917725,0,147.0205078125
812955,537395711,642253313,0,0.0070534017868340015,0.8924797177314758,0,147.02090454101562
812975,536347135,641204736,0,0.008668890222907066,0.8907248973846436,0,147.0143585205078
812995,535297535,641204735,0,0.009322941303253174,0.8901062607765198,0,147.00999450683594
813015,536346111,641205760,0,0.007810711394995451,0.8881403803825378,0,147.00709533691406
813035,535298559,641203712,0,0.010794519446790218,0.8891726732254028,0,147.00489807128906
813055,536346111,642254336,0,0.01265143882483244,0.8853445649147034,0,146.99855041503906
813075,536346111,641204736,0,0.014039292931556702,0.8882271647453308,0,146.99679565429688
813095,535297535,641204736,0,0.015081459656357765,0.8866709470748901,0,146.9936065673828
813115,535297535,641205760,0,0.015214548446238041,0.885562002658844,0,146.98858642578125
813135,536347135,641204736,0,0.017033888027071953,0.8839040994644165,0,146.98512268066406
813155,536347135,641204736,0,0.017296629026532173,0.8841468095779419,0,146.98219299316406
813175,536346111,641204736,0,0.018481140956282616,0.8841488361358643,0,146.979248046875
813195,535298559,641205760,0,0.019475888460874557,0.8850220441818237,0,146.97714233398438
813215,535297535,641204736,0,0.019755877554416656,0.8860177993774414,0,146.97305297851562
813235,535297535,641204736,0,0.020826196298003197,0.8861507773399353,0,146.96807861328125
813255,535297535,641204736,0,0.021209828555583954,0.8846190571784973,0,146.9664764404297
813275,535298559,641204736,0,0.020116465166211128,0.8841267824172974,0,146.96420288085938
813295,535297535,641204736,0,0.01957731321454048,0.8833428621292114,0,146.9621124267578
813315,535297535,642253312,0,0.020391767844557762,0.8829989433288574,0,146.95938110351562
813335,536346111,641204736,0,0.023677360266447067,0.8818396329879761,0,146.95675659179688
813355,535297535,641204736,0,0.025600573047995567,0.8799207210540771,0,146.9519805908203
813375,535297535,641204736,0,0.02635492943227291,0.8790959119796753,0,146.94688415527344
813395,535297535,641204736,0,0.02744576334953308,0.8779736757278442,0,146.94326782226562
813415,535297535,641204736,0,0.028209568932652473,0.8765717148780823,0,146.94027709960938
813435,535297535,641204736,0,0.027792276814579964,0.8759517073631287,0,146.93736267089844
813455,535297535,641204736,0,0.0278919730335474,0.8759102821350098,0,146.93344116210938
813475,536346111,641204736,0,0.02933666482567787,0.8768146634101868,0,146.9307403564453
813495,535297535,641204736,0,0.02989216148853302,0.8763101100921631,0,146.92774963378906
813515,535297535,641204736,0,0.031786974519491196,0.8754816055297852,0,146.92454528808594
813535,535297535,641204736,0,0.0327579639852047,0.8743250370025635,0,146.921630859375
813555,535297535,641204736,0,0.03265174850821495,0.8730790019035339,0,146.91787719726562
813575,536346111,641204736,0,0.03328297659754753,0.8738284111022949,0,146.91441345214844
813595,535297535,641204736,0,0.03424255922436714,0.8731085062026978,0,146.9123992919922
813615,535297535,641204736,0,0.03553887829184532,0.873627245426178,0,146.90817260742188
813635,536346111,641204736,0,0.03671226650476456,0.872988760471344,0,146.90345764160156
813655,535298559,641204736,0,0.03731020539999008,0.8709535002708435,0,146.9014434814453
813675,535297535,641204736,0,0.03816482424736023,0.8706582188606262,0,146.89723205566406
813695,536346111,641204736,0,0.03863345459103584,0.8707297444343567,0,146.89422607421875
813715,536346111,641204736,0,0.0391555093228817,0.8689450025558472,0,146.8907012939453
813735,535298559,641204736,0,0.03934062272310257,0.8688805103302002,0,146.8870391845703
813755,536346111,641204736,0,0.038278728723526,0.8674883246421814,0,146.88192749023438
813775,535297535,641204736,0,0.040194619446992874,0.865829348564148,0,146.87930297851562
813795,536346111,641204736,0,0.03965042158961296,0.8656784296035767,0,146.87664794921875
813815,536346111,641204736,0,0.03980838879942894,0.8663920164108276,0,146.8756103515625
813835,535298559,641204736,0,0.03915669396519661,0.8667775988578796,0,146.87234497070312
813855,535297535,642253312,0,0.038848258554935455,0.867711067199707,0,146.8685760498047
813875,535297535,641204736,0,0.039397940039634705,0.8669491410255432,0,146.86508178710938
813895,535297535,641204736,0,0.039973098784685135,0.8678532242774963,0,146.8632049560547
813915,536346111,641204736,0,0.039619725197553635,0.8666664361953735,0,146.85984802246094
813935,535297535,641204736,0,0.03950672224164009,0.8667528629302979,0,146.85787963867188
813955,535297535,641204736,0,0.039995431900024414,0.8676146864891052,0,146.85569763183594
813975,535297535,641204736,0,0.04034990072250366,0.8666384220123291,0,146.85147094726562
813995,535297535,641204736,0,0.040935415774583817,0.8660314083099365,0,146.84786987304688
814015,535297535,641204736,0,0.04132033884525299,0.865206778049469,0,146.84352111816406
814035,535297535,641204736,0,0.042256198823451996,0.8645722270011902,0,146.8412628173828
814055,535297535,641204736,0,0.04068782553076744,0.8634763360023499,0,146.837646484375
814075,536346111,641204736,0,0.03991083428263664,0.8619999885559082,0,146.83535766601562
814095,535298559,641204736,0,0.03981718048453331,0.8607444167137146,0,146.83177185058594
814115,535297535,641204736,0,0.03963690996170044,0.8607560992240906,0,146.82736206054688
814135,536346111,641204736,0,0.039170041680336,0.8611034154891968,0,146.8245391845703
814155,535297535,641204736,0,0.039474744349718094,0.8611253499984741,0,146.8216094970703
814175,535298559,641204736,0,0.04048549756407738,0.860547661781311,0,146.81854248046875
814195,535297535,641204736,0,0.04106595739722252,0.8613275289535522,0,146.81491088867188
814215,535297535,641204736,0,0.04155295342206955,0.8610838055610657,0,146.81175231933594
814235,536346111,641204736,0,0.04214401915669441,0.8600940704345703,0,146.80909729003906
814255,535298559,641204736,0,0.04220959171652794,0.8588132858276367,0,146.80374145507812
814275,535297535,641204736,0,0.042041365057229996,0.8580857515335083,0,146.80020141601562
814295,535297535,641204736,0,0.04285023361444473,0.8578031063079834,0,146.79782104492188
814315,535297535,641204736,0,0.043870098888874054,0.8571522831916809,0,146.7945556640625
814335,535297535,641204736,0,0.044268954545259476,0.8556424975395203,0,146.79151916503906
814355,536346111,641204736,0,0.044919583946466446,0.8557425141334534,0,146.7877197265625
814375,535297535,641204736,0,0.045378170907497406,0.8566611409187317,0,146.78399658203125
814395,535297535,641204736,0,0.044255565851926804,0.856397807598114,0,146.78115844726562
814415,535297535,641204736,0,0.04634394124150276,0.8567080497741699,0,146.77755737304688
814435,536346111,642253312,0,0.04702186584472656,0.8557054400444031,0,146.7733917236328
814455,535297535,641204736,0,0.048729073256254196,0.8543133735656738,0,146.7707977294922
814475,536346111,641204736,0,0.050003111362457275,0.8540408611297607,0,146.76678466796875
814495,535298559,641204736,0,0.04991282895207405,0.8532267808914185,0,146.7638397216797
814515,535297535,641204736,0,0.04997210577130318,0.8539578914642334,0,146.7602996826172
814535,535297535,641204736,0,0.05076976120471954,0.8541169762611389,0,146.7559356689453
814555,536346111,641204736,0,0.05114729329943657,0.8547242879867554,0,146.75233459472656
814575,535297535,641204736,0,0.05138274282217026,0.8544837832450867,0,146.74990844726562
814595,535297535,641204736,0,0.05027595907449722,0.8529648780822754,0,146.74554443359375
814615,535297535,641204736,0,0.04883299395442009,0.8530510067939758,0,146.7424774169922
814635,536346111,641204736,0,0.04913204908370972,0.8533065915107727,0,146.73780822753906
814655,535297535,641204736,0,0.050041764974594116,0.8533270955085754,0,146.7352752685547
814675,535297535,641204736,0,0.050089605152606964,0.8519481420516968,0,146.73020935058594
814695,536346111,641204736,0,0.050186075270175934,0.8516067862510681,0,146.72557067871094
814715,536346111,641204736,0,0.0502777174115181,0.8531810641288757,0,146.72305297851562
814735,536346111,641204736,0,0.04989516735076904,0.8518087863922119,0,146.72048950195312
814755,535298559,641204736,0,0.051312293857336044,0.8502978086471558,0,146.71743774414062
814775,535297535,641204736,0,0.051157280802726746,0.8497806787490845,0,146.71273803710938
814795,536346111,641204736,0,0.052021708339452744,0.8486320972442627,0,146.70947265625
814815,535297535,641204736,0,0.05287453904747963,0.8496153950691223,0,146.70651245117188
814835,535298559,641204736,0,0.053463105112314224,0.848967969417572,0,146.7013397216797
814855,535297535,641205760,0,0.053424250334501266,0.8484116196632385,0,146.6974334716797
814875,535297535,641205759,0,0.0524812713265419,0.8489446043968201,0,146.69241333007812
814895,535297535,641204736,0,0.050692107528448105,0.8502053022384644,0,146.6908416748047
814915,535297535,641204736,0,0.05311024188995361,0.8485772609710693,0,146.68785095214844
814935,535297535,641204736,0,0.05586673319339752,0.8451421856880188,0,146.6836395263672
814955,535297535,641204736,0,0.057546939700841904,0.8445075750350952,0,146.67837524414062
814975,535297535,641205759,0,0.05736788734793663,0.8484097123146057,0,146.67420959472656
814995,535297535,641204736,0,0.05586722120642662,0.849711000919342,0,146.6707000732422
815015,536346111,641204736,0,0.05633306875824928,0.8483201861381531,0,146.6673583984375
815035,535297535,641204736,0,0.05895090103149414,0.8466058969497681,0,146.6645050048828
815055,536346111,641204736,0,0.05890672281384468,0.8471576571464539,0,146.6616668701172
815075,535297535,641204736,0,0.05843297764658928,0.8488496541976929,0,146.6597442626953
815095,535297535,641204736,0,0.05892965570092201,0.8472458720207214,0,146.6568603515625
815115,535297535,641204736,0,0.06060628592967987,0.845991313457489,0,146.65415954589844
815135,535297535,641204736,0,0.060705605894327164,0.8455122113227844,0,146.65126037597656
815155,535297535,641205760,0,0.059392306953668594,0.8463671803474426,0,146.64712524414062
815175,536346111,641204736,0,0.058720722794532776,0.845855176448822,0,146.6453399658203
815195,535297535,641204736,0,0.060125499963760376,0.8455119132995605,0,146.6426239013672
815215,536346111,641204736,0,0.06063518673181534,0.8446706533432007,0,146.64076232910156
815235,536346111,641204736,0,0.06035560369491577,0.8445195555686951,0,146.63809204101562
815255,535297535,641204736,0,0.06184800714254379,0.844258725643158,0,146.63546752929688
815275,535298559,641204736,0,0.06203973665833473,0.8441324234008789,0,146.63238525390625
815295,536346111,641204736,0,0.06151001527905464,0.843633234500885,0,146.62908935546875
815315,535297535,641204736,0,0.0617825947701931,0.8436274528503418,0,146.62567138671875
815335,535297535,641204736,0,0.06214452534914017,0.8431603908538818,0,146.62167358398438
815355,535297535,641204736,0,0.060959409922361374,0.843139111995697,0,146.61679077148438
815375,535297535,641204736,0,0.06117837876081467,0.8443489670753479,0,146.61309814453125
815395,535297535,641204736,0,0.06051703542470932,0.8430269360542297,0,146.60992431640625
815415,535297535,641204736,0,0.062077056616544724,0.8422561883926392,0,146.6073760986328
815435,535297535,641204736,0,0.061575111001729965,0.8414685130119324,0,146.604248046875
815455,535297535,641204736,0,0.061997268348932266,0.8404367566108704,0,146.59938049316406
815475,536346111,641204736,0,0.06288741528987885,0.8407540917396545,0,146.59603881835938
815495,535297535,641204736,0,0.06433998048305511,0.840238094329834,0,146.59136962890625
815515,535298559,641204736,0,0.06538328528404236,0.8411932587623596,0,146.58544921875
815535,535297535,641204736,0,0.0649135634303093,0.8399456143379211,0,146.58047485351562
815555,535297535,641204736,0,0.06452403962612152,0.8397786617279053,0,146.5769805908203
815575,535297535,641204736,0,0.06550520658493042,0.837258517742157,0,146.57391357421875
815595,535297535,641204736,0,0.06580328941345215,0.8379306197166443,0,146.5703582763672
815615,535297535,641204736,0,0.0665862038731575,0.8370099067687988,0,146.56787109375
815635,535297535,641204736,0,0.06595328450202942,0.8362551927566528,0,146.56381225585938
815655,535297535,641204736,0,0.06603947281837463,0.8357505202293396,0,146.56005859375
815675,535297535,641204736,0,0.06748100370168686,0.8356513381004333,0,146.55606079101562
815695,535297535,641204736,0,0.06914199888706207,0.8354353904724121,0,146.55247497558594
815715,535297535,641204736,0,0.07077974081039429,0.8344383239746094,0,146.54859924316406
815735,536346111,641204736,0,0.07192853838205338,0.8337133526802063,0,146.54576110839844
815755,536346111,641204736,0,0.07234034687280655,0.8329434394836426,0,146.54234313964844
815775,535297535,641204736,0,0.07312055677175522,0.8321493268013,0,146.53977966308594
815795,535297535,641204736,0,0.07413817197084427,0.8311551213264465,0,146.5372314453125
815815,536346111,641204736,0,0.0748404860496521,0.8303085565567017,0,146.53309631347656
815835,535298559,641204736,0,0.07487642765045166,0.8296326398849487,0,146.5297393798828
815855,536346111,641204736,0,0.07427274435758591,0.8325201272964478,0,146.52566528320312
815875,535297535,641204736,0,0.07329747825860977,0.8327234387397766,0,146.5232391357422
815895,536346111,641204736,0,0.07358144223690033,0.83286452293396,0,146.5205841064453
815915,535297535,641204736,0,0.07202540338039398,0.8331394791603088,0,146.5167694091797
815935,535297535,641204736,0,0.07389765232801437,0.8309339284896851,0,146.512939453125
815955,535297535,641204736,0,0.07660894840955734,0.830220639705658,0,146.51113891601562
815975,536346111,641204736,0,0.07594533264636993,0.8297267556190491,0,146.5080108642578
815995,536346111,642253312,0,0.07708197832107544,0.8287917971611023,0,146.50599670410156
816015,536346111,641204736,0,0.07828588038682938,0.8281329274177551,0,146.50389099121094
816035,535297535,641204736,0,0.07833903282880783,0.8283178806304932,0,146.500244140625
816055,536346111,641204736,0,0.07913205772638321,0.8280175924301147,0,146.49783325195312
816075,535297535,641204736,0,0.08031643182039261,0.8283701539039612,0,146.49537658691406
816095,536346111,641204736,0,0.08133091032505035,0.8284034729003906,0,146.49171447753906
816115,536346111,641204736,0,0.08190152049064636,0.8284375667572021,0,146.4881591796875
816135,535297535,641204736,0,0.08179602771997452,0.8277205228805542,0,146.4844207763672
816155,535297535,641204736,0,0.0818166434764862,0.8280429840087891,0,146.4811553955078
816175,536346111,641204736,0,0.08376286923885345,0.8286976218223572,0,146.47738647460938
816195,535297535,641204736,0,0.08389223366975784,0.8276196718215942,0,146.4735870361328
816215,535297535,641204736,0,0.0848255380988121,0.8277753591537476,0,146.46951293945312
816235,535297535,641204736,0,0.086027130484581,0.8283795714378357,0,146.46551513671875
816255,535297535,641204736,0,0.0863933339715004,0.8254112005233765,0,146.4613800048828
816275,535297535,641204736,0,0.08802047371864319,0.8228063583374023,0,146.4587860107422
816295,536346111,641204736,0,0.0877319872379303,0.8226034641265869,0,146.45724487304688
816315,535297535,641204736,0,0.08758356422185898,0.8227366209030151,0,146.4547882080078
816335,535297535,641204736,0,0.08831136673688889,0.8233845829963684,0,146.4512481689453
816355,535297535,641204736,0,0.08862073719501495,0.8222967982292175,0,146.4468231201172
816375,535297535,641204736,0,0.08794017136096954,0.8223223686218262,0,146.4437255859375
816395,535297535,641204736,0,0.08968250453472137,0.8226376175880432,0,146.44198608398438
816415,535297535,641204736,0,0.08979158103466034,0.8217035531997681,0,146.43902587890625
816435,536346111,641204736,0,0.09074421972036362,0.8209633827209473,0,146.4344940185547
816455,535297535,641204736,0,0.09033479541540146,0.81989985704422,0,146.43211364746094
816475,536346111,641204736,0,0.09113971143960953,0.8193344473838806,0,146.42933654785156
816495,536346111,641204736,0,0.09208809584379196,0.8193327188491821,0,146.4269561767578
816515,535297535,641204736,0,0.0946204885840416,0.8161933422088623,0,146.42327880859375
816535,536346111,641204736,0,0.09499649703502655,0.8150942325592041,0,146.41993713378906
816555,535297535,641204736,0,0.09427658468484879,0.8150767087936401,0,146.4178924560547
816575,536347135,642253312,0,0.09294667094945908,0.8144087195396423,0,146.41571044921875
816595,536346111,641204736,0,0.09173760563135147,0.8153924942016602,0,146.41390991210938
816615,536347135,641204736,0,0.09085260331630707,0.8142197132110596,0,146.41221618652344
816635,535297535,641204736,0,0.08972225338220596,0.8142758011817932,0,146.40966796875
816655,535297535,641204736,0,0.0896989107131958,0.812791645526886,0,146.40713500976562
816675,535297535,641204736,0,0.09041149914264679,0.8117294907569885,0,146.40475463867188
816695,536346111,641204736,0,0.09155979007482529,0.8125646710395813,0,146.40109252929688
816715,535297535,641204736,0,0.09108246862888336,0.8125621676445007,0,146.39857482910156
816735,536346111,641204736,0,0.09053719788789749,0.812882125377655,0,146.39598083496094
816755,535297535,641204736,0,0.09032472223043442,0.8129671812057495,0,146.39364624023438
816775,536346111,641204736,0,0.09067797660827637,0.8129326105117798,0,146.39083862304688
816795,536346111,641204736,0,0.09189672023057938,0.8137416839599609,0,146.388916015625
816815,535297535,641204735,0,0.09158997982740402,0.8122586607933044,0,146.3863525390625
816835,535297535,641204736,0,0.09020303189754486,0.8105018734931946,0,146.38377380371094
816855,536346111,641205760,0,0.09164830297231674,0.8132610321044922,0,146.38043212890625
816875,536346111,641204735,0,0.0927775651216507,0.8141814470291138,0,146.37838745117188
816895,535297535,641204736,0,0.09055937081575394,0.8138875961303711,0,146.37408447265625
816915,535297535,641204736,0,0.09493453055620193,0.8143200278282166,0,146.37069702148438
816935,535297535,641204736,0,0.09536256641149521,0.8130949139595032,0,146.3677520751953
816955,535297535,641204736,0,0.09677159041166306,0.8129611015319824,0,146.36474609375
816975,535297535,641204736,0,0.09685152769088745,0.8139947652816772,0,146.36106872558594
816995,535297535,641204736,0,0.0971464216709137,0.811586856842041,0,146.35765075683594
817015,535297535,641204736,0,0.09823402017354965,0.8104105591773987,0,146.35552978515625
817035,535297535,641204736,0,0.099309541285038,0.8084602355957031,0,146.3516082763672
817055,536346111,641204736,0,0.09938323497772217,0.8086470365524292,0,146.34779357910156
817075,535298559,641204736,0,0.09855173528194427,0.8093478083610535,0,146.34463500976562
817095,535297535,641204736,0,0.0976070985198021,0.808265745639801,0,146.34153747558594
817115,535297535,641204736,0,0.09758365154266357,0.8097142577171326,0,146.33837890625
817135,536346111,641204736,0,0.09792105853557587,0.8087828755378723,0,146.33546447753906
817155,536346111,641204736,0,0.09824294596910477,0.8085073828697205,0,146.33245849609375
817175,536346111,641204736,0,0.09822412580251694,0.8081682920455933,0,146.33062744140625
817195,536346111,641204736,0,0.09857936203479767,0.8076726794242859,0,146.32838439941406
817215,535297535,641204736,0,0.0982409343123436,0.8069634437561035,0,146.32595825195312
817235,535297535,641204736,0,0.09934002161026001,0.8051024675369263,0,146.3212432861328
817255,535297535,641204736,0,0.09985772520303726,0.8046102523803711,0,146.317626953125
817275,535297535,641204736,0,0.10109442472457886,0.8034743666648865,0,146.31402587890625
817295,535297535,641204736,0,0.10141970962285995,0.8047512173652649,0,146.3114013671875
817315,535297535,641204736,0,0.10178560763597488,0.8046326041221619,0,146.3074493408203
817335,536346111,641204736,0,0.10312537103891373,0.8058599233627319,0,146.30552673339844
817355,535297535,641204736,0,0.10372334718704224,0.8058353066444397,0,146.30322265625
817375,536346111,641204736,0,0.10311189293861389,0.8058707118034363,0,146.29942321777344
817395,535297535,641204736,0,0.10341845452785492,0.8060473799705505,0,146.2970428466797
817415,535297535,641204736,0,0.10433565825223923,0.805526852607727,0,146.29376220703125
817435,535297535,641204736,0,0.10438788682222366,0.805395245552063,0,146.28955078125
817455,535297535,642253312,0,0.10421357303857803,0.80488121509552,0,146.2863006591797
817475,535297535,641204736,0,0.10636072605848312,0.8058998584747314,0,146.28260803222656
817495,536346111,641204736,0,0.10631486773490906,0.8046157956123352,0,146.27769470214844
817515,535297535,641204736,0,0.10538120567798615,0.8051390051841736,0,146.2744140625
817535,536346111,641204736,0,0.10638142377138138,0.8046504259109497,0,146.2709197998047
817555,535297535,641204736,0,0.10626018792390823,0.8044015765190125,0,146.26800537109375
817575,535297535,642253312,0,0.10650656372308731,0.8033455014228821,0,146.26426696777344
817595,535297535,641204736,0,0.10681603848934174,0.8032941222190857,0,146.26150512695312
817615,535297535,641204736,0,0.10662077367305756,0.8016157150268555,0,146.2576141357422
817635,536346111,641204736,0,0.1075369268655777,0.8009524345397949,0,146.25331115722656
817655,535297535,641204736,0,0.1078040674328804,0.7998186349868774,0,146.25033569335938
817675,536346111,641204736,0,0.10738002508878708,0.7991793155670166,0,146.24853515625
817695,535297535,641204736,0,0.10671231895685196,0.7998344898223877,0,146.24620056152344
817715,535297535,641204736,0,0.107733815908432,0.7997348308563232,0,146.24200439453125
817735,535298559,641204736,0,0.10753727704286575,0.8012429475784302,0,146.2384490966797
817755,536346111,641204736,0,0.10760818421840668,0.8012143969535828,0,146.23695373535156
817775,535297535,641204736,0,0.10752300918102264,0.8020405769348145,0,146.23416137695312
817795,536346111,641204736,0,0.1078234612941742,0.80146324634552,0,146.23117065429688
817815,536346111,641204736,0,0.10991828888654709,0.800304114818573,0,146.2283935546875
817835,535297535,641204736,0,0.10857247561216354,0.8012385368347168,0,146.22511291503906
817855,536347135,641204736,0,0.10825815051794052,0.8008399605751038,0,146.22085571289062
817875,535297535,641204736,0,0.10759870707988739,0.8006325364112854,0,146.21812438964844
817895,535297535,641204736,0,0.10871625691652298,0.8001573085784912,0,146.21588134765625
817915,535297535,641204736,0,0.10989270359277725,0.8006060123443604,0,146.21315002441406
817935,535297535,641204736,0,0.11075729131698608,0.8001385927200317,0,146.20956420898438
817955,535297535,641204736,0,0.11223940551280975,0.7998470067977905,0,146.20713806152344
817975,536346111,642253312,0,0.11286978423595428,0.7995644807815552,0,146.20477294921875
817995,535297535,641204736,0,0.11313240230083466,0.7984167337417603,0,146.20225524902344
818015,535297535,641204736,0,0.11179759353399277,0.7992908954620361,0,146.197021484375
818035,536346111,641204736,0,0.1123511791229248,0.8001182675361633,0,146.1935272216797
818055,535297535,641204736,0,0.11350168287754059,0.8000845909118652,0,146.19021606445312
818075,535297535,641204736,0,0.11438987404108047,0.8007896542549133,0,146.1864471435547
818095,535297535,641204736,0,0.11462743580341339,0.8016049265861511,0,146.18382263183594
818115,535297535,642253312,0,0.11416824162006378,0.7994295954704285,0,146.1810302734375
818135,535297535,641204736,0,0.11515486240386963,0.8006128668785095,0,146.1784210205078
818155,535297535,641204736,0,0.11580558866262436,0.7993842363357544,0,146.17442321777344
818175,536346111,641204736,0,0.11533446609973907,0.7992358803749084,0,146.1702423095703
818195,535297535,641204736,0,0.11687080562114716,0.7998178601264954,0,146.16648864746094
818215,535297535,641204736,0,0.11764833331108093,0.7994858622550964,0,146.16261291503906
818235,535297535,641204736,0,0.11855245381593704,0.798668622970581,0,146.1587371826172
818255,535297535,641204736,0,0.12014845013618469,0.7972728610038757,0,146.1551971435547
818275,535297535,641204736,0,0.1209559366106987,0.7955436706542969,0,146.15237426757812
818295,535297535,641204736,0,0.12177721410989761,0.7951228618621826,0,146.14898681640625
818315,535298559,641204736,0,0.12358273565769196,0.7951011657714844,0,146.1453399658203
818335,536346111,642253312,0,0.12311160564422607,0.7947311401367188,0,146.14181518554688
818355,535297535,641204736,0,0.12391841411590576,0.7931644320487976,0,146.13731384277344
818375,535297535,641204736,0,0.12318084388971329,0.7921562790870667,0,146.13392639160156
818395,536346111,641204736,0,0.12340404838323593,0.7933644652366638,0,146.130126953125
818415,535297535,641204736,0,0.12354512512683868,0.7939419746398926,0,146.12655639648438
818435,536346111,641204736,0,0.12497082352638245,0.7931755781173706,0,146.1239471435547
818455,535297535,641204736,0,0.1263982206583023,0.793770432472229,0,146.12188720703125
818475,535297535,641204736,0,0.12638992071151733,0.7945848107337952,0,146.1179962158203
818495,536346111,641204736,0,0.1266535371541977,0.7942909598350525,0,146.11480712890625
818515,535297535,641204736,0,0.12746846675872803,0.7928376197814941,0,146.11195373535156
818535,536346111,641204736,0,0.12813469767570496,0.7931424975395203,0,146.10684204101562
818555,536346111,641204736,0,0.12866047024726868,0.7931064367294312,0,146.10279846191406
818575,535297535,641204736,0,0.12924063205718994,0.7926499843597412,0,146.09829711914062
818595,535297535,641204736,0,0.129658043384552,0.7931122779846191,0,146.0948028564453
818615,536346111,641204736,0,0.1302894651889801,0.7930774688720703,0,146.08975219726562
818635,535297535,641204736,0,0.13049627840518951,0.7938758730888367,0,146.08506774902344
818655,535297535,641204736,0,0.13062217831611633,0.7940529584884644,0,146.08123779296875
818675,535297535,641204736,0,0.13072870671749115,0.7953745126724243,0,146.0783233642578
818695,535297535,641204736,0,0.1325584352016449,0.795507550239563,0,146.0740966796875
818715,535297535,641204736,0,0.13367809355258942,0.7943828701972961,0,146.07081604003906
818735,536346111,641204736,0,0.1326407939195633,0.7933830618858337,0,146.06637573242188
818755,535297535,641204736,0,0.1330796331167221,0.7929816246032715,0,146.0631561279297
818775,535297535,641204736,0,0.13408346474170685,0.7916234731674194,0,146.05856323242188
818795,535297535,641204736,0,0.13439519703388214,0.7906625866889954,0,146.05433654785156
818815,536346111,641204736,0,0.13416148722171783,0.7897396087646484,0,146.04971313476562
818835,535297535,641204736,0,0.1342695653438568,0.791080892086029,0,146.04672241210938
818855,535297535,641204736,0,0.13378313183784485,0.7907943725585938,0,146.04212951660156
818875,535298559,641204736,0,0.13329248130321503,0.7905943989753723,0,146.03958129882812
818895,535297535,641204736,0,0.13337580859661102,0.7902765274047852,0,146.03599548339844
818915,535297535,641204736,0,0.13319170475006104,0.7897841334342957,0,146.03282165527344
818935,535297535,641204736,0,0.1315736174583435,0.7899174094200134,0,146.02960205078125
818955,536346111,641204736,0,0.13249830901622772,0.7887497544288635,0,146.0262908935547
818975,536346111,641204735,0,0.13209417462348938,0.7883644104003906,0,146.02316284179688
818995,535297535,641205760,0,0.12966780364513397,0.7866989374160767,0,146.02078247070312
819015,536346111,641204736,0,0.13073031604290009,0.7888157963752747,0,146.01779174804688
819035,535297535,641204736,0,0.1305215209722519,0.7867521047592163,0,146.0124969482422
819055,536346111,641204736,0,0.13108988106250763,0.7855264544487,0,146.01025390625
819075,535297535,641204736,0,0.13222359120845795,0.7850726246833801,0,146.00723266601562
819095,536346111,641204735,0,0.1294902116060257,0.785412073135376,0,146.00462341308594
819115,536346111,641204736,0,0.12816116213798523,0.7848381996154785,0,146.00213623046875
819135,536346111,641204736,0,0.13073840737342834,0.7834661602973938,0,145.99923706054688
819155,535297535,641204736,0,0.132024347782135,0.7802115678787231,0,145.99801635742188
819175,535297535,641205760,0,0.1319386065006256,0.7799563407897949,0,145.99533081054688
819195,535297535,641204735,0,0.13109277188777924,0.7829821109771729,0,145.9912567138672
819215,536346111,641204736,0,0.12857845425605774,0.7814041972160339,0,145.9894561767578
819235,535297535,641204737,0,0.13137881457805634,0.78033447265625,0,145.98715209960938
819255,536346111,641204735,0,0.1326085329055786,0.7813112139701843,0,145.98577880859375
819275,536346111,641205760,0,0.12939244508743286,0.7814693450927734,0,145.9829559326172
819295,536346111,641204736,0,0.1303764283657074,0.7829195261001587,0,145.97988891601562
819315,535297535,641204736,0,0.12988638877868652,0.7818368077278137,0,145.97776794433594
819335,536347135,641204736,0,0.13004837930202484,0.7789153456687927,0,145.97531127929688
819355,535297535,641204736,0,0.129156693816185,0.779617965221405,0,145.9725341796875
819375,535297535,641205759,0,0.13013504445552826,0.7823205590248108,0,145.96926879882812
819395,536346111,641204736,0,0.12935620546340942,0.7836331725120544,0,145.96755981445312
819415,535297535,641204736,0,0.1305355280637741,0.7835859060287476,0,145.96519470214844
819435,535297535,641204736,0,0.13173916935920715,0.7817152142524719,0,145.96267700195312
819455,536346111,641204736,0,0.13026878237724304,0.7813453078269958,0,145.95957946777344
819475,535297535,641204736,0,0.1295861154794693,0.7824131846427917,0,145.95803833007812
819495,535297535,641204736,0,0.12927591800689697,0.7809159159660339,0,145.9547119140625
819515,535297535,641204736,0,0.12918803095817566,0.7790467739105225,0,145.950439453125
819535,535297535,641204736,0,0.12992388010025024,0.7774432301521301,0,145.9464569091797
819555,536346111,641204736,0,0.130478635430336,0.7779219746589661,0,145.9432373046875
819575,535297535,641204736,0,0.13041257858276367,0.7783406972885132,0,145.93948364257812
819595,536346111,641204736,0,0.13054023683071136,0.7768023014068604,0,145.9362030029297
819615,535297535,641204736,0,0.13114285469055176,0.7783494591712952,0,145.93482971191406
819635,536346111,641204736,0,0.13176530599594116,0.7771961092948914,0,145.9312286376953
819655,535297535,641204736,0,0.13260072469711304,0.7779931426048279,0,145.92893981933594
819675,536346111,641204736,0,0.1323947161436081,0.7775826454162598,0,145.92730712890625
819695,536346111,641204736,0,0.13377252221107483,0.7764270305633545,0,145.9239501953125
819715,535297535,641204736,0,0.13372847437858582,0.7750855684280396,0,145.92247009277344
819735,536346111,641204736,0,0.13403192162513733,0.7759039998054504,0,145.92010498046875
819755,535297535,641205760,0,0.13380233943462372,0.7757668495178223,0,145.9173583984375
819775,535297535,641204736,0,0.13355012238025665,0.7757947444915771,0,145.91348266601562
819795,536346111,641204736,0,0.13255584239959717,0.7753962874412537,0,145.9103546142578
819815,535297535,641204736,0,0.1324804276227951,0.7740238904953003,0,145.9077606201172
819835,536346111,641204736,0,0.13255150616168976,0.7745688557624817,0,145.90420532226562
819855,536346111,641204736,0,0.13175703585147858,0.7737138867378235,0,145.9012908935547
819875,535297535,641204736,0,0.1312587708234787,0.7727454304695129,0,145.8983612060547
819895,535297535,641204736,0,0.13154363632202148,0.7706319093704224,0,145.89401245117188
819915,535297535,641204736,0,0.13247542083263397,0.7705162167549133,0,145.8886260986328
819935,536346111,641204736,0,0.13167719542980194,0.7697850465774536,0,145.88528442382812
819955,536346111,641204736,0,0.1306086629629135,0.7700937390327454,0,145.88198852539062
819975,535297535,641204736,0,0.1308625340461731,0.7686648964881897,0,145.87911987304688
819995,535297535,641204736,0,0.13012485206127167,0.7693167328834534,0,145.8756561279297
820015,535297535,641205760,0,0.13061557710170746,0.7719852328300476,0,145.8724822998047
820035,535297535,641204735,0,0.12797801196575165,0.7733579277992249,0,145.86769104003906
820055,535297535,641204736,0,0.12844549119472504,0.7729594111442566,0,145.86427307128906
820075,536346111,641204736,0,0.1306503266096115,0.7730081677436829,0,145.8602752685547
820095,535297535,641204735,0,0.12857584655284882,0.7725698351860046,0,145.85658264160156
820115,535297535,641205760,0,0.126703143119812,0.7715361714363098,0,145.85406494140625
820135,536346111,641204736,0,0.1292903870344162,0.7730651497840881,0,145.851806640625
820155,535297535,641204736,0,0.12944065034389496,0.7705256342887878,0,145.84800720214844
820175,536346111,641204736,0,0.1305537074804306,0.7697578072547913,0,145.8433074951172
820195,535297535,641204736,0,0.13137845695018768,0.7687230706214905,0,145.8404541015625
820215,535297535,641204736,0,0.12957344949245453,0.768247127532959,0,145.83790588378906
820235,536346111,641204736,0,0.13153491914272308,0.7689825892448425,0,145.83447265625
820255,536346111,641204736,0,0.13160422444343567,0.7690606713294983,0,145.83224487304688
820275,536347135,641204736,0,0.13147558271884918,0.7682257890701294,0,145.8313751220703
820295,535297535,641204736,0,0.13147665560245514,0.7685397863388062,0,145.82847595214844
820315,536346111,641204736,0,0.1317330300807953,0.7695615887641907,0,145.82679748535156
820335,536347135,641204736,0,0.13188205659389496,0.7684048414230347,0,145.8232421875
820355,536346111,641204736,0,0.13103415071964264,0.7681266665458679,0,145.82254028320312
820375,535297535,641204736,0,0.13113971054553986,0.7661034464836121,0,145.81983947753906
820395,536346111,641204736,0,0.12992048263549805,0.7656404376029968,0,145.8165740966797
820415,535297535,641204736,0,0.1295531541109085,0.7656216025352478,0,145.8125762939453
820435,535297535,641204736,0,0.13030241429805756,0.7640472650527954,0,145.81031799316406
820455,535297535,641204736,0,0.13063904643058777,0.7656932473182678,0,145.80783081054688
820475,536346111,641204736,0,0.13090746104717255,0.765383243560791,0,145.8042755126953
820495,535297535,641204736,0,0.13069365918636322,0.7661260366439819,0,145.80140686035156
820515,535297535,641204736,0,0.13069692254066467,0.767526388168335,0,145.79754638671875
820535,535297535,641204736,0,0.13097883760929108,0.7681630253791809,0,145.7940216064453
820555,535297535,641204736,0,0.13133074343204498,0.7695243954658508,0,145.7909393310547
820575,536346111,641204736,0,0.13087540864944458,0.7713397741317749,0,145.78802490234375
820595,535297535,641204736,0,0.12973155081272125,0.7700549364089966,0,145.78494262695312
820615,535297535,641204736,0,0.13013505935668945,0.7700181007385254,0,145.78158569335938
820635,536346111,641204736,0,0.1304168403148651,0.7703909873962402,0,145.77902221679688
820655,535297535,641204736,0,0.13126251101493835,0.7695177793502808,0,145.77601623535156
820675,536346111,641204736,0,0.12938551604747772,0.7691972851753235,0,145.77272033691406
820695,535297535,641204736,0,0.13013893365859985,0.7684551477432251,0,145.7703857421875
820715,535297535,641204736,0,0.13202525675296783,0.7662831544876099,0,145.767822265625
820735,535297535,641204736,0,0.13233251869678497,0.7648016810417175,0,145.76434326171875
820755,536346111,641204736,0,0.13153912127017975,0.764323353767395,0,145.76133728027344
820775,536346111,641204736,0,0.13190844655036926,0.7644544243812561,0,145.75857543945312
820795,536346111,641204736,0,0.1317014992237091,0.7648221850395203,0,145.75587463378906
820815,535297535,641204736,0,0.13209962844848633,0.7642773389816284,0,145.7517852783203
820835,535297535,641204736,0,0.13285836577415466,0.7635229229927063,0,145.74740600585938
820855,536346111,641204736,0,0.13265173137187958,0.7646960616111755,0,145.74461364746094
820875,535297535,641204736,0,0.13238893449306488,0.7645444273948669,0,145.74276733398438
820895,535297535,641204736,0,0.13381578028202057,0.7636802196502686,0,145.73973083496094
820915,535297535,641204736,0,0.13388051092624664,0.764119029045105,0,145.7362823486328
820935,535297535,641204736,0,0.1344108283519745,0.7628282904624939,0,145.7326202392578
820955,535297535,641204736,0,0.1347210854291916,0.7620378732681274,0,145.7289276123047
820975,536346111,641204736,0,0.13496538996696472,0.7612648606300354,0,145.72531127929688
820995,535297535,641204736,0,0.13445046544075012,0.7596062421798706,0,145.72251892089844
821015,535297535,641204736,0,0.13450241088867188,0.7597742080688477,0,145.71730041503906
821035,535297535,641204736,0,0.1351536065340042,0.7584360241889954,0,145.7146453857422
821055,536346111,641204736,0,0.13409246504306793,0.7590911388397217,0,145.71145629882812
821075,535297535,641204736,0,0.13335900008678436,0.75941002368927,0,145.70816040039062
821095,535297535,641204736,0,0.13273942470550537,0.7600058317184448,0,145.70582580566406
821115,535297535,641204736,0,0.13230125606060028,0.7590339183807373,0,145.70187377929688
821135,535297535,641204736,0,0.13211970031261444,0.7597134709358215,0,145.69781494140625
821155,535297535,641204736,0,0.13249759376049042,0.759968638420105,0,145.6947784423828
821175,536346111,641204736,0,0.13236597180366516,0.7585633397102356,0,145.69081115722656
821195,536346111,641204736,0,0.13120059669017792,0.7581751942634583,0,145.6880645751953
821215,535297535,641204736,0,0.13108377158641815,0.7579106092453003,0,145.68527221679688
821235,535297535,641204736,0,0.1318414956331253,0.7578611373901367,0,145.68238830566406
821255,536346111,641204736,0,0.13284964859485626,0.7570382356643677,0,145.68032836914062
821275,535297535,641204736,0,0.13235917687416077,0.7566945552825928,0,145.67697143554688
821295,535297535,641204736,0,0.13143888115882874,0.7571261525154114,0,145.67320251464844
821315,535297535,641204736,0,0.13141046464443207,0.7577716112136841,0,145.6690673828125
821335,536346111,641204736,0,0.13142137229442596,0.7554250955581665,0,145.66448974609375
821355,535297535,641204736,0,0.1309061199426651,0.7548595666885376,0,145.66217041015625
821375,536346111,641204736,0,0.13144290447235107,0.7575860619544983,0,145.65890502929688
821395,536346111,641204736,0,0.13171567022800446,0.7567542195320129,0,145.65647888183594
821415,536346111,641204736,0,0.13204695284366608,0.7544490694999695,0,145.65200805664062
821435,535297535,641204736,0,0.1328326314687729,0.7553715705871582,0,145.6483154296875
821455,535297535,641204736,0,0.13442647457122803,0.7555172443389893,0,145.6453094482422
821475,536346111,641204736,0,0.13556385040283203,0.7551242113113403,0,145.6422576904297
821495,536346111,641204736,0,0.13613900542259216,0.7540780305862427,0,145.63934326171875
821515,535297535,641204736,0,0.1363523304462433,0.752442479133606,0,145.63636779785156
821535,536346111,641204736,0,0.13643142580986023,0.7513187527656555,0,145.6342010498047
821555,536346111,641204736,0,0.1358865648508072,0.7510420680046082,0,145.63160705566406
821575,535297535,641204736,0,0.13557478785514832,0.7500519156455994,0,145.62844848632812
821595,535297535,641204736,0,0.13515052199363708,0.7488662600517273,0,145.62635803222656
821615,536346111,641204736,0,0.13523636758327484,0.7493200898170471,0,145.62344360351562
821635,535297535,641204736,0,0.13575945794582367,0.74858558177948,0,145.62088012695312
821655,535297535,641204736,0,0.13567394018173218,0.7494889497756958,0,145.61697387695312
821675,535297535,641204736,0,0.13597674667835236,0.7492021918296814,0,145.61285400390625
821695,535297535,641204736,0,0.1365753710269928,0.7500547766685486,0,145.60946655273438
821715,535297535,641204736,0,0.13779427111148834,0.749363124370575,0,145.6068878173828
821735,536346111,641204736,0,0.13886253535747528,0.749497652053833,0,145.60499572753906
821755,536346111,641204736,0,0.13875006139278412,0.7504152059555054,0,145.6019744873047
821775,535297535,641204736,0,0.13898371160030365,0.7507511973381042,0,145.59841918945312
821795,536346111,641204736,0,0.13956184685230255,0.7505291104316711,0,145.59564208984375
821815,535297535,641204736,0,0.14020586013793945,0.7510833740234375,0,145.59152221679688
821835,535297535,641204736,0,0.14005187153816223,0.7494193911552429,0,145.5880584716797
821855,535297535,641204736,0,0.140173077583313,0.7486502528190613,0,145.58523559570312
821875,535297535,641204736,0,0.13907459378242493,0.7493218779563904,0,145.58154296875
821895,536346111,641204736,0,0.1380903720855713,0.7475789189338684,0,145.5767059326172
821915,535297535,641204736,0,0.13989031314849854,0.7468528747558594,0,145.57485961914062
821935,535297535,641204736,0,0.13956043124198914,0.7471327185630798,0,145.57147216796875
821955,535297535,641204736,0,0.14040300250053406,0.7464451789855957,0,145.5679168701172
821975,536346111,641204736,0,0.14036431908607483,0.748479425907135,0,145.5637969970703
821995,535297535,641204736,0,0.14110465347766876,0.7490142583847046,0,145.56141662597656
822015,536346111,641204736,0,0.14137040078639984,0.7487059831619263,0,145.55850219726562
822035,535297535,641204736,0,0.14132973551750183,0.7488403916358948,0,145.5541229248047
822055,535297535,641204736,0,0.14215734601020813,0.7481621503829956,0,145.55133056640625
822075,535297535,641204736,0,0.14197185635566711,0.748455286026001,0,145.5492401123047
822095,535297535,641204736,0,0.14299675822257996,0.7477420568466187,0,145.54685974121094
822115,535297535,641204736,0,0.14346982538700104,0.7462640404701233,0,145.54330444335938
822135,536346111,641204736,0,0.1441989541053772,0.745792806148529,0,145.5411834716797
822155,536346111,641204736,0,0.14347337186336517,0.745120644569397,0,145.53919982910156
822175,535297535,641204736,0,0.1437716782093048,0.7456408739089966,0,145.53573608398438
822195,536346111,641204736,0,0.14458008110523224,0.7468051314353943,0,145.53271484375
822215,535297535,641204736,0,0.14480634033679962,0.7470048666000366,0,145.52972412109375
822235,535297535,641204736,0,0.1443393975496292,0.747423529624939,0,145.52682495117188
822255,535297535,641204736,0,0.14337262511253357,0.7475273013114929,0,145.5223388671875
822275,535297535,641204736,0,0.14497539401054382,0.7473465204238892,0,145.51931762695312
822295,536347135,641204736,0,0.1450677365064621,0.7470279335975647,0,145.51632690429688
822315,535297535,641204736,0,0.14486908912658691,0.747489333152771,0,145.51458740234375
822335,536346111,641204736,0,0.14531446993350983,0.7482776641845703,0,145.51075744628906
822355,535297535,641204736,0,0.1454797387123108,0.7487305998802185,0,145.50758361816406
822375,536346111,641204736,0,0.1466122418642044,0.7493607997894287,0,145.50486755371094
822395,535297535,641204736,0,0.14682374894618988,0.7496433854103088,0,145.5006561279297
822415,535297535,641204736,0,0.1480514407157898,0.7490730285644531,0,145.4965057373047
822435,536346111,641204736,0,0.14767153561115265,0.7493340969085693,0,145.4944610595703
822455,535297535,641204736,0,0.14792859554290771,0.7507085204124451,0,145.49241638183594
822475,536346111,641204736,0,0.14803151786327362,0.7498645782470703,0,145.4898681640625
822495,535297535,641204736,0,0.14682038128376007,0.7501460909843445,0,145.4869384765625
822515,536346111,641204736,0,0.1467505246400833,0.7501636147499084,0,145.48397827148438
822535,535297535,641204736,0,0.14725710451602936,0.7504249811172485,0,145.4815673828125
822555,535297535,641204736,0,0.14818258583545685,0.7505552172660828,0,145.4780731201172
822575,536346111,641204736,0,0.14895085990428925,0.7493270039558411,0,145.47573852539062
822595,535297536,643301887,0,0.14941376447677612,0.7480965852737427,0,145.47201538085938
822615,536347135,640156161,0,0.15339171886444092,0.7476226687431335,0,145.4691162109375
822635,536346111,643302911,0,0.1523611694574356,0.7496349215507507,0,145.4661407470703
822655,535298559,641204736,0,0.14928066730499268,0.7478177547454834,0,145.46310424804688
822675,537394687,641204736,0,0.15125834941864014,0.7463475465774536,0,145.45895385742188
822695,535297535,641204736,0,0.15354205667972565,0.7444900870323181,0,145.45838928222656
822715,536346111,642254335,0,0.1524941474199295,0.7453055381774902,0,145.4547576904297
822735,536347135,641205760,0,0.15187986195087433,0.7476469278335571,0,145.45147705078125
822755,535297535,641204736,0,0.15027059614658356,0.747489333152771,0,145.44729614257812
822775,536346111,641203712,0,0.1518210917711258,0.7433477640151978,0,145.44358825683594
822795,535297535,642253312,0,0.15434369444847107,0.7416011095046997,0,145.44056701660156
822815,535297535,641205759,0,0.15304450690746307,0.7438942193984985,0,145.43626403808594
822835,536346111,641204736,0,0.15178048610687256,0.7457952499389648,0,145.4329833984375
822855,535297535,642253312,0,0.15230943262577057,0.7469322681427002,0,145.4297332763672
822875,535297535,641204736,0,0.1553848683834076,0.7457607388496399,0,145.4278106689453
822895,535297535,641204736,0,0.1563236117362976,0.7440456748008728,0,145.42332458496094
822915,535297535,641204735,0,0.1567455381155014,0.7447138428688049,0,145.41978454589844
822935,535297535,641205759,0,0.1570013016462326,0.7467055320739746,0,145.41659545898438
822955,535297535,641204736,0,0.15773729979991913,0.7493408918380737,0,145.4131622314453
822975,535297535,641204736,0,0.1577099859714508,0.749770998954773,0,145.40725708007812
822995,535297535,641204736,0,0.16040383279323578,0.7462782263755798,0,145.4039764404297
823015,536346111,641204736,0,0.16327421367168427,0.7428670525550842,0,145.3996124267578
823035,536346111,641204736,0,0.16373610496520996,0.7429244518280029,0,145.39779663085938
823055,536346111,641204736,0,0.16416941583156586,0.7429556846618652,0,145.39646911621094
823075,535297535,641204736,0,0.16332034766674042,0.741868257522583,0,145.39442443847656
823095,536346111,641205760,0,0.1645456701517105,0.7427200675010681,0,145.3924560546875
823115,535297535,641205759,0,0.16458721458911896,0.7456672787666321,0,145.38809204101562
823135,536346111,641204736,0,0.16432224214076996,0.7470967769622803,0,145.3843231201172
823155,536346111,641204736,0,0.16545121371746063,0.7459532618522644,0,145.3818359375
823175,535298559,641204736,0,0.16648933291435242,0.7453108429908752,0,145.38018798828125
823195,535297535,641204736,0,0.16540446877479553,0.7444509863853455,0,145.3770751953125
823215,535297535,641205760,0,0.16388268768787384,0.744756817817688,0,145.3739471435547
823235,536346111,641204736,0,0.16316892206668854,0.7458529472351074,0,145.3715362548828
823255,535297535,641204736,0,0.16366180777549744,0.7456501126289368,0,145.36907958984375
823275,536346111,641204736,0,0.16327373683452606,0.7456747889518738,0,145.36631774902344
823295,535297535,641204736,0,0.16344214975833893,0.746645987033844,0,145.36256408691406
823315,536346111,641204736,0,0.16315513849258423,0.7477602362632751,0,145.35885620117188
823335,535297535,641204736,0,0.1639353334903717,0.7472593188285828,0,145.35610961914062
823355,536346111,641204736,0,0.163303405046463,0.7483932375907898,0,145.3537139892578
823375,535297535,641204736,0,0.1626061052083969,0.7488488554954529,0,145.35159301757812
823395,535297535,641204736,0,0.16461233794689178,0.7493549585342407,0,145.34898376464844
823415,535297535,641204736,0,0.16487988829612732,0.7477944493293762,0,145.3461151123047
823435,535297535,641204736,0,0.1659497767686844,0.747727632522583,0,145.34178161621094
823455,536346111,641204735,0,0.16570407152175903,0.7468606233596802,0,145.3382110595703
823475,536346111,641204736,0,0.16602136194705963,0.7471668124198914,0,145.3359375
823495,536346111,641204736,0,0.16631805896759033,0.7473754286766052,0,145.3345947265625
823515,536346111,641204736,0,0.16678141057491302,0.7466359734535217,0,145.3323974609375
823535,535297535,641204736,0,0.16718553006649017,0.7442117929458618,0,145.32949829101562
823555,536346111,641204736,0,0.16678833961486816,0.7434171438217163,0,145.3259735107422
823575,536346111,641204736,0,0.16632653772830963,0.7422454357147217,0,145.32296752929688
823595,535297535,641204736,0,0.16658757627010345,0.7426137924194336,0,145.31910705566406
823615,535297535,641204736,0,0.16710546612739563,0.7425380945205688,0,145.31524658203125
823635,536346111,641204736,0,0.16682977974414825,0.742648184299469,0,145.31219482421875
823655,535297535,641204736,0,0.16720160841941833,0.7434735894203186,0,145.3091278076172
823675,535297535,641204736,0,0.1672162264585495,0.7431108951568604,0,145.30580139160156
823695,536346111,641204736,0,0.16817958652973175,0.7430727481842041,0,145.30227661132812
823715,535297535,641204736,0,0.16915714740753174,0.7441084980964661,0,145.2989959716797
823735,535297535,641204736,0,0.16848815977573395,0.74312424659729,0,145.29420471191406
823755,535297535,641204736,0,0.1685417741537094,0.7432950735092163,0,145.29066467285156
823775,536346111,641204736,0,0.16912417113780975,0.7424476742744446,0,145.28834533691406
823795,535297535,641204736,0,0.16944620013237,0.7422229051589966,0,145.2866668701172
823815,536346111,641204736,0,0.16983509063720703,0.7412285804748535,0,145.2840118408203
823835,535297535,641204736,0,0.16989438235759735,0.7424022555351257,0,145.2812957763672
823855,535297535,641204736,0,0.16889454424381256,0.743442177772522,0,145.27957153320312
823875,536346111,641204736,0,0.16991902887821198,0.7454356551170349,0,145.27633666992188
823895,536346111,641204736,0,0.1707097589969635,0.7457132935523987,0,145.2734832763672
823915,536346111,641204736,0,0.17104588449001312,0.7463251948356628,0,145.271728515625
823935,536346111,641204736,0,0.17105041444301605,0.7466088533401489,0,145.2690887451172
823955,536346111,641204736,0,0.17204655706882477,0.7472000122070312,0,145.26661682128906
823975,536346111,641204736,0,0.17324814200401306,0.7489392757415771,0,145.2642059326172
823995,535297535,641204736,0,0.173887237906456,0.7487261295318604,0,145.26097106933594
824015,536346111,641204736,0,0.17444981634616852,0.7478747367858887,0,145.2576446533203
824035,536346111,641204736,0,0.17351865768432617,0.7492647767066956,0,145.2562713623047
824055,535297535,641204736,0,0.17374970018863678,0.7502136826515198,0,145.25341796875
824075,535297535,641204736,0,0.17430047690868378,0.749962568283081,0,145.2489471435547
824095,536346111,641204736,0,0.17570574581623077,0.7488666772842407,0,145.2463836669922
824115,535297535,641204736,0,0.17574481666088104,0.748367965221405,0,145.2433319091797
824135,536346111,641204736,0,0.1753961592912674,0.7494726181030273,0,145.23947143554688
824155,535297535,641204736,0,0.17592181265354156,0.7487257719039917,0,145.23593139648438
824175,536346111,641204736,0,0.1743786334991455,0.7489234805107117,0,145.2321319580078
824195,535297535,641204736,0,0.17490440607070923,0.7484560012817383,0,145.2288360595703
824215,535297535,641204736,0,0.17603850364685059,0.747596263885498,0,145.224365234375
824235,536346111,641204736,0,0.17723505198955536,0.7484402060508728,0,145.22047424316406
824255,535297535,641204736,0,0.17795541882514954,0.748775839805603,0,145.2167205810547
824275,536346111,641204736,0,0.1778298318386078,0.7489194273948669,0,145.2140350341797
824295,536346111,641204736,0,0.17713908851146698,0.7479404807090759,0,145.2113800048828
824315,536346111,641204736,0,0.1777672916650772,0.749098002910614,0,145.2086639404297
824335,536346111,641204736,0,0.17784802615642548,0.7482646107673645,0,145.20599365234375
824355,535297535,641204736,0,0.17834290862083435,0.7490896582603455,0,145.203857421875
824375,535297535,641204736,0,0.17875592410564423,0.749818742275238,0,145.19924926757812
824395,535297535,641204736,0,0.17818722128868103,0.7492668628692627,0,145.1954803466797
824415,535297535,641204736,0,0.17788253724575043,0.7495543360710144,0,145.19244384765625
824435,536346111,641204736,0,0.1775309294462204,0.7490370869636536,0,145.19068908691406
824455,535297535,641204736,0,0.17739631235599518,0.7478539347648621,0,145.1895751953125
824475,535297535,641204736,0,0.17694082856178284,0.7486247420310974,0,145.18618774414062
824495,535297535,641204736,0,0.1764146238565445,0.7488212585449219,0,145.18263244628906
824515,535297535,641204736,0,0.17725272476673126,0.7500008940696716,0,145.1795196533203
824535,535297535,641204736,0,0.1752675324678421,0.7498094439506531,0,145.1760711669922
824555,536346111,641204736,0,0.1759137362241745,0.7485969066619873,0,145.17333984375
824575,535297535,641204736,0,0.17703014612197876,0.7485848665237427,0,145.17254638671875
824595,535297535,641204736,0,0.17737719416618347,0.7486391067504883,0,145.17042541503906
824615,535297535,641204736,0,0.17629839479923248,0.7495458722114563,0,145.16476440429688
824635,535297535,641204736,0,0.17656435072422028,0.750289797782898,0,145.16085815429688
824655,535297535,641204736,0,0.17888227105140686,0.749570369720459,0,145.15892028808594
824675,536346111,641204736,0,0.17958573997020721,0.7474635243415833,0,145.15573120117188
824695,535297535,641204736,0,0.18057098984718323,0.7470279335975647,0,145.15249633789062
824715,536346111,641204736,0,0.17950159311294556,0.748522937297821,0,145.149658203125
824735,535297535,641204736,0,0.17847761511802673,0.7483514547348022,0,145.14743041992188
824755,535297535,641204736,0,0.17789307236671448,0.7493523359298706,0,145.143798828125
824775,535297535,641204736,0,0.17966613173484802,0.7489882707595825,0,145.140625
824795,535297535,641204736,0,0.17968116700649261,0.749646008014679,0,145.13771057128906
824815,536346111,641204736,0,0.18031299114227295,0.7495189905166626,0,145.13568115234375
824835,535297535,641204736,0,0.18022455275058746,0.7502870559692383,0,145.13223266601562
824855,535297535,641204736,0,0.180135115981102,0.7502192258834839,0,145.1285400390625
824875,536346111,641204736,0,0.18004491925239563,0.7499589323997498,0,145.12586975097656
824895,535297535,641205760,0,0.1800038069486618,0.7511984705924988,0,145.12353515625
824915,536346111,641204736,0,0.18013164401054382,0.7519789338111877,0,145.12062072753906
824935,536346111,642253312,0,0.1805344969034195,0.7532178163528442,0,145.11798095703125
824955,536346111,641204736,0,0.1809358298778534,0.7528592348098755,0,145.1145782470703
824975,536346111,641204736,0,0.1824541687965393,0.7529397010803223,0,145.11260986328125
