Timestamp,compactImu.a_xyz,compactImu.l_xyz,motorCompact.pwms,stabilizer.pitch,stabilizer.roll,stabilizer.thrust,stabilizer.yaw
1682237,536346111,641204736,0,0.3918265104293823,0.4494110941886902,0,-95.04730224609375
1682257,536346111,641204735,0,0.39227327704429626,0.4491569399833679,0,-95.04523468017578
1682277,536346111,641204735,0,0.3920251131057739,0.4478793740272522,0,-95.04219055175781
1682297,536346111,641204735,0,0.3918735682964325,0.4478026032447815,0,-95.04032135009766
1682317,536346111,641204736,0,0.39253729581832886,0.44838598370552063,0,-95.03926849365234
1682337,536346111,641204736,0,0.39216122031211853,0.4488428235054016,0,-95.03621673583984
1682357,536346111,641204735,0,0.39320099353790283,0.44789794087409973,0,-95.0358657836914
1682377,536346111,641204735,0,0.3920540511608124,0.4482380151748657,0,-95.03398132324219
1682397,536346111,641204736,0,0.39263325929641724,0.44793152809143066,0,-95.0330810546875
1682417,536346111,640156160,0,0.39338886737823486,0.4455326497554779,0,-95.03193664550781
1682437,536346111,641204736,0,0.39261505007743835,0.44511929154396057,0,-95.02902221679688
1682457,536346111,641204735,0,0.3928726613521576,0.446043998003006,0,-95.03044128417969
1682477,536346111,641204735,0,0.3922238051891327,0.4468669295310974,0,-95.03034210205078
1682497,536346111,641204735,0,0.39166465401649475,0.4476861357688904,0,-95.02889251708984
1682517,536346111,641204735,0,0.3914024531841278,0.4484230875968933,0,-95.02850341796875
1682537,536346111,641204735,0,0.39315351843833923,0.44770875573158264,0,-95.02777862548828
1682557,536346111,641204735,0,0.39234215021133423,0.447731614112854,0,-95.0255126953125
1682577,536346111,640156159,0,0.3929356634616852,0.44620001316070557,0,-95.02422332763672
1682597,536346111,641204736,0,0.3949423134326935,0.4456043839454651,0,-95.02181243896484
1682617,536346111,641204735,0,0.39500361680984497,0.44389599561691284,0,-95.01988983154297
1682637,536346111,640156159,0,0.3946995735168457,0.4439648985862732,0,-95.01982116699219
1682657,536346111,641204736,0,0.3936956524848938,0.44477978348731995,0,-95.01879119873047
1682677,536346111,641204736,0,0.3928552567958832,0.44348686933517456,0,-95.01785278320312
1682697,536346111,641204736,0,0.3935796618461609,0.44200244545936584,0,-95.01741027832031
1682717,536346111,640156160,0,0.39389967918395996,0.44212472438812256,0,-95.01618957519531
1682737,536346111,641204736,0,0.39487674832344055,0.44214069843292236,0,-95.01451110839844
1682757,536346111,641204735,0,0.39595064520835876,0.44062572717666626,0,-95.01288604736328
1682777,536346111,641204735,0,0.39655759930610657,0.43857675790786743,0,-95.0120620727539
1682797,536346111,641204735,0,0.3950134217739105,0.4385542869567871,0,-95.01128387451172
1682817,536346111,640156159,0,0.3949867784976959,0.4394899010658264,0,-95.01021575927734
1682837,536346111,641204735,0,0.3954581618309021,0.4400714635848999,0,-95.00910949707031
1682857,536346111,641204736,0,0.3970499038696289,0.4394775331020355,0,-95.00776672363281
1682877,536346111,641204736,0,0.3983108699321747,0.43831127882003784,0,-95.00602722167969
1682897,536346111,641204735,0,0.39819958806037903,0.440318763256073,0,-95.00470733642578
1682917,536346111,641204735,0,0.39716199040412903,0.4406990706920624,0,-95.00438690185547
1682937,536346111,641204736,0,0.39699089527130127,0.44089317321777344,0,-95.00326538085938
1682957,536346111,641204735,0,0.3980958163738251,0.4412882328033447,0,-95.0027084350586
1682977,536346111,641204735,0,0.3984403610229492,0.44078072905540466,0,-95.00211334228516
1682997,536346111,641204735,0,0.3979933559894562,0.4409412145614624,0,-95.00093841552734
1683017,536346111,641204735,0,0.3985280990600586,0.4401546120643616,0,-95.00273132324219
1683037,536346111,641204736,0,0.3988921046257019,0.4405761659145355,0,-95.00204467773438
1683057,536346111,641204736,0,0.39971891045570374,0.44046750664711,0,-95.00244903564453
1683077,536346111,640156159,0,0.40001389384269714,0.44260478019714355,0,-95.00077819824219
1683097,536346111,641204735,0,0.3996420204639435,0.44354620575904846,0,-95.00006103515625
1683117,536346111,641204735,0,0.40061235427856445,0.4442223310470581,0,-94.99866485595703
1683137,536346111,641204735,0,0.39965635538101196,0.44380292296409607,0,-94.99909973144531
1683157,536346111,640156159,0,0.3995796740055084,0.4439586400985718,0,-94.99810028076172
1683177,536346111,641204735,0,0.39951035380363464,0.4440046548843384,0,-94.99765014648438
1683197,536346111,641204735,0,0.39904704689979553,0.4441339373588562,0,-94.99711608886719
1683217,536346112,641203712,0,0.39909154176712036,0.44154974818229675,0,-94.9963150024414
1683237,536346111,642253311,0,0.39791250228881836,0.4390230178833008,0,-94.99581146240234
1683257,536347135,639107584,0,0.4007888436317444,0.4423416256904602,0,-94.99452209472656
1683277,536345087,641204735,0,0.3988490402698517,0.44294852018356323,0,-94.99124908447266
1683297,536346111,642253312,0,0.3995516002178192,0.44072264432907104,0,-94.98981475830078
1683317,536346111,640156160,0,0.40317684412002563,0.4412807524204254,0,-94.9878921508789
1683337,536346111,641204735,0,0.40268462896347046,0.44145917892456055,0,-94.98768615722656
1683357,536346111,641204735,0,0.40191856026649475,0.44283172488212585,0,-94.9884033203125
1683377,536346111,641204736,0,0.40243780612945557,0.44376036524772644,0,-94.98799133300781
1683397,536346111,640156160,0,0.4038220942020416,0.4429517090320587,0,-94.98607635498047
1683417,536346111,641204735,0,0.403423935174942,0.4390406310558319,0,-94.98494720458984
1683437,536346111,640156159,0,0.40205448865890503,0.44141384959220886,0,-94.98461151123047
1683457,536346111,641204735,994395965,0.3986578583717346,0.4434773325920105,57856,-94.98455810546875
1683477,536346111,641204736,977684540,0.39912185072898865,0.4444679319858551,57856,-94.98379516601562
1683497,535297535,641204735,977684540,0.399600625038147,0.4461250603199005,57856,-94.98461151123047
1683517,537395711,640156159,977684285,0.40131691098213196,0.44605907797813416,57856,-94.98362731933594
1683537,536346111,641204735,977750076,0.3997522294521332,0.4470745027065277,57856,-94.97860717773438
1683557,535297535,640157182,960842300,0.39656415581703186,0.4457138776779175,57856,-94.97505187988281
1683577,535297535,641205760,1095651396,0.39891669154167175,0.4503585994243622,38400,-94.97591400146484
1683597,535297535,641205760,1264213068,0.4034339189529419,0.45482370257377625,35328,-94.97257995605469
1683617,535296511,641205757,1213947723,0.40056106448173523,0.45679813623428345,35328,-94.971923828125
1683637,536347134,643302911,1264212813,0.39511799812316895,0.4539777934551239,35328,-94.97396850585938
1683657,536347135,639106559,1264147278,0.3969515264034271,0.4482324719429016,35328,-94.97611999511719
1683677,536346110,642253312,1230855754,0.3984878957271576,0.4432123601436615,35328,-94.9730453491211
1683697,535297535,642254336,1247436108,0.4085266590118408,0.44481420516967773,35328,-94.97308349609375
1683717,534248961,640156159,1281386064,0.4032013714313507,0.4428877830505371,0,-94.98918914794922
1683737,535297535,641204736,1500081500,0.3969919979572296,0.44005176424980164,61440,-95.00802612304688
1683757,535297535,640158207,1803321710,0.3917221128940582,0.43629083037376404,38400,-95.004638671875
1683777,535298559,642251264,1803519344,0.38923779129981995,0.43695446848869324,53760,-95.00763702392578
1683797,533199361,641204735,1887537010,0.3981201946735382,0.44635048508644104,4096,-95.03014373779297
1683817,532149760,639106559,1736739945,0.36878228187561035,0.4248846173286438,53760,-95.0758285522461
1683837,535300605,638060033,1769900400,0.37038761377334595,0.42797064781188965,53760,-95.10940551757812
1683857,533201406,641203711,1954512494,0.4033311605453491,0.4571816325187683,53760,-95.14521789550781
1683877,540538369,634912259,1770161520,0.3840239346027374,0.4253806471824646,53760,-95.13910675048828
1683897,541590015,643302910,1703184495,0.36214905977249146,0.40407124161720276,53760,-95.07777404785156
1683917,536354297,641203711,2038527599,0.3861585557460785,0.4366285502910614,53760,-95.02323150634766
1683937,537394688,641203710,1803650416,0.37417760491371155,0.42226189374923706,53760,-94.99820709228516
1683957,539490817,640156161,1753450095,0.351563036441803,0.41483181715011597,53760,-94.9840087890625
1683977,539491838,642254338,1719961454,0.3441227078437805,0.40982291102409363,53760,-94.935302734375
1683997,537399800,645400065,1854308459,0.34875738620758057,0.4115563631057739,53760,-94.8927993774414
1684017,538444284,644348413,1837531500,0.3585922122001648,0.41792386770248413,53760,-94.8603744506836
1684037,536344066,642251261,1652854124,0.3414219319820404,0.4144222140312195,53760,-94.83997344970703
1684057,535300607,635961855,1753057394,0.32889237999916077,0.3967346251010895,53760,-94.8724136352539
1684077,536348154,640155137,1719896174,0.34140363335609436,0.3982318937778473,53760,-94.86187744140625
1684097,539489796,635962882,1719962740,0.363436222076416,0.4158343970775604,4096,-94.83486938476562
1684117,541588994,640156159,1586205551,0.3463139533996582,0.40979793667793274,4096,-94.77848815917969
1684137,540544507,646448639,1770619499,0.3526385724544525,0.4074157774448395,53760,-94.69847869873047
1684157,543678984,639108606,1334680170,0.3417925238609314,0.40564677119255066,53760,-94.61638641357422
1684177,541585919,647495164,1452777066,0.31755369901657104,0.39829620718955994,19456,-94.53242492675781
1684197,543680001,646445567,1855625597,0.3170274794101715,0.39213937520980835,7680,-94.45719146728516
1684217,542641656,638056958,2293078404,0.30879148840904236,0.40952110290527344,13568,-94.3580093383789
1684237,542638590,641202685,2410453131,0.3148517608642578,0.4257274270057678,54016,-94.27059936523438
1684257,545795585,644351486,2292755361,0.22788365185260773,0.38989996910095215,44032,-94.16505432128906
1684277,545807861,650639872,2796986793,0.01328760851174593,0.36531251668930054,9216,-94.03820037841797
1684297,541644283,657977856,2930221500,-0.5892218351364136,0.23700708150863647,49920,-93.93611907958984
1684317,540597756,657982973,2879825084,-1.375327467918396,0.16157513856887817,49920,-93.86392974853516
1684337,540592642,656931331,2930221500,-2.094921350479126,0.1603836566209793,49920,-93.80929565429688
1684357,535331322,664273403,2746134450,-2.737999677658081,0.12431511282920837,49920,-93.79119873046875
1684377,536354310,660075006,2695672244,-3.0025851726531982,0.13713189959526062,49920,-93.78895568847656
1684397,536350208,661127675,2813438639,-3.0083281993865967,0.19501151144504547,49920,-93.77688598632812
1684417,536357372,655881737,2796267183,-3.080329418182373,0.14486604928970337,9216,-93.78877258300781
1684437,533210616,663224823,2813241259,-3.2336175441741943,0.051896341145038605,9216,-93.81490325927734
1684457,532151809,653780481,2577835682,-3.2762279510498047,0.006439467892050743,19200,-93.8534164428711
1684477,532147718,647498241,2628035748,-3.2078826427459717,0.08869850635528564,19200,-93.90286254882812
1684497,532158968,650638848,2778962596,-3.164391279220581,0.09220755100250244,19200,-93.94507598876953
1684517,534268406,646445562,2829293221,-3.3370234966278076,-0.02599657140672207,19200,-94.00067901611328
1684537,533220856,644347394,2728304042,-3.5799245834350586,-0.19590553641319275,19200,-94.02519226074219
1684557,535302659,645398009,2560532902,-3.7722251415252686,-0.1989508867263794,44032,-94.0351791381836
1684577,535283214,640156164,2426448293,-3.6882550716400146,-0.06160972639918327,44032,-94.04334259033203
1684597,535272973,645393915,2476778917,-3.349550485610962,0.15359216928482056,44032,-94.0409927368164
1684617,534233608,641205762,2527110051,-3.0235812664031982,0.30844876170158386,44032,-94.05254364013672
1684637,533195264,641200638,2628363167,-2.850890874862671,0.3646211326122284,19200,-94.0884017944336
1684657,534248955,641204732,2560991646,-2.804495334625244,0.3253787159919739,44032,-94.12389373779297
1684677,534247930,639106558,2560991902,-2.8081090450286865,0.26375746726989746,44032,-94.14894104003906
1684697,534242811,647495163,2560991646,-2.7576794624328613,0.20917409658432007,44032,-94.17127227783203
1684717,535288316,637007366,2577703071,-2.6153318881988525,0.1535392552614212,44032,-94.19011688232422
1684737,535291389,637007354,2442963111,-2.4610626697540283,0.12020770460367203,44032,-94.20469665527344
1684757,535293425,639106556,2392763301,-2.3906538486480713,0.007647369522601366,44032,-94.21500396728516
1684777,534246873,639109628,2527306912,-2.3303282260894775,-0.3542053699493408,44032,-94.23455810546875
1684797,533198273,640152061,2560795296,-2.3017611503601074,-1.0574615001678467,44032,-94.25648498535156
1684817,534246830,641207808,2526913957,-2.2380318641662598,-2.059281587600708,44032,-94.28202056884766
1684837,534242730,637005311,2679020437,-2.1609466075897217,-3.2236666679382324,44032,-94.310546875
1684857,534240691,644348415,2594939031,-2.0320913791656494,-4.375071048736572,44032,-94.32703399658203
1684877,534241737,640156157,2544544158,-1.907629132270813,-5.2667927742004395,19200,-94.33807373046875
1684897,533196256,637010432,2443160227,-1.8058253526687622,-5.83758544921875,44032,-94.35273742675781
1684917,533202409,639105534,2577441441,-1.7662873268127441,-6.160115718841553,44032,-94.38217163085938
1684937,534255081,638053885,2577179302,-1.8154616355895996,-6.417912006378174,44032,-94.4171142578125
1684957,535301601,641206782,2560860832,-1.8562240600585938,-6.740451335906982,44032,-94.43595123291016
1684977,534248926,635960828,2493818781,-1.868224859237671,-7.118137836456299,44032,-94.45053100585938
1684997,534245848,647493119,2578162327,-1.8347216844558716,-7.570617198944092,44032,-94.4699935913086
1685017,534242777,641202687,2494015386,-1.7572433948516846,-8.067428588867188,44032,-94.48270416259766
1685037,534243806,635960831,2544215197,-1.6600384712219238,-8.499279975891113,44032,-94.4975357055664
1685057,533197283,640155127,2645142178,-1.6213308572769165,-8.868157386779785,59648,-94.53067779541016
1685077,533200364,646445569,2729028264,-1.5820515155792236,-9.142704010009766,34816,-94.54352569580078
1685097,533202420,641204736,2729227439,-1.5659022331237793,-9.286133766174316,49920,-94.57624053955078
1685117,532153850,643295740,2931409851,-1.5617579221725464,-9.305485725402832,55552,-94.6187744140625
1685137,531103229,650643965,3251557576,-1.578399658203125,-9.296147346496582,8192,-94.66885375976562
1685157,531100161,652734973,3167607241,-1.5351505279541016,-9.232305526733398,8192,-94.72483825683594
1685177,532144645,657977858,3150633676,-1.450293779373169,-9.098651885986328,8192,-94.76904296875
1685197,530046468,665318908,3049775565,-1.3163100481033325,-9.005868911743164,8192,-94.8179931640625
1685217,531092994,667415036,3066945735,-1.1822196245193481,-8.898124694824219,8192,-94.86637115478516
1685237,532144643,663219709,3218331586,-1.0566095113754272,-8.804380416870117,8192,-94.91216278076172
1685257,532146697,668463611,3437415090,-0.9760705232620239,-8.6909818649292,8192,-94.96539306640625
1685277,532148762,669513214,3167542216,-0.9347739219665527,-8.397897720336914,8192,-95.01386260986328
1685297,533200431,665317886,3150502090,-0.9147233366966248,-7.835050582885742,36352,-95.05807495117188
1685317,533202502,667415037,2998785993,-0.9126816987991333,-6.963125228881836,21248,-95.09866333007812
1685337,532158033,666365440,2880425927,-0.9499588012695312,-5.8520636558532715,30720,-95.14187622070312
1685357,534255176,656929278,2627911350,-0.9935957789421082,-4.720520496368408,49920,-95.17365264892578
1685377,534255160,660076025,2576919722,-1.08395254611969,-3.779489278793335,19200,-95.21778106689453
1685397,533205535,655880700,2594218391,-1.1920785903930664,-3.1437087059020996,3584,-95.25059509277344
1685417,535293460,646440449,2240845193,-1.221201777458191,-2.7675676345825195,22784,-95.27446746826172
1685437,536332812,638055932,2106232191,-1.0768145322799683,-2.552090644836426,32768,-95.27734375
1685457,535281164,639102461,2089520766,-0.8507463335990906,-2.358177900314331,32768,-95.27543640136719
1685477,536330769,637008380,1821875827,-0.6123829483985901,-2.1329643726348877,32768,-95.2662353515625
1685497,537388562,627569151,1938198911,-0.4520184397697449,-1.8811917304992676,57600,-95.25090789794922
1685517,537403925,624421374,1988137866,-0.4909519851207733,-1.608725666999817,32768,-95.24382019042969
1685537,538466839,623373822,2189459846,-0.735227108001709,-1.3313649892807007,57600,-95.23633575439453
1685557,538470943,620229117,2155512972,-1.0861395597457886,-0.9599090814590454,57600,-95.21361541748047
1685577,538465831,613936635,2038140816,-1.445687174797058,-0.4742322862148285,32768,-95.19365692138672
1685597,538457640,619179520,1937412237,-1.68865966796875,0.07290343195199966,57600,-95.16703033447266
1685617,538445350,621275647,1938134407,-1.773718237876892,0.6086510419845581,32768,-95.14737701416016
1685637,538439193,621276672,1971557256,-1.741905689239502,1.0287575721740723,32768,-95.12040710449219
1685657,538438157,617080319,1904252812,-1.6523951292037964,1.279873013496399,32768,-95.10102844238281
1685677,536345082,614984189,2105904262,-1.5896779298782349,1.2736400365829468,32768,-95.08373260498047
1685697,537394665,614986236,2173799552,-1.5800726413726807,1.0315661430358887,7680,-95.07347869873047
1685717,536348134,619180544,2577504916,-1.593807578086853,0.6700282692909241,28928,-95.0552749633789
1685737,537396721,622324223,2560993952,-1.6174026727676392,0.34892895817756653,19200,-95.0483627319336
1685757,536348159,628614656,2661725359,-1.626318097114563,0.21306811273097992,9216,-95.03592681884766
1685777,536345097,640151037,2864105662,-1.6121736764907837,0.25549864768981934,55552,-95.03770446777344
1685797,535293454,645393917,2830749887,-1.5733158588409424,0.419485479593277,30720,-95.041015625
1685817,535291401,644347390,2881277116,-1.4823665618896484,0.5786499381065369,30720,-95.04953002929688
1685837,534243845,653780476,2948319677,-1.408224105834961,0.6810279488563538,30720,-95.069580078125
1685857,535291391,652732928,2914698936,-1.3241517543792725,0.7136721611022949,55552,-95.09880828857422
1685877,534244862,659027455,2628303019,-1.2544726133346558,0.6434085965156555,9216,-95.13230895996094
1685897,535296509,654833152,2628302764,-1.226762294769287,0.5960008502006531,9216,-95.1612319946289
1685917,535300605,654831100,2661987753,-1.223093032836914,0.5480630397796631,9216,-95.16937255859375
1685937,535301628,645393923,2493557406,-1.2711269855499268,0.49451902508735657,44032,-95.17723083496094
1685957,536351225,647493117,2476582556,-1.3343805074691772,0.42207130789756775,3584,-95.18775939941406
1685977,536350206,643298813,2375526045,-1.3997389078140259,0.372498482465744,28928,-95.18861389160156
1685997,536349182,644345340,2409211292,-1.4272451400756836,0.3312569558620453,28928,-95.1792221069336
1686017,537395708,635958786,2409407641,-1.421453595161438,0.27552470564842224,28928,-95.17264556884766
1686037,536349180,634908155,2341970841,-1.4447836875915527,0.20892398059368134,54016,-95.15729522705078
1686057,537396732,639101436,2139856789,-1.4748057126998901,0.12320823967456818,63488,-95.14679718017578
1686077,537397744,631765503,2038736284,-1.5157884359359741,-0.00656721368432045,63488,-95.13030242919922
1686097,537399764,630714878,2088934809,-1.5509626865386963,-0.4065161943435669,22784,-95.11123657226562
1686117,537398698,631763451,2223938195,-1.6208349466323853,-1.3239678144454956,63488,-95.10237121582031
1686137,536347014,633858556,2342030979,-1.6526600122451782,-2.795480489730835,22784,-95.09791564941406
1686157,536341875,632814078,2173868168,-1.6266409158706665,-4.659308910369873,22784,-95.0919189453125
1686177,536338807,632815104,2140378499,-1.5424872636795044,-6.59757661819458,48384,-95.09183502197266
1686197,536339852,630715902,2156957568,-1.4458332061767578,-8.327530860900879,7680,-95.07951354980469
1686217,534248871,626517500,2089127557,-1.3970297574996948,-9.708525657653809,32768,-95.08016204833984
1686237,535302593,620229117,2004849547,-1.4222785234451294,-10.702407836914062,32768,-95.08747100830078
1686257,536354257,619181569,1987941261,-1.4859405755996704,-11.36807918548584,32768,-95.10552978515625
1686277,536354264,622325247,1971164302,-1.578958511352539,-11.886706352233887,32768,-95.127685546875
1686297,536352215,621274622,2055311498,-1.6832942962646484,-12.378670692443848,32768,-95.14744567871094
1686317,536349141,622325245,2021822856,-1.7404570579528809,-12.895686149597168,32768,-95.15514373779297
1686337,536345041,621277693,2089192837,-1.7395148277282715,-13.450828552246094,32768,-95.1402587890625
1686357,537391571,624423423,2072612482,-1.6921131610870361,-14.011713981628418,32768,-95.12451934814453
1686377,537392600,621277693,2072546948,-1.6482722759246826,-14.511075019836426,32768,-95.10113525390625
1686397,536344033,616035839,2022084997,-1.6082706451416016,-14.896729469299316,32768,-95.07886505126953
1686417,537395690,621277693,1988137867,-1.598565936088562,-15.162774085998535,32768,-95.06365966796875
1686437,536347118,621275645,1904056462,-1.622360110282898,-15.329004287719727,32768,-95.05825805664062
1686457,537395690,620228093,1920767632,-1.6373329162597656,-15.48012638092041,32768,-95.04608154296875
1686477,538443231,616033790,1836751506,-1.6310343742370605,-15.73796272277832,32768,-95.02381134033203
1686497,537391562,621272577,1820171407,-1.5937414169311523,-16.250762939453125,32768,-95.0019302368164
1686517,535294388,628613629,2055771272,-1.5432144403457642,-17.074071884155273,7680,-94.97628021240234
1686537,536341924,623372796,2072614797,-1.4814552068710327,-18.14976692199707,48384,-94.94220733642578
1686557,535293337,624421371,2359075476,-1.429659366607666,-19.414310455322266,54016,-94.91349029541016
1686577,535295389,624421371,2359011226,-1.398047685623169,-20.700740814208984,28928,-94.90113830566406
1686597,534246826,625468924,2308549276,-1.36595618724823,-21.86180877685547,28928,-94.90350341796875
1686617,535293369,631760380,2274929821,-1.331535816192627,-22.80459213256836,28928,-94.89669799804688
1686637,534247880,634905084,2241047970,-1.297905445098877,-23.524198532104492,28928,-94.88927459716797
1686657,534249936,634905084,2342107051,-1.292535424232483,-24.082429885864258,19200,-94.90167236328125
1686677,534250965,635952632,2611529916,-1.3073889017105103,-24.54584312438965,0,-94.9109878540039
1686697,534246872,643293694,2847787446,-1.2897148132324219,-24.983612060546875,55552,-94.92047882080078
1686717,535291369,646437372,2348805229,-1.2341402769088745,-25.253259658813477,30720,-94.9061508178711
1686737,534260229,653776383,2550070164,-1.2318674325942993,-25.213897705078125,36352,-94.92549896240234
1686757,533247527,660067833,2881219801,-1.5738400220870972,-24.72149085998535,8192,-95.10371398925781
1686777,534329915,664266239,2914249696,-2.3649187088012695,-23.859638214111328,8192,-95.48431396484375
1686797,538541635,664260091,2964449505,-3.484790563583374,-22.82965087890625,8192,-95.96990203857422
1686817,540635718,667411958,3015829200,-4.739551067352295,-21.763723373413086,8192,-96.41952514648438
1686837,542722643,667403774,3506424395,-5.883853912353516,-20.590206146240234,8192,-96.78849029541016
1686857,542725746,671598076,2330722212,-6.976508617401123,-19.135427474975586,8192,-97.09954833984375
1686877,539606673,670550521,2746416600,-8.270270347595215,-17.257980346679688,8192,-97.45746612548828
1686897,540679836,667405810,2863003619,-9.91418743133545,-15.08056926727295,8192,-97.88732147216797
1686917,541742746,666353151,2796222165,-11.818077087402344,-12.907851219177246,61440,-98.30094146728516
1686937,542789260,667402754,2495545279,-13.799087524414062,-10.8431978225708,61440,-98.65081787109375
1686957,542784119,670551543,2796419534,-15.707245826721191,-9.05864143371582,61440,-98.91644287109375
1686977,541726309,664254972,2863462094,-17.53860092163086,-7.543437480926514,61440,-99.12594604492188
1686997,539613776,663209463,3065376194,-19.21355438232422,-6.319896221160889,61440,-99.28973388671875
1687017,540646989,662162941,3065376193,-20.632461547851562,-5.290072917938232,61440,-99.40237426757812
1687037,537490009,668448260,3065507773,-21.822071075439453,-4.167541027069092,61440,-99.48358154296875
1687057,537477740,659006975,2914120894,-22.854312896728516,-2.8189163208007812,21248,-99.54840087890625
1687077,537470585,663205368,2695296702,-23.773195266723633,-1.2579014301300049,5632,-99.59285736083984
1687097,533272186,668453368,3228551906,-24.62581443786621,0.41489097476005554,15616,-99.63842010498047
1687117,533257836,661108221,2575293629,-25.366609573364258,1.9507930278778076,49920,-99.69605255126953
1687137,532178513,654816761,2776550583,-25.79312515258789,3.2125165462493896,9216,-99.75426483154297
1687157,532126268,657966582,2675359401,-25.623260498046875,4.084650993347168,44032,-99.85343170166016
1687177,528923179,645378556,2508703375,-24.69013214111328,4.645584583282471,3584,-100.05296325683594
1687197,528882209,646434292,2493499766,-23.097230911254883,4.982681751251221,3584,-100.33621215820312
1687217,527817257,649576954,3129321101,-21.157835006713867,5.259544849395752,3584,-100.67573547363281
1687237,528877118,643287543,2408370821,-19.19692611694336,5.761501312255859,3584,-101.01731872558594
1687257,533084758,644337141,2524105375,-17.423189163208008,6.630772590637207,3584,-101.30619049072266
1687277,535184995,644337141,2390021021,-15.766161918640137,7.779824256896973,3584,-101.5661849975586
1687297,536232547,643286518,2508902022,-14.11935806274414,9.004621505737305,3584,-101.82897186279297
1687317,538328685,643289589,2509360767,-12.478461265563965,10.280590057373047,3584,-102.11638641357422
1687337,542523014,649576952,3763439557,-10.880475997924805,11.78641414642334,44032,-102.38738250732422
1687357,545656480,638049778,2440352156,-9.236021041870117,13.675532341003418,3584,-102.66946411132812
1687377,546670250,644337138,2355944872,-7.32061767578125,15.804452896118164,44032,-103.07735443115234
1687397,549762717,645384691,2155211677,-4.8304009437561035,17.919328689575195,44032,-103.7013931274414
1687417,550760054,650627578,2051405512,-1.6663261651992798,19.672456741333008,44032,-104.61347961425781
1687437,552820282,649580024,1786969984,2.0422463417053223,20.757143020629883,3584,-105.7850341796875
1687457,558043642,649586171,1872822115,6.120811462402344,21.034372329711914,44032,-107.08573913574219
1687477,562252230,642244084,2074672982,10.22239875793457,20.579484939575195,44032,-108.32646942138672
1687497,571730345,641196538,2225928786,13.966379165649414,19.580135345458984,44032,-109.29302978515625
1687517,581224857,647492090,2359226466,17.133119583129883,18.181659698486328,44032,-109.84178161621094
1687537,592826786,644342260,2172515722,19.507173538208008,16.61025047302246,44032,-109.88420867919922
1687557,604426687,642246138,2423512221,20.998523712158203,15.187115669250488,44032,-109.39301300048828
1687577,611805652,646440443,2305219252,21.82134246826172,13.9993314743042,44032,-108.54950714111328
1687597,612863432,641200636,2407124391,22.305402755737305,12.824174880981445,44032,-107.52021789550781
1687617,611797425,646438391,2341522581,22.834922790527344,11.397093772888184,44032,-106.49820709228516
1687637,609679775,645391866,2259013252,23.596723556518555,9.665480613708496,44032,-105.52572631835938
1687657,608625055,647487997,2175192967,24.526874542236328,7.819223880767822,44032,-104.5811538696289
1687677,609686955,648539646,2191837071,25.348527908325195,6.019735813140869,44032,-103.60093688964844
1687697,605520318,644344314,1473245031,25.846824645996094,4.4609055519104,44032,-102.57059478759766
1687717,603462095,648537598,1990904976,25.90484046936035,3.1325483322143555,44032,-101.53970336914062
1687737,597230044,643294714,1873924491,25.27223014831543,2.069326162338257,44032,-100.53948211669922
1687757,597303786,644342265,1907083927,23.703582763671875,1.2182018756866455,44032,-99.58611297607422
1687777,592142831,640150005,2509679283,21.014001846313477,0.5936031937599182,19200,-98.6888427734375
1687797,590092781,644342261,2810482626,17.398038864135742,0.06705240905284882,44032,-97.86795806884766
1687817,587978222,642244096,2693436352,13.605871200561523,-0.4196591079235077,44032,-97.14118194580078
1687837,583717364,646439421,2375985843,10.458869934082031,-0.7915940284729004,19200,-96.4813003540039
1687857,577348087,641192451,2092416152,8.372937202453613,-1.0382028818130493,19200,-95.89779663085938
1687877,568909307,647489024,1975175832,7.211177349090576,-1.2523304224014282,59648,-95.4039535522461
1687897,564702721,648536572,2226965670,6.475366592407227,-1.322182059288025,49920,-94.99974060058594
1687917,561577477,644348411,2696728517,5.670399188995361,-1.3199779987335205,30720,-94.64586639404297
1687937,559502852,649586168,2998784474,4.556589603424072,-1.2926689386367798,61440,-94.33097839355469
1687957,558451205,652731900,2965754579,3.307612180709839,-1.250809669494629,61440,-94.0451431274414
1687977,558433795,659023357,2815089359,2.1996614933013916,-1.229849100112915,61440,-93.77215576171875
1687997,553170435,666362366,2815220683,1.3614391088485718,-1.1811870336532593,61440,-93.52716064453125
1688017,550008326,664264189,2781667274,0.8003717660903931,-1.1291886568069458,61440,-93.32836151123047
1688037,546850311,669510137,2865683144,0.44830435514450073,-1.0406111478805542,61440,-93.17889404296875
1688057,545804816,668461564,3100493763,0.16027458012104034,-0.9064275622367859,21248,-93.04084014892578
1688077,544756257,668464634,3301424073,-0.15754415094852448,-0.5764559507369995,21248,-92.91927337646484
1688097,543683139,666366453,3065955533,-0.3043067455291748,0.13914601504802704,46336,-92.80709075927734
1688117,542587498,664265212,2646071247,0.022309862077236176,1.365735650062561,5632,-92.71195983886719
1688137,539391612,661118464,2545341636,1.0279396772384644,3.00297474861145,55552,-92.67679595947266
1688157,538304122,665310723,2175190958,2.6802399158477783,4.703528881072998,34816,-92.74552154541016
1688177,537240167,661118460,2309866923,4.692131042480469,6.232400417327881,9216,-92.91444396972656
1688197,537249361,654832126,2494805663,6.704531192779541,7.491908073425293,34816,-93.12922668457031
1688217,537272901,653779452,2880872858,8.475537300109863,8.502034187316895,34816,-93.35967254638672
1688237,539394633,646443518,2629282709,9.895306587219238,9.45119857788086,59648,-93.5428695678711
1688257,540464731,653783547,2711399349,10.977767944335938,10.545003890991211,34816,-93.67709350585938
1688277,541526637,646442495,2509877683,11.823661804199219,11.89741039276123,59648,-93.7764892578125
1688297,541531762,650634750,2577247917,12.546944618225098,13.398505210876465,59648,-93.85353088378906
1688317,543627888,640151038,2493626288,13.247632026672363,14.894383430480957,34816,-93.93832397460938
1688337,543628897,648540668,2627711154,13.934738159179688,16.272165298461914,34816,-94.02571105957031
1688357,541536845,643295742,2628299938,14.572487831115723,17.421443939208984,59648,-94.12776947021484
1688377,543637053,647493122,2293745048,15.142544746398926,18.264617919921875,34816,-94.22612762451172
1688397,544696884,645394939,2695997593,15.63917064666748,18.93211555480957,59648,-94.28020477294922
1688417,543670840,648540672,2678827423,15.932225227355957,19.526796340942383,59648,-94.26820373535156
1688437,543694406,640154116,2627775147,15.930376052856445,20.228981018066406,59648,-94.13550567626953
1688457,541615694,645395963,2761992368,15.649799346923828,21.073827743530273,34816,-93.90518188476562
1688477,542670412,647496190,2594681003,15.179183959960938,21.917322158813477,34816,-93.62515258789062
1688497,538486345,645393923,2661263533,14.621535301208496,22.727651596069336,59648,-93.31968688964844
1688517,536398396,643301886,2578033828,13.936091423034668,23.39849281311035,59648,-92.99176788330078
1688537,533278258,643298813,2645732769,13.0501708984375,23.918102264404297,34816,-92.59880828857422
1688557,532262438,649595394,2779620264,11.768322944641113,24.225786209106445,34816,-92.06558227539062
1688577,528098851,644348416,2963378608,10.082237243652344,24.44510269165039,59648,-91.37826538085938
1688597,522861091,642252292,2929627572,8.127229690551758,24.629600524902344,59648,-90.63728332519531
1688617,519692843,645399042,2812319668,6.313173294067383,24.925413131713867,59648,-89.99369812011719
1688637,517560877,641205769,2645401768,4.870978355407715,25.321855545043945,59648,-89.56724548339844
1688657,515430955,651693565,2528357543,3.8437349796295166,25.739585876464844,34816,-89.36772155761719
1688677,514365988,644350467,2612504483,3.1384658813476562,26.11671257019043,34816,-89.32317352294922
1688697,513316380,641209859,2645533093,2.5302088260650635,26.37811851501465,59648,-89.34365844726562
1688717,512271891,645400069,2240462542,1.891053318977356,26.53616714477539,34816,-89.36796569824219
1688737,513324549,644351486,2914029988,1.2095857858657837,26.537694931030273,59648,-89.36283874511719
1688757,511223285,642259462,2964558757,0.5157339572906494,26.314237594604492,34816,-89.37063598632812
1688777,512259571,646447619,2763235237,-0.07339354604482651,25.93988800048828,34816,-89.43445587158203
1688797,510153197,641208833,2611325873,-0.5258759260177612,25.55390739440918,34816,-89.57306671142578
1688817,514340314,642257411,2375660218,-0.8624535202980042,25.03628921508789,59648,-89.7553482055664
1688837,516434341,646450687,2392436923,-1.1255513429641724,24.017526626586914,59648,-89.93763732910156
1688857,516434267,639110664,2662049453,-1.3627729415893555,22.091970443725586,34816,-90.12808990478516
1688877,517477663,639114756,3150744204,-1.5355428457260132,19.15814971923828,34816,-90.32500457763672
1688897,518517010,648550910,3218310788,-1.6011884212493896,15.735404968261719,34816,-90.54509735107422
1688917,518511925,647503367,2999489677,-1.5442228317260742,12.485574722290039,34816,-90.79945373535156
1688937,519562607,646454796,2713231768,-1.462406039237976,9.962357521057129,59648,-91.05400085449219
1688957,518523298,649598474,2779815838,-1.4337866306304932,8.253701210021973,59648,-91.29421997070312
1688977,517483974,642262533,2896338863,-1.5051394701004028,7.203720569610596,34816,-91.5188217163086
1688997,516441549,645410302,2963511464,-1.7093919515609741,6.465210914611816,59648,-91.74635314941406
1689017,518535620,647505404,2964297628,-1.963409185409546,5.677213668823242,59648,-91.9706039428711
1689037,517477815,644362757,3065616533,-2.1194591522216797,4.733536720275879,34816,-92.194091796875
1689057,518516150,645409282,3149763983,-2.0973565578460693,3.7231931686401367,34816,-92.43697357177734
1689077,519561662,644358663,3031799442,-1.9768919944763184,2.745715379714966,59648,-92.66431427001953
1689097,521657807,650652160,2880675733,-1.8224157094955444,1.965753436088562,59648,-92.87400817871094
1689117,523761116,647508477,2964232858,-1.7158931493759155,1.3959193229675293,59648,-93.03942108154297
1689137,523769318,654847487,2997852568,-1.7385244369506836,1.0225330591201782,59648,-93.20695495605469
1689157,524818924,648557061,2947521688,-1.8161749839782715,0.7649502158164978,59648,-93.35778045654297
1689177,525866474,645411337,3081933972,-1.862181544303894,0.5296606421470642,59648,-93.49755096435547
1689197,529006059,642264587,3132724628,-1.8453936576843262,0.3137580156326294,34816,-93.6150894165039
1689217,529001965,640166405,2964365469,-1.751259207725525,0.09044435620307922,34816,-93.70663452148438
1689237,530051560,652750335,2913901977,-1.6753050088882446,-0.15136662125587463,59648,-93.8001708984375
1689257,531103191,644367867,2981206423,-1.6356887817382812,-0.5381072163581848,59648,-93.8723373413086
1689277,532153793,642262530,2913903263,-1.6423500776290894,-1.177905559539795,34816,-93.93351745605469
1689297,533201308,644354564,2963708322,-1.6351022720336914,-2.2424631118774414,59648,-93.9815902709961
1689317,532145508,652752380,3115749777,-1.593216061592102,-3.984849214553833,59648,-94.02882385253906
1689337,533180731,644362753,3200815493,-1.4009615182876587,-6.36749792098999,34816,-94.05086517333984
1689357,534221095,644355590,3099891338,-1.0479540824890137,-9.195426940917969,34816,-94.03516387939453
1689377,534216997,650650109,3518463128,-0.6018176078796387,-12.168395042419434,34816,-93.96537780761719
1689397,534219063,655891962,3250816903,-0.18598492443561554,-15.01046371459961,59648,-93.884765625
1689417,534220122,648551932,3066009233,0.17896321415901184,-17.464448928833008,34816,-93.79847717285156
1689437,534222212,643311103,2863964828,0.5250471830368042,-19.331775665283203,34816,-93.7099609375
1689457,534225314,644359676,2830147227,0.8245421051979065,-20.66440773010254,59648,-93.62651824951172
1689477,532133300,643312123,2863964828,1.0639327764511108,-21.642704010009766,34816,-93.58350372314453
1689497,531090869,650650107,3014694298,1.2401542663574219,-22.515583038330078,59648,-93.57687377929688
1689517,531090871,645407238,3014759833,1.4094820022583008,-23.356403350830078,59648,-93.58737182617188
1689537,531091898,645406213,3165819293,1.5965949296951294,-24.154186248779297,34816,-93.59024047851562
1689557,533182919,648548867,2947520412,1.809643268585205,-24.843408584594727,59648,-93.56935119628906
1689577,532134351,645404158,2947653023,2.04691481590271,-25.39535140991211,34816,-93.52169036865234
1689597,534230491,656936442,2897452959,2.2671802043914795,-25.77414321899414,34816,-93.47240447998047
1689617,531091938,653793787,2947587488,2.430558919906616,-26.005876541137695,34816,-93.45802307128906
1689637,533193194,648550919,2863242147,2.5471417903900146,-26.13631248474121,59648,-93.45654296875
1689657,534244844,642259466,2930023597,2.643641710281372,-26.207395553588867,34816,-93.46184539794922
1689677,534242797,648545787,2796332197,2.720521926879883,-26.26475715637207,34816,-93.4780044555664
1689697,536339948,654837247,2830147747,2.7851974964141846,-26.313440322875977,34816,-93.46598052978516
1689717,536344047,642259464,2779227053,2.8232197761535645,-26.335126876831055,34816,-93.44184112548828
1689737,535295472,650642941,2745869993,2.8526697158813477,-26.35025978088379,34816,-93.44015502929688
1689757,535298546,650641923,2913639849,2.8472704887390137,-26.331092834472656,34816,-93.45296478271484
1689777,537395701,646449664,2695145648,2.813337802886963,-26.273923873901367,34816,-93.48260498046875
1689797,534249970,650642947,2863440038,2.806248188018799,-26.211042404174805,34816,-93.49363708496094
1689817,535296498,646445569,2796069803,2.8097546100616455,-26.185802459716797,34816,-93.52159118652344
1689837,534246896,650644992,2661787558,2.8175179958343506,-26.20886993408203,59648,-93.54368591308594
1689857,535298546,642250246,2644813993,2.8302464485168457,-26.195226669311523,59648,-93.57357788085938
1689877,533209586,651691516,2779095463,2.7618491649627686,-26.16303825378418,59648,-93.6410903930664
1689897,535314933,643299845,2728503473,2.5977654457092285,-26.12200355529785,34816,-93.7651138305664
1689917,535314932,649593341,2762188718,2.381535053253174,-26.070327758789062,34816,-93.88497924804688
1689937,536362484,644347396,2762188973,2.1680612564086914,-25.994159698486328,34816,-94.00784301757812
1689957,535308787,649593343,2728503983,2.003108501434326,-25.978578567504883,34816,-94.10134887695312
1689977,535302644,645392900,2678238893,1.9072052240371704,-25.935192108154297,34816,-94.15896606445312
1689997,534255092,646448641,2728307888,1.867059350013733,-25.906641006469727,34816,-94.21279907226562
1690017,534256116,648537603,2728504493,1.7886340618133545,-25.85848045349121,34816,-94.27274322509766
1690037,533209587,643297794,2326775198,1.7192306518554688,-25.83885383605957,34816,-94.35685729980469
1690057,531116529,649590272,2644488103,1.5845869779586792,-25.844614028930664,59648,-94.4766616821289
1690077,532174323,641198598,2677648812,1.3953073024749756,-25.84088134765625,59648,-94.63223266601562
1690097,533225975,645396991,2998050712,1.129502534866333,-25.84110450744629,34816,-94.8048095703125
1690117,532181531,644343301,2746526608,0.8456605672836304,-25.515857696533203,59648,-94.99990844726562
1690137,533248592,650635776,2546449793,0.4085365831851959,-24.55042839050293,34816,-95.25544738769531
1690157,534328955,645392905,2474950333,-0.36726874113082886,-22.91801643371582,59648,-95.6424331665039
1690177,536449676,643295745,2692659142,-1.5231711864471436,-20.878347396850586,34816,-96.13226318359375
1690197,538550919,650633730,2642786233,-2.8932857513427734,-18.78816032409668,59648,-96.6104736328125
1690217,539591285,643294722,2625943993,-4.2073187828063965,-16.906692504882812,59648,-97.01347351074219
1690237,541665884,648537603,2626664878,-5.347676753997803,-15.338000297546387,59648,-97.28358459472656
1690257,541646399,645388804,2626928558,-6.1828718185424805,-14.149367332458496,34816,-97.43098449707031
1690277,541629991,645389824,2256655033,-6.777085304260254,-13.346846580505371,59648,-97.50675964355469
1690297,541622805,643293701,2492515243,-7.223132610321045,-12.852362632751465,59648,-97.54301452636719
1690317,541623808,641194497,2643574958,-7.611917972564697,-12.654258728027344,34816,-97.56848907470703
1690337,541625839,638051841,2677193128,-8.012255668640137,-12.717209815979004,59648,-97.58979797363281
1690357,544768489,645394946,2660941223,-8.428826332092285,-12.93327808380127,34816,-97.5916748046875
1690377,542671337,642243076,2576989857,-8.803434371948242,-13.179872512817383,59648,-97.59131622314453
1690397,542680559,645389825,2226051218,-9.262784957885742,-13.383075714111328,34816,-97.62690734863281
1690417,543740405,647484926,2576531369,-9.86982250213623,-13.487499237060547,59648,-97.6734619140625
1690437,544800251,648534532,2559098803,-10.631787300109863,-13.534381866455078,59648,-97.76185607910156
1690457,542710260,641191425,2676539318,-11.474102973937988,-13.600017547607422,34816,-97.87019348144531
1690477,546896365,642243074,2659958453,-12.306462287902832,-13.771456718444824,34816,-97.95571899414062
1690497,544784867,646439419,2543239843,-13.015254020690918,-14.056053161621094,59648,-98.01009368896484
1690517,545819103,642240002,2610479783,-13.489739418029785,-14.4035062789917,34816,-98.00755310058594
1690537,545811938,643290623,2543108773,-13.828359603881836,-14.767618179321289,59648,-97.97026062011719
1690557,544765414,646434297,2425932192,-14.138753890991211,-15.082066535949707,59648,-97.93645477294922
1690577,544780778,643291649,2493433242,-14.543659210205078,-15.331388473510742,59648,-97.94499969482422
1690597,545858040,641191424,2627191464,-15.242715835571289,-15.47657299041748,34816,-98.02936553955078
1690617,550072840,643288573,2677063343,-16.314315795898438,-15.449592590332031,34816,-98.19231414794922
1690637,551127579,642242048,3350107794,-17.56828498840332,-15.182250022888184,34816,-98.36373901367188
1690657,552159794,642239994,2609889712,-18.743513107299805,-14.600776672363281,34816,-98.48109436035156
1690677,553182800,643290629,2593178287,-19.592350006103516,-13.613438606262207,34816,-98.48165130615234
1690697,553148016,644338173,2693512118,-20.04102325439453,-12.134793281555176,34816,-98.35658264160156
1690717,548906627,644336135,2775496913,-19.922924041748047,-10.30263900756836,34816,-98.13646697998047
1690737,546744968,643289598,2507064012,-19.050334930419922,-8.276360511779785,59648,-97.83916473388672
1690757,541425276,643283454,2022302128,-17.142353057861328,-6.304440498352051,59648,-97.48345947265625
1690777,536140380,646432249,1889923223,-14.446636199951172,-4.714906692504883,34816,-97.19123077392578
1690797,533005887,645380601,1906830223,-11.56333065032959,-3.6228907108306885,59648,-97.01568603515625
1690817,529911335,648529405,2225133972,-9.169417381286621,-2.9295554161071777,59648,-96.94990539550781
1690837,534171169,645385722,2676540084,-7.631092071533203,-2.4376673698425293,34816,-96.93467712402344
1690857,536302113,646434300,2658909373,-6.8177618980407715,-1.994593858718872,59648,-96.91886901855469
1690877,536298020,642241020,2524236233,-6.183648109436035,-1.5062718391418457,34816,-96.89839172363281
1690897,535216665,648529403,2774973399,-5.270640850067139,-1.0889278650283813,34816,-96.88196563720703
1690917,532026880,646431227,2307707817,-3.820923328399658,-0.9713162183761597,59648,-96.8917465209961
1690937,528849385,642235901,2358957983,-1.8561623096466064,-1.222477674484253,34816,-96.93189239501953
1690957,526741986,642238972,2476660638,0.3762704133987427,-1.6611769199371338,9216,-96.98267364501953
1690977,528841193,647478775,2426655892,2.6288461685180664,-2.0777266025543213,34816,-97.01351928710938
1690997,526763509,649582079,2391988388,4.70957088470459,-2.3526947498321533,34816,-97.04486083984375
1691017,528884225,643288571,2608122563,6.480335712432861,-2.4115872383117676,34816,-97.07288360595703
1691037,530993671,650626550,2542064569,7.972986221313477,-2.3789186477661133,9216,-97.09142303466797
1691057,528895492,646434302,2458572979,9.397259712219238,-2.315481662750244,9216,-97.1002426147461
1691077,528887292,652724730,2442189484,10.880576133728027,-2.327284097671509,9216,-97.12332153320312
1691097,529932794,643287546,2391923883,12.44194221496582,-2.417062997817993,9216,-97.13168334960938
1691117,528888308,651675129,2408963238,13.979192733764648,-2.5880608558654785,9216,-97.13775634765625
1691137,529948145,648530429,2409028518,15.382729530334473,-2.8114418983459473,9216,-97.14390563964844
1691157,531019253,649577976,2476005289,16.524621963500977,-3.007357597351074,9216,-97.13773345947266
1691177,533138938,647479804,2525746098,17.3837947845459,-3.1576688289642334,9216,-97.12358856201172
1691197,534199805,648528380,2559299764,17.990854263305664,-3.2605531215667725,9216,-97.08926391601562
1691217,536301058,642239997,2424952759,18.480432510375977,-3.3170835971832275,9216,-97.05304718017578
1691237,538400258,649580030,2593115059,18.913860321044922,-3.314002513885498,9216,-96.97958374023438
1691257,541540870,650629632,2559757234,19.373350143432617,-3.305370330810547,9216,-96.89205932617188
1691277,541536783,649580030,2576468404,19.90717315673828,-3.237459421157837,9216,-96.76826477050781
1691297,544677406,648529408,2408763573,20.493310928344727,-2.994022846221924,9216,-96.61788940429688
1691317,543631908,643287550,2375078584,21.094892501831055,-2.6061322689056396,9216,-96.46117401123047
1691337,545733151,646434301,2525808318,21.606975555419922,-2.2130730152130127,9216,-96.29293060302734
1691357,546787861,652724730,2526135738,22.070091247558594,-1.931334137916565,9216,-96.11302947998047
1691377,545744394,650626556,2710813113,22.46660804748535,-1.8002934455871582,9216,-95.91947174072266
1691397,548888076,647481858,2711205558,22.852088928222656,-1.7617907524108887,9216,-95.70528411865234
1691417,547832343,648530437,2846469799,23.312999725341797,-1.6364669799804688,9216,-95.48526000976562
1691437,546777661,646435336,2914363803,23.871437072753906,-1.1666100025177002,9216,-95.28396606445312
1691457,545732222,652725753,2329267580,24.41796112060547,0.06065809354186058,9216,-95.12571716308594
1691477,543657659,650631685,2207569084,24.786762237548828,2.2217366695404053,9216,-94.97926330566406
1691497,547881684,650626561,2256130784,24.78001594543457,4.96207332611084,49920,-94.79367065429688
1691517,546859714,649579010,2372978148,24.40159797668457,7.6742167472839355,9216,-94.54669952392578
1691537,547913363,647478790,2541598938,23.83942222595215,9.860203742980957,9216,-94.24311828613281
1691557,547898982,647482884,2677386948,23.37041473388672,11.353606224060059,9216,-93.92842864990234
1691577,548927055,646436359,2627711163,23.15140724182129,12.370161056518555,9216,-93.65876007080078
1691597,546820682,650627587,2560472254,23.13184928894043,13.228927612304688,9216,-93.45570373535156
1691617,546822740,645386755,2476128198,23.15506935119629,14.125962257385254,9216,-93.26573944091797
1691637,547878484,643292680,2543302604,23.148481369018555,15.093616485595703,49920,-93.05354309082031
1691657,547888720,647483913,2509353678,23.02094268798828,16.028057098388672,9216,-92.80984497070312
1691677,545796677,650630662,2626792398,22.774171829223633,16.85437774658203,9216,-92.54202270507812
1691697,544742970,651680257,2744101079,22.537504196166992,17.507404327392578,49920,-92.28759002685547
1691717,542642730,649581063,2811994309,22.359783172607422,17.984172821044922,9216,-92.08027648925781
1691737,541583906,647485959,2745149639,22.273269653320312,18.31357765197754,49920,-91.92594909667969
1691757,539478560,648531466,2661330374,22.313112258911133,18.575096130371094,49920,-91.82879638671875
1691777,540522017,647489031,2560536003,22.40241241455078,18.85701560974121,9216,-91.78031921386719
1691797,539477536,652725769,2627578564,22.508777618408203,19.15035057067871,9216,-91.72752380371094
1691817,540532254,646433291,2628233403,22.54831314086914,19.4052791595459,9216,-91.6507797241211
1691837,540550686,649583111,2963511494,22.457969665527344,19.600341796875,49920,-91.50517272949219
1691857,541610534,650631686,2795676104,22.137035369873047,19.829994201660156,49920,-91.28215789794922
1691877,540566063,652729867,2661459913,21.73929214477539,20.15679168701172,49920,-91.02479553222656
1691897,539521589,646437384,2746528200,21.311906814575195,20.599748611450195,40448,-90.76190185546875
1691917,537440827,653780488,2864691661,20.750823974609375,21.12286376953125,30720,-90.46859741210938
1691937,536420931,654828041,2847521237,19.896656036376953,21.711441040039062,30720,-90.07717895507812
1691957,533313090,659019270,2278939066,18.631546020507812,22.296411514282227,30720,-89.51629638671875
1691977,529151553,656928264,3098455272,16.91083335876465,22.845441818237305,5632,-88.80046844482422
1691997,524980795,657974795,3384192759,14.8389253616333,23.32242774963379,36352,-87.96475219726562
1692017,523930172,664263182,3333992445,12.60533332824707,23.787555694580078,8192,-87.10858154296875
1692037,518676026,664269318,3266884350,10.455679893493652,24.247333526611328,8192,-86.31752014160156
1692057,514461240,673705484,3216880891,8.493134498596191,24.72719383239746,8192,-85.6739501953125
1692077,510242355,668460562,3200431605,6.815342426300049,25.22697639465332,8192,-85.21538543701172
1692097,502876708,669511189,3234707176,5.4632792472839355,25.636430740356445,8192,-84.96875762939453
1692117,500755994,666366486,3218192611,4.407729148864746,25.878469467163086,8192,-84.92831420898438
1692137,497596944,668469773,3251878111,3.558224678039551,25.979299545288086,8192,-85.0323715209961
1692157,498637328,672656908,3268589280,2.8293867111206055,26.02529525756836,8192,-85.21102142333984
1692177,496539154,667418125,3368596456,2.1607186794281006,26.083606719970703,8192,-85.43373107910156
1692197,496537111,667422211,3351819751,1.4936020374298096,26.210092544555664,8192,-85.67596435546875
1692217,495490582,670559763,3469193446,0.830441415309906,26.355628967285156,8192,-85.92391967773438
1692237,496533008,667423251,3452613346,0.19323758780956268,26.448348999023438,8192,-86.19300842285156
1692257,496518669,670563848,3453007067,-0.30530378222465515,26.46741485595703,8192,-86.5147933959961
1692277,496507404,670568970,3385702875,-0.6319088935852051,26.458223342895508,8192,-86.91365051269531
1692297,496503307,671616533,3469653720,-0.8521081805229187,26.462800979614258,8192,-87.36410522460938
1692317,496497162,666373640,3470113231,-1.03791344165802,26.4458065032959,8192,-87.84280395507812
1692337,497544719,662178317,3570316755,-1.1527099609375,26.45233917236328,8192,-88.33587646484375
1692357,499641871,667425292,3519920851,-1.2712361812591553,26.489059448242188,8192,-88.82196044921875
1692377,499643919,663230981,3620386515,-1.3602970838546753,26.52726936340332,8192,-89.29190063476562
1692397,501735952,663234068,3486629836,-1.4827444553375244,26.59036636352539,8192,-89.74320220947266
1692417,499637772,663232011,3654334920,-1.5376850366592407,26.651103973388672,8192,-90.21674346923828
1692437,501729806,672670229,3536830920,-1.5693132877349854,26.664949417114258,8192,-90.70674896240234
1692457,502777359,657992198,3603677386,-1.5356537103652954,26.679655075073242,8192,-91.21179962158203
1692477,501727760,662189587,3620324040,-1.4821470975875854,26.729646682739258,8192,-91.71678924560547
1692497,500678162,653796870,3620258499,-1.4239263534545898,26.81641387939453,36352,-92.23583221435547
1692517,501725716,660096531,3552887744,-1.3565471172332764,26.913299560546875,61440,-92.757080078125
1692537,501724693,656941578,3569665469,-1.2562568187713623,27.041234970092773,61440,-93.27987670898438
1692557,502774292,659043856,3418934193,-1.1833200454711914,27.15958595275879,21248,-93.8014144897461
1692577,504880662,649603591,3368998318,-1.146761178970337,27.285593032836914,61440,-94.29342651367188
1692597,502815251,660093449,3486044594,-1.3710603713989258,27.410974502563477,61440,-94.64997100830078
1692617,500759061,650654219,3352024998,-2.064908266067505,27.54580307006836,21248,-94.78120422363281
1692637,499738134,644363797,3017665429,-3.180067300796509,27.698314666748047,21248,-94.71929931640625
1692657,494513682,651701762,3703425719,-4.573662757873535,27.843673706054688,61440,-94.53468322753906
1692677,492425747,649608720,3686581684,-6.154389381408691,27.976303100585938,21248,-94.30252838134766
1692697,490334737,650657291,3552431538,-7.830316066741943,28.10264015197754,21248,-94.0472640991211
1692717,487195140,652752397,3669344948,-9.552579879760742,28.16415786743164,46336,-93.78881072998047
1692737,484053494,652753418,2696147371,-11.37836742401123,28.03331756591797,30720,-93.54469299316406
1692757,481955299,646460938,3602431398,-13.200384140014648,27.68389320373535,30720,-93.33565521240234
1692777,479856078,646468118,2711668628,-15.049505233764648,27.014814376831055,34816,-93.18348693847656
1692797,477760953,642270726,3231951248,-16.84494400024414,26.086769104003906,34816,-93.0769271850586
1692817,480900514,633883143,3197805718,-18.621932983398438,24.819721221923828,59648,-93.01731872558594
1692837,482985349,640172558,2810755753,-20.28653907775879,23.19187355041504,59648,-93.01990509033203
1692857,487160172,632837652,3300039298,-21.693092346191406,21.176916122436523,59648,-93.13313293457031
1692877,491336036,633887245,3334051708,-22.817279815673828,18.912981033325195,59648,-93.34407043457031
1692897,494469482,637032964,3350828668,-23.716516494750977,16.593582153320312,59648,-93.63567352294922
1692917,500750719,631789058,3233323647,-24.422574996948242,14.478458404541016,59648,-93.95198822021484
1692937,505992602,641221122,3216284293,-25.06535530090332,12.722911834716797,59648,-94.23680877685547
1692957,510187958,644369931,3098386318,-25.686508178710938,11.370670318603516,59648,-94.47406005859375
1692977,515429831,641232396,3098320273,-26.271120071411133,10.40086841583252,59648,-94.64463806152344
1692997,518573521,649613825,2710811563,-26.831552505493164,9.666863441467285,59648,-94.77457427978516
1693017,522761681,642274814,3098515856,-27.317291259765625,9.012516021728516,59648,-94.86805725097656
1693037,525898184,638081536,3115947912,-27.685325622558594,8.291635513305664,59648,-94.93175506591797
1693057,529036733,635988477,3183382917,-27.935382843017578,7.441126823425293,59648,-94.96646118164062
1693077,531128766,644371971,3099498118,-28.10451889038086,6.525784969329834,59648,-94.9759750366211
1693097,534273475,651707903,3015612808,-28.207988739013672,5.667068958282471,59648,-94.96780395507812
1693117,536371658,646468093,3082392462,-28.317819595336914,4.94301700592041,59648,-94.91468811035156
1693137,539520456,638082563,3116076688,-28.464458465576172,4.294824600219727,59648,-94.81832885742188
1693157,541619657,644372998,3065941902,-28.631032943725586,3.6297402381896973,59648,-94.6996841430664
1693177,542665164,644371972,3032977543,-28.791536331176758,3.0200178623199463,59648,-94.55225372314453
1693197,543705558,641227262,2915603847,-28.88499641418457,2.50337815284729,59648,-94.38683319091797
1693217,544751069,648567288,2881918347,-28.9415225982666,2.1240291595458984,59648,-94.2060775756836
1693237,545800674,648567291,2881852303,-28.96543312072754,1.8303442001342773,59648,-94.00979614257812
1693257,548947430,643318275,2865271183,-28.997257232666016,1.6098785400390625,59648,-93.79138946533203
1693277,547897835,635979266,2865402253,-29.014711380004883,1.464608073234558,59648,-93.55941772460938
1693297,548943343,637038074,2596314777,-28.99898338317871,1.4121588468551636,59648,-93.31341552734375
1693317,546852313,634936832,2528879262,-29.046142578125,1.2539584636688232,59648,-93.07298278808594
1693337,545803699,641228285,2629933978,-29.131752014160156,0.6842924356460571,59648,-92.8581314086914
1693357,544754048,640173567,2525536467,-29.210906982421875,-0.5389589071273804,59648,-92.65744018554688
1693377,545792333,644367865,3084287623,-29.21975326538086,-2.497572183609009,59648,-92.47114562988281
1693397,546814249,656952821,3034611583,-28.98968505859375,-5.054357528686523,59648,-92.2491683959961
1693417,547830044,650659327,2901509232,-28.36632537841797,-7.935882568359375,59648,-91.95368957519531
1693437,547795234,650659322,2700250737,-27.27113914489746,-10.771154403686523,59648,-91.50900268554688
1693457,544620845,650664444,2566362222,-25.79353141784668,-13.417323112487793,59648,-90.94601440429688
1693477,540397891,655903225,2483001447,-23.96053695678711,-15.75647258758545,59648,-90.26189422607422
1693497,531987802,659045885,2398919013,-21.814321517944336,-17.79437828063965,19200,-89.52565002441406
1693517,521487726,656949755,2228909653,-19.420429229736328,-19.49080467224121,48384,-88.74337768554688
1693537,509934984,656947706,1657237564,-16.820755004882812,-20.916738510131836,38400,-88.0016860961914
1693557,497343901,653800955,1522627637,-13.992101669311523,-22.044879913330078,57856,-87.29273223876953
1693577,487917990,643315191,1472296240,-11.153388977050781,-23.0161190032959,36352,-86.69480895996094
1693597,479565228,646456821,1906727749,-8.606328010559082,-23.957422256469727,14336,-86.31974792480469
1693617,477512113,639116792,2659004012,-6.5621562004089355,-24.839780807495117,57856,-86.20922088623047
1693637,479644085,646454770,2007127110,-5.053251266479492,-25.730623245239258,11776,-86.3408432006836
1693657,481749432,631775734,2057588549,-3.84668231010437,-26.57196807861328,11264,-86.55097198486328
1693677,485927363,635969018,1973834822,-2.5881927013397217,-27.261825561523438,57856,-86.67362976074219
1693697,489050574,643309048,1806392388,-1.1317307949066162,-27.789939880371094,57856,-86.63175201416016
1693717,491137499,642260470,1805735759,0.5127466320991516,-28.15869140625,15360,-86.43415069580078
1693737,491138531,633870839,2106803295,2.2057974338531494,-28.360841751098633,14848,-86.18187713623047
1693757,491141602,638062072,1873171023,3.897845506668091,-28.511751174926758,57856,-85.93125915527344
1693777,490103272,629674488,2056931163,5.485454082489014,-28.688535690307617,57856,-85.74073028564453
1693797,489069037,621284857,2359178072,6.86652946472168,-28.742544174194336,57856,-85.67668914794922
1693817,488036862,624433662,2458661742,8.079177856445312,-28.651123046875,8192,-85.7117919921875
1693837,488044049,631770616,2525640053,9.174917221069336,-28.264453887939453,22528,-85.84147644042969
1693857,485939760,626529787,2055820148,10.223671913146973,-27.545623779296875,22528,-86.00064086914062
1693877,485910090,631771642,1536062319,11.532185554504395,-26.395618438720703,22528,-86.08816528320312
1693897,490037869,629672444,833402996,13.377111434936523,-24.947492599487305,57600,-85.90480041503906
1693917,495228544,627576315,734977150,16.050830841064453,-23.164249420166016,13568,-85.31610870361328
1693937,497337955,634916344,1054460286,18.96720314025879,-21.49252700805664,54016,-84.63785552978516
1693957,494268950,631768571,516091546,21.254894256591797,-20.583894729614258,28928,-84.29443359375
1693977,489138629,634913275,2430566777,22.326251983642578,-20.49423599243164,28928,-84.54328918457031
1693997,490285408,635961848,3403892075,21.954927444458008,-21.563337326049805,54016,-85.41473388671875
1694017,494543145,645400061,3721870456,20.5560245513916,-23.697662353515625,28928,-86.72945404052734
1694037,495589652,646446593,3454489696,18.776235580444336,-26.175329208374023,28928,-88.25926208496094
1694057,498626871,651692541,2684322093,17.79724884033203,-28.761978149414062,54016,-89.42576599121094
1694077,499558792,664278521,2164236590,18.282638549804688,-30.765148162841797,54016,-89.74976348876953
