Timestamp,compactImu.a_xyz,compactImu.l_xyz,motorCompact.pwms,stabilizer.pitch,stabilizer.roll,stabilizer.thrust,stabilizer.yaw
27365,536346111,642252288,0,0.5580736994743347,-0.23325811326503754,0,-0.024253059178590775
27368,536346111,642252288,0,0.5578012466430664,-0.23383881151676178,0,-0.023974942043423653
27372,536346111,642252288,0,0.5577609539031982,-0.23415157198905945,0,-0.023730741813778877
27376,536346111,641203712,0,0.5577924847602844,-0.23407340049743652,0,-0.023576311767101288
27380,536346111,641203712,0,0.5576355457305908,-0.23406948149204254,0,-0.023205211386084557
27384,536346111,641203712,0,0.5574904084205627,-0.2336515635251999,0,-0.023308197036385536
27388,536346111,641203712,0,0.5574470162391663,-0.2333696335554123,0,-0.023487189784646034
27392,536346111,641203712,0,0.557582676410675,-0.23310481011867523,0,-0.023362433537840843
27396,536346111,641203712,0,0.5578024387359619,-0.2328089475631714,0,-0.023384489119052887
27400,536346111,641203712,0,0.5578306913375854,-0.23297318816184998,0,-0.02341126650571823
27404,536346111,641203712,0,0.5578516125679016,-0.23343521356582642,0,-0.023681579157710075
27408,536346111,641203712,0,0.5580323338508606,-0.23333041369915009,0,-0.023992760106921196
27412,536346111,642252288,0,0.5578212141990662,-0.23339542746543884,0,-0.024047693237662315
27416,536346111,641203712,0,0.557300329208374,-0.23332291841506958,0,-0.023935647681355476
27420,536346111,641203712,0,0.5569036602973938,-0.23269371688365936,0,-0.02386578358709812
27424,536346111,641203712,0,0.5568840503692627,-0.23232458531856537,0,-0.024106580764055252
27428,536346111,641203712,0,0.5568475723266602,-0.23233450949192047,0,-0.02448226511478424
27432,536346111,641203712,0,0.5565093159675598,-0.23266659677028656,0,-0.024666227400302887
27436,536346111,641203712,0,0.5563828945159912,-0.23254509270191193,0,-0.024238040670752525
27440,536346111,641203712,0,0.5562853217124939,-0.23225048184394836,0,-0.024224650114774704
27444,536346111,642252288,0,0.5559070110321045,-0.2323889285326004,0,-0.024238504469394684
27448,536346111,641203712,0,0.5554937720298767,-0.23267224431037903,0,-0.024196868762373924
27452,536346111,641203712,0,0.5553457140922546,-0.23274792730808258,0,-0.02447580173611641
27456,536346111,641203712,0,0.5551660060882568,-0.23249463737010956,0,-0.02496439218521118
27460,536346111,641203712,0,0.5551664233207703,-0.23232401907444,0,-0.025074845179915428
27464,536346111,642252288,0,0.5549536347389221,-0.2323267161846161,0,-0.024812567979097366
27468,536346111,642252288,0,0.5547031760215759,-0.23229144513607025,0,-0.024517444893717766
27472,536346111,641203712,0,0.5546959042549133,-0.23210085928440094,0,-0.024423843249678612
27476,536346111,641203712,0,0.5546214580535889,-0.23204641044139862,0,-0.024401478469371796
27480,536346111,641203712,0,0.554558277130127,-0.2318667471408844,0,-0.02434457279741764
27484,536346111,642252288,0,0.554434061050415,-0.23174764215946198,0,-0.024064332246780396
27488,536346111,641202688,0,0.554443359375,-0.23179928958415985,0,-0.02394442819058895
27492,536346111,641202688,0,0.5540255308151245,-0.2320575714111328,0,-0.02372763864696026
27496,536346111,641202688,0,0.5533303022384644,-0.2323405146598816,0,-0.023576105013489723
27500,536346111,641202688,0,0.5529278516769409,-0.23241117596626282,0,-0.02371108904480934
27503,536346111,641202688,0,0.5530449748039246,-0.23237033188343048,0,-0.023356998339295387
27507,536346111,641203712,0,0.5530181527137756,-0.23235014081001282,0,-0.022929148748517036
27510,536346111,641203712,0,0.5527740120887756,-0.23246607184410095,0,-0.02284941077232361
27514,536346110,641203712,0,0.5524718165397644,-0.23303371667861938,0,-0.02279621548950672
27518,536346110,641203712,0,0.5522014498710632,-0.23375718295574188,0,-0.022620873525738716
27522,536345087,641203712,0,0.5530765056610107,-0.23301565647125244,0,-0.022290891036391258
27527,535297535,642252288,0,0.5532475709915161,-0.23219206929206848,0,-0.02276674658060074
27531,536346111,642251264,0,0.5526917576789856,-0.2321651577949524,0,-0.023303281515836716
27535,536346111,641203712,0,0.5519617795944214,-0.23286138474941254,0,-0.0230473130941391
27541,535296511,642252288,0,0.5525404810905457,-0.23163765668869019,0,-0.023262163624167442
27545,536346111,642252288,0,0.5527250170707703,-0.23052504658699036,0,-0.024478662759065628
27549,536346110,642251264,0,0.5519988536834717,-0.23087647557258606,0,-0.024128088727593422
27552,536345087,642252288,0,0.5521022081375122,-0.23186463117599487,0,-0.02280263602733612
27556,535296511,641203712,0,0.5531503558158875,-0.2310088872909546,0,-0.022780267521739006
27561,536346111,641203712,0,0.5532128810882568,-0.23031318187713623,0,-0.023452909663319588
27564,536346110,641203712,0,0.5528161525726318,-0.23076337575912476,0,-0.022697754204273224
27568,536345087,641203712,0,0.5527406930923462,-0.23099356889724731,0,-0.021969711408019066
27572,536345087,641203712,0,0.5536066293716431,-0.2301761358976364,0,-0.021863657981157303
27576,536346111,641203712,0,0.5539700388908386,-0.22954188287258148,0,-0.021659813821315765
27580,536346111,641203712,0,0.553438127040863,-0.2299983650445938,0,-0.021109776571393013
27584,536346111,641202688,0,0.5526304841041565,-0.23035946488380432,0,-0.02102608233690262
27587,536346111,641202688,0,0.5526328682899475,-0.230171337723732,0,-0.020974092185497284
27591,536346111,641203712,0,0.5528940558433533,-0.23052343726158142,0,-0.020326633006334305
27595,536346111,641203712,0,0.5530848503112793,-0.23020385205745697,0,-0.01980692707002163
27599,535297535,641203712,0,0.5534099340438843,-0.2295924574136734,0,-0.02053842321038246
27603,536346111,641202688,0,0.553684651851654,-0.22948412597179413,0,-0.02074774168431759
27607,536346111,641203712,0,0.5538660287857056,-0.22952736914157867,0,-0.020187711343169212
27611,536346111,642252288,0,0.5538984537124634,-0.22967593371868134,0,-0.020003831014037132
27615,536346111,642252288,0,0.5543435215950012,-0.22967784106731415,0,-0.020020943135023117
27619,536346111,642252288,0,0.5544365048408508,-0.22972209751605988,0,-0.020104587078094482
27623,536346111,642252288,0,0.5543511509895325,-0.22972415387630463,0,-0.019949736073613167
27627,536346111,642251264,0,0.5541849732398987,-0.2298400104045868,0,-0.020050399005413055
27637,536346111,641203712,0,0.5541215538978577,-0.2311278134584427,0,-0.020179331302642822
27641,536346111,641203712,0,0.5544886589050293,-0.23127980530261993,0,-0.020415185019373894
27645,536346111,642252288,0,0.5544444918632507,-0.23125700652599335,0,-0.02056317962706089
27648,536346111,642252288,0,0.5541938543319702,-0.23130087554454803,0,-0.02038981392979622
27651,536346111,641203712,0,0.5538841485977173,-0.23122158646583557,0,-0.02030915953218937
27656,536346111,641202688,0,0.5536863207817078,-0.2310551553964615,0,-0.020476067438721657
27663,536346111,641203712,0,0.5530985593795776,-0.2302018105983734,0,-0.02106248401105404
27665,536346111,641203712,0,0.5530985593795776,-0.2302018105983734,0,-0.02106248401105404
27668,536346111,641202688,0,0.5524749755859375,-0.23034849762916565,0,-0.02140890434384346
27672,536346110,641202688,0,0.5516298413276672,-0.23088578879833221,0,-0.021327940747141838
27676,536346111,641203712,0,0.551401674747467,-0.23132741451263428,0,-0.021083565428853035
27679,535297535,641203712,0,0.5516351461410522,-0.23080694675445557,0,-0.021484151482582092
27683,536346111,641203712,0,0.551731526851654,-0.23027737438678741,0,-0.02169470302760601
27686,536346111,641202688,0,0.5513719916343689,-0.2307274490594864,0,-0.02122126892209053
27689,536346111,641203712,0,0.5513719916343689,-0.2307274490594864,0,-0.02122126892209053
27693,536346111,641203712,0,0.5510028004646301,-0.23095358908176422,0,-0.021100008860230446
27698,536346111,641203712,0,0.5523499846458435,-0.2299538254737854,0,-0.02159251645207405
27701,536346111,642252288,0,0.5523499846458435,-0.2299538254737854,0,-0.02159251645207405
27705,536346110,642252288,0,0.552062451839447,-0.230192169547081,0,-0.021466396749019623
27708,536346111,641203712,0,0.5514493584632874,-0.23073744773864746,0,-0.02124040015041828
27712,536346111,641203712,0,0.5510486960411072,-0.2312219738960266,0,-0.0207036305218935
27716,536345087,641203712,0,0.5516260862350464,-0.23083557188510895,0,-0.020334087312221527
27720,536346111,641203712,0,0.5518714189529419,-0.23007072508335114,0,-0.02046601101756096
27723,536346111,642252288,0,0.5515176653862,-0.2298995554447174,0,-0.02074880711734295
27728,536346111,642252288,0,0.5504840612411499,-0.2304185926914215,0,-0.020582620054483414
27732,536346111,641203712,0,0.5496637225151062,-0.23048250377178192,0,-0.02043028362095356
27736,535296511,641203712,0,0.5504856705665588,-0.22988082468509674,0,-0.020872870460152626
27740,536345087,641203712,0,0.5515894889831543,-0.22934195399284363,0,-0.021426940336823463
27743,536346111,641203712,0,0.5515096187591553,-0.22960230708122253,0,-0.02160835638642311
27748,536346111,641202688,0,0.5508915185928345,-0.23025666177272797,0,-0.02137858420610428
27752,536346111,641202688,0,0.5508320331573486,-0.23068712651729584,0,-0.021350404247641563
27756,536346111,641202688,0,0.551433801651001,-0.23051545023918152,0,-0.021573735401034355
27760,536346111,642251264,0,0.5516989231109619,-0.23008142411708832,0,-0.02207467332482338
27763,536346110,642251264,0,0.5513798594474792,-0.2307731956243515,0,-0.022130444645881653
27767,536346111,641202688,0,0.5512582659721375,-0.23144280910491943,0,-0.02207367494702339
27769,536346111,641202688,0,0.5512582659721375,-0.23144280910491943,0,-0.02207367494702339
27772,536346111,641202688,0,0.5513916611671448,-0.23140951991081238,0,-0.021929284557700157
27776,536346111,642252288,0,0.5515798926353455,-0.23056183755397797,0,-0.021976172924041748
27781,536346111,642252288,0,0.5518795251846313,-0.22970737516880035,0,-0.022068554535508156
27784,536346111,642252288,0,0.5515162348747253,-0.22943787276744843,0,-0.022025538608431816
27788,536346111,642252288,0,0.5513052344322205,-0.22911269962787628,0,-0.02183353900909424
27792,536346111,642252288,0,0.5514150857925415,-0.2287241816520691,0,-0.021835021674633026
27795,536346111,642252288,0,0.5516889095306396,-0.22862164676189423,0,-0.022019561380147934
27798,536346111,642252288,0,0.5521263480186462,-0.2288949191570282,0,-0.022482508793473244
27802,536346110,641203712,0,0.5522447228431702,-0.22946858406066895,0,-0.022599125280976295
27806,536346111,641203712,0,0.5526001453399658,-0.22978542745113373,0,-0.02233433537185192
27810,536346111,641203712,0,0.553033709526062,-0.23006239533424377,0,-0.02207234315574169
27813,536346111,641203712,0,0.553033709526062,-0.23006239533424377,0,-0.02207234315574169
27817,536346111,641203712,0,0.5531851649284363,-0.23045046627521515,0,-0.021863633766770363
27820,536346111,641203712,0,0.5530201196670532,-0.230272114276886,0,-0.021785004064440727
27823,536346111,641203712,0,0.5527257919311523,-0.2299741953611374,0,-0.021762961521744728
27827,536346111,641203712,0,0.5525012016296387,-0.23050457239151,0,-0.021749261766672134
27830,536346111,641203712,0,0.5522119998931885,-0.23091772198677063,0,-0.022035514935851097
27832,536346111,641203712,0,0.5522119998931885,-0.23091772198677063,0,-0.022035514935851097
27836,536346111,641203712,0,0.5520204901695251,-0.23081184923648834,0,-0.022302523255348206
27840,536346111,641203712,0,0.551987886428833,-0.23082566261291504,0,-0.022000012919306755
27843,536346111,641203712,0,0.5518810749053955,-0.2307901680469513,0,-0.021273542195558548
27847,536346111,641203712,0,0.5518283247947693,-0.23076292872428894,0,-0.021226925775408745
27850,536346111,641203712,0,0.5520054697990417,-0.23104074597358704,0,-0.021320389583706856
27854,536346111,641203712,0,0.5522838234901428,-0.2305443435907364,0,-0.02135920152068138
27858,536346111,641203712,0,0.5526391267776489,-0.22977077960968018,0,-0.02150573395192623
27862,536346111,641203712,0,0.5525661110877991,-0.22924748063087463,0,-0.021245701238512993
27866,536346111,641203712,0,0.5520610213279724,-0.22938454151153564,0,-0.020543372258543968
27870,536346110,641203712,0,0.5518750548362732,-0.23020605742931366,0,-0.0200920719653368
27873,536346111,641202688,0,0.5518750548362732,-0.23020605742931366,0,-0.0200920719653368
27877,536345087,641202688,0,0.5521633625030518,-0.2303965836763382,0,-0.020009882748126984
27880,536346111,641203712,0,0.5531511306762695,-0.23004364967346191,0,-0.019651442766189575
27883,536346111,641203712,0,0.5534696578979492,-0.23016421496868134,0,-0.019632922485470772
27888,536346111,641203712,0,0.5534349083900452,-0.23070184886455536,0,-0.019540395587682724
27892,536346111,641203712,0,0.553123950958252,-0.2309713065624237,0,-0.019208846613764763
27896,536346111,641202688,0,0.5530184507369995,-0.23021432757377625,0,-0.019046498462557793
27900,536346111,641202688,0,0.5534573197364807,-0.22992032766342163,0,-0.019134866073727608
27903,536346110,641202688,0,0.5535809397697449,-0.23052218556404114,0,-0.018834177404642105
27907,536346111,641202688,0,0.5531294941902161,-0.23128411173820496,0,-0.018344232812523842
27910,536346111,641203712,0,0.5526977777481079,-0.23148316144943237,0,-0.01814485713839531
27914,536346111,641203712,0,0.5527592897415161,-0.231405571103096,0,-0.017996175214648247
27917,536346111,641203712,0,0.5527592897415161,-0.231405571103096,0,-0.017996175214648247
27921,536346111,641203712,0,0.5530428886413574,-0.23081044852733612,0,-0.01798352226614952
27925,536346111,641203712,0,0.5529941320419312,-0.23042608797550201,0,-0.018205460160970688
27929,536346111,641203712,0,0.5526894927024841,-0.23057295382022858,0,-0.018447687849402428
27932,536346111,641203712,0,0.5528048276901245,-0.23076586425304413,0,-0.018785716965794563
27936,536346111,641203712,0,0.5533827543258667,-0.23023897409439087,0,-0.018968848511576653
27940,536346111,641203712,0,0.553580641746521,-0.22928538918495178,0,-0.018770897760987282
27944,536346111,641203712,0,0.5534655451774597,-0.2290392816066742,0,-0.018680492416024208
27947,536346111,641203712,0,0.5529998540878296,-0.22950269281864166,0,-0.01869622990489006
27950,536346111,641203712,0,0.5527973771095276,-0.22949323058128357,0,-0.018639734014868736
27954,536346111,641203712,0,0.5528135299682617,-0.2294110804796219,0,-0.018966855481266975
27957,536346111,641203712,0,0.5528135299682617,-0.2294110804796219,0,-0.018966855481266975
27960,536346111,641203712,0,0.552872359752655,-0.22901879251003265,0,-0.019277432933449745
27963,536346111,641203712,0,0.5528306365013123,-0.22864952683448792,0,-0.01934768073260784
27967,536346111,641203712,0,0.5523629188537598,-0.22871005535125732,0,-0.019275015220046043
27971,535297535,641202688,0,0.552481472492218,-0.22875191271305084,0,-0.019667603075504303
27975,536346111,641202688,0,0.5527439117431641,-0.22828133404254913,0,-0.020180920138955116
27979,536346111,641202688,0,0.552923321723938,-0.22817686200141907,0,-0.020011823624372482
27982,536346111,641202688,0,0.5527806878089905,-0.2282269448041916,0,-0.019542256370186806
27986,536346111,641203712,0,0.5529526472091675,-0.2280418872833252,0,-0.019280577078461647
27990,536346111,641203712,0,0.5532820820808411,-0.2281470149755478,0,-0.019812675192952156
27994,535297535,641203712,0,0.5535883903503418,-0.22777226567268372,0,-0.02075408585369587
27997,536346111,641203712,0,0.5535883903503418,-0.22777226567268372,0,-0.02075408585369587
28000,536346111,641203712,0,0.554139256477356,-0.2273864895105362,0,-0.020866915583610535
28004,536346111,641203712,0,0.5541587471961975,-0.22706641256809235,0,-0.02080223150551319
28007,536346110,641203712,0,0.5540117025375366,-0.22753237187862396,0,-0.020250407978892326
28010,536346111,641203712,0,0.5542249083518982,-0.22788013517856598,0,-0.01986757107079029
28013,536346111,641203712,0,0.5542249083518982,-0.22788013517856598,0,-0.01986757107079029
28017,536346111,641203712,0,0.5544676184654236,-0.22702588140964508,0,-0.019958090037107468
28021,536346111,641203712,0,0.5541474223136902,-0.2270621955394745,0,-0.02018675208091736
28025,536346110,641203712,0,0.553695797920227,-0.22753743827342987,0,-0.01981872133910656
28029,536346111,641203712,0,0.5538188815116882,-0.22822023928165436,0,-0.019491560757160187
28032,536346111,641203712,0,0.5539469718933105,-0.22845558822155,0,-0.01941794902086258
28036,536346111,641203712,0,0.5538660287857056,-0.22821059823036194,0,-0.019580751657485962
28040,536346111,641203712,0,0.5539711117744446,-0.22831371426582336,0,-0.019372329115867615
28044,536346111,641203712,0,0.5534889698028564,-0.2284373939037323,0,-0.019152749329805374
28047,536346111,641203712,0,0.5529757738113403,-0.2281486541032791,0,-0.018993787467479706
28051,536346111,641203712,0,0.552720308303833,-0.22843295335769653,0,-0.01904354803264141
28054,536346111,641202688,0,0.5529187321662903,-0.22862651944160461,0,-0.01914796605706215
28057,536346111,641202688,0,0.5529187321662903,-0.22862651944160461,0,-0.01914796605706215
28060,536346111,641202688,0,0.55279940366745,-0.22840958833694458,0,-0.019456055015325546
28063,536346111,641203712,0,0.5524563193321228,-0.22822622954845428,0,-0.020055104047060013
28067,536346111,641203712,0,0.5524067878723145,-0.22822518646717072,0,-0.02005765214562416
28071,536346111,641203712,0,0.5522885918617249,-0.2283039093017578,0,-0.019837552681565285
28075,536346111,641203712,0,0.5523056387901306,-0.2282968908548355,0,-0.020137211307883263
28079,536346111,642252288,0,0.5520018339157104,-0.22832587361335754,0,-0.02022143080830574
28083,536346111,641203712,0,0.5518787503242493,-0.22858086228370667,0,-0.019909977912902832
28087,536346110,641203712,0,0.5516980290412903,-0.22923743724822998,0,-0.020100681111216545
28090,536346111,641203712,0,0.5513172745704651,-0.2297162115573883,0,-0.020287470892071724
28094,536346111,641203712,0,0.5514258742332458,-0.22932511568069458,0,-0.02042394131422043
28097,536346111,641203712,0,0.5514258742332458,-0.22932511568069458,0,-0.02042394131422043
28100,536346111,641203712,0,0.5516705513000488,-0.22876375913619995,0,-0.020065750926733017
28104,536346111,641203712,0,0.5517873167991638,-0.22849944233894348,0,-0.019840789958834648
28107,536346110,641203712,0,0.5513015985488892,-0.22913368046283722,0,-0.019850166514515877
28111,535297535,641203712,0,0.5512716770172119,-0.22951413691043854,0,-0.02032475173473358
28115,536346111,641203712,0,0.5513355731964111,-0.22914454340934753,0,-0.020972823724150658
28119,536346111,642252288,0,0.5514031052589417,-0.22870901226997375,0,-0.021243765950202942
28123,536346111,642251264,0,0.5512240529060364,-0.22911179065704346,0,-0.021017827093601227
28126,536346110,641202688,0,0.5507436394691467,-0.2298005074262619,0,-0.020840337499976158
28130,536346111,641203712,0,0.550667941570282,-0.230083167552948,0,-0.021155083552002907
28134,536346111,641203712,0,0.5512276291847229,-0.2298433482646942,0,-0.02122434228658676
28138,536346111,641203712,0,0.5517281889915466,-0.22992826998233795,0,-0.02060186304152012
28141,536346111,641203712,0,0.5517281889915466,-0.22992826998233795,0,-0.02060186304152012
28144,536346111,641203712,0,0.5519562363624573,-0.23026655614376068,0,-0.01996086910367012
28147,536346111,641203712,0,0.5523086190223694,-0.2304752767086029,0,-0.019787274301052094
28151,536346111,641203712,0,0.5527217984199524,-0.23083367943763733,0,-0.01986224390566349
28154,536346111,641203712,0,0.5527113676071167,-0.23074959218502045,0,-0.02000570483505726
28158,536346111,642252288,0,0.5526041984558105,-0.23056218028068542,0,-0.02050933614373207
28161,536346111,642252288,0,0.5526041984558105,-0.23056218028068542,0,-0.02050933614373207
28165,536346111,641203712,0,0.5524379014968872,-0.23073862493038177,0,-0.02098671905696392
28169,536346111,641202688,0,0.55275958776474,-0.23112112283706665,0,-0.021312568336725235
28173,536346111,641202688,0,0.5531700253486633,-0.23153258860111237,0,-0.0213374812155962
28176,535297535,641202688,0,0.553386926651001,-0.23154735565185547,0,-0.021750954911112785
28180,536346111,641203712,0,0.5536041855812073,-0.2316989302635193,0,-0.022356897592544556
28183,536346111,641203712,0,0.553335964679718,-0.23181301355361938,0,-0.02230292372405529
28186,536346111,641203712,0,0.5531357526779175,-0.23135043680667877,0,-0.022112520411610603
28190,535297535,641203712,0,0.5529182553291321,-0.23071998357772827,0,-0.02268412709236145
28194,536346111,641203712,0,0.5531973242759705,-0.23089256882667542,0,-0.022788072004914284
28197,536346110,641203712,0,0.5531973242759705,-0.23089256882667542,0,-0.022788072004914284
28201,536346111,641203712,0,0.5533729791641235,-0.23146946728229523,0,-0.02247793786227703
28205,536346111,641203712,0,0.5534670352935791,-0.23173707723617554,0,-0.022507838904857635
28209,536346111,641203712,0,0.5536695122718811,-0.2316911667585373,0,-0.022908417508006096
28212,536346111,641203712,0,0.554042637348175,-0.23130056262016296,0,-0.023112529888749123
28215,536346111,641203712,0,0.5541175007820129,-0.23136267066001892,0,-0.02369719371199608
28219,536346111,641203712,0,0.5540615320205688,-0.23186154663562775,0,-0.0240246020257473
28223,536346111,641203712,0,0.5540245771408081,-0.2318999469280243,0,-0.023948781192302704
28226,536346111,641203712,0,0.5538701415061951,-0.2318110167980194,0,-0.024045903235673904
28230,536346111,641203712,0,0.5540976524353027,-0.23165860772132874,0,-0.02415618486702442
28234,536346111,641203712,0,0.554263710975647,-0.23140399158000946,0,-0.023829886689782143
28237,536346111,641202688,0,0.554263710975647,-0.23140399158000946,0,-0.023829886689782143
28241,536346111,641202688,0,0.5543171763420105,-0.2311839461326599,0,-0.023789502680301666
28245,535297535,641202688,0,0.5541878938674927,-0.23121392726898193,0,-0.024466177448630333
28249,536346111,641203712,0,0.554338276386261,-0.2315564751625061,0,-0.025109656155109406
28253,536346111,641203712,0,0.5545632243156433,-0.23206479847431183,0,-0.025290803983807564
28257,536345087,641202688,0,0.5549869537353516,-0.2320539653301239,0,-0.02545146644115448
28260,536346111,641202688,0,0.5556217432022095,-0.23201778531074524,0,-0.025469917804002762
28264,536346111,641203712,0,0.556002140045166,-0.2317706197500229,0,-0.02575145661830902
28268,536346111,641203712,0,0.5558843612670898,-0.23134960234165192,0,-0.02577861398458481
28272,536346110,641203712,0,0.5554021596908569,-0.23172906041145325,0,-0.02592388354241848
28276,536346111,641203712,0,0.5553219318389893,-0.23217307031154633,0,-0.02588885836303234
28280,536346111,641203712,0,0.5556909441947937,-0.23229116201400757,0,-0.026064923033118248
28284,536346111,642252288,0,0.5558904409408569,-0.23219966888427734,0,-0.026343578472733498
28288,536346111,642252288,0,0.5555834174156189,-0.23227281868457794,0,-0.026417596265673637
28292,536346111,642252288,0,0.555096447467804,-0.23239624500274658,0,-0.026616189628839493
28296,536346111,642252288,0,0.5549060702323914,-0.23234160244464874,0,-0.026997588574886322
28300,536346111,642252288,0,0.5549982786178589,-0.23224003612995148,0,-0.02740875445306301
28304,536346111,642252288,0,0.5552917122840881,-0.23217275738716125,0,-0.027636975049972534
28308,536346111,642252288,0,0.5552889108657837,-0.23246175050735474,0,-0.02725358121097088
28312,536346111,641202688,0,0.5551791787147522,-0.232615664601326,0,-0.027276411652565002
28316,536346111,641203712,0,0.5553480982780457,-0.23263989388942719,0,-0.02709776535630226
28322,536346111,641203712,0,0.5554848313331604,-0.23223194479942322,0,-0.02631516009569168
28325,536346111,641203712,0,0.5554848313331604,-0.23223194479942322,0,-0.02631516009569168
28329,536346111,641203712,0,0.5554463863372803,-0.2327624410390854,0,-0.026339251548051834
28332,536346111,641203712,0,0.5557249784469604,-0.2333320677280426,0,-0.026491764932870865
28338,536346111,641202688,0,0.55589759349823,-0.23371607065200806,0,-0.026606645435094833
28343,536346111,641202688,0,0.5554307699203491,-0.23403306305408478,0,-0.026026593521237373
28347,536346111,641202688,0,0.554798424243927,-0.23404672741889954,0,-0.025513524189591408
28356,536346111,641202688,0,0.5542939901351929,-0.23369045555591583,0,-0.025700204074382782
28360,536346111,642252288,0,0.554140567779541,-0.23385509848594666,0,-0.025518644601106644
28364,536346111,642251264,0,0.5541367530822754,-0.23359385132789612,0,-0.025257917121052742
28367,536346111,642251264,0,0.5539501309394836,-0.23306351900100708,0,-0.025228235870599747
28371,536346111,642251264,0,0.554010808467865,-0.2335072010755539,0,-0.025009920820593834
28375,536346111,641203712,0,0.5542012453079224,-0.2337607741355896,0,-0.02498883754014969
28379,536346111,641203712,0,0.5542330145835876,-0.23392891883850098,0,-0.02487003430724144
28383,536346111,641202688,0,0.5540910959243774,-0.2343190759420395,0,-0.025133581832051277
28386,535297535,642252288,0,0.5544731616973877,-0.23457300662994385,0,-0.025703251361846924
28390,536346111,642252288,0,0.5550726652145386,-0.2347956895828247,0,-0.02605445310473442
28394,536346111,642252288,0,0.5549867153167725,-0.23491404950618744,0,-0.02627907134592533
28398,536346111,642252288,0,0.554953396320343,-0.23455944657325745,0,-0.026804331690073013
28401,536346111,642252288,0,0.554953396320343,-0.23455944657325745,0,-0.026804331690073013
28405,536346111,642252288,0,0.5549922585487366,-0.23423300683498383,0,-0.02721128612756729
28409,536346111,642252288,0,0.5552899241447449,-0.23436176776885986,0,-0.027611730620265007
28413,536346111,641203712,0,0.5554206967353821,-0.23464404046535492,0,-0.02754644677042961
28416,536346111,641203712,0,0.5552014112472534,-0.234993577003479,0,-0.02757146954536438
28420,536346111,641203712,0,0.5551477670669556,-0.2354099452495575,0,-0.027816399931907654
28424,536346111,641203712,0,0.5551661849021912,-0.23547491431236267,0,-0.027946894988417625
28428,536346111,641203712,0,0.555321455001831,-0.2354476898908615,0,-0.02732311747968197
28432,536346111,642252288,0,0.5556413531303406,-0.23505981266498566,0,-0.026746900752186775
28438,536346111,642252288,0,0.5559541583061218,-0.23519401252269745,0,-0.026739973574876785
28442,536346111,641203712,0,0.5560715794563293,-0.23532429337501526,0,-0.026482921093702316
28446,536346111,641203712,0,0.5559539198875427,-0.23530186712741852,0,-0.026127059012651443
28450,536346111,641203712,0,0.5558863282203674,-0.23497694730758667,0,-0.02616860345005989
28454,536346111,642252288,0,0.5559753775596619,-0.23484894633293152,0,-0.026431750506162643
28458,536346111,642252288,0,0.555884063243866,-0.2348179668188095,0,-0.02641926147043705
28462,536346111,642252288,0,0.5560066103935242,-0.2347240000963211,0,-0.02594808302819729
28466,536346111,642252288,0,0.5563384294509888,-0.23433716595172882,0,-0.025748366490006447
28470,536346111,641203712,0,0.5563952922821045,-0.23408132791519165,0,-0.025912027806043625
28473,536346111,641203712,0,0.5563952922821045,-0.23408132791519165,0,-0.025912027806043625
28477,535297535,641203712,0,0.5561450123786926,-0.23390021920204163,0,-0.02635132521390915
28481,535297535,641203712,0,0.5562008619308472,-0.23401324450969696,0,-0.027039336040616035
28484,536346111,642252288,0,0.5564211010932922,-0.23396721482276917,0,-0.027535531669855118
28488,536346111,642252288,0,0.5566912889480591,-0.23418280482292175,0,-0.027504563331604004
28491,536346111,642252288,0,0.5567870140075684,-0.23445826768875122,0,-0.027333498001098633
28494,536346111,642252288,0,0.5571555495262146,-0.2343035787343979,0,-0.027048487216234207
28498,536346111,641203712,0,0.5575597286224365,-0.23434004187583923,0,-0.026954254135489464
28501,536346111,641203712,0,0.5575597286224365,-0.23434004187583923,0,-0.026954254135489464
28504,536346111,641203712,0,0.5578527450561523,-0.23451794683933258,0,-0.0271595548838377
28508,536346111,641203712,0,0.5582478642463684,-0.23464642465114594,0,-0.027096787467598915
28511,536346111,641203712,0,0.5586330890655518,-0.2343645542860031,0,-0.027030816301703453
28515,536346111,642252288,0,0.558845579624176,-0.2339029759168625,0,-0.02728773094713688
28519,536346111,641203712,0,0.5588944554328918,-0.2339945137500763,0,-0.02724730595946312
28523,536346111,641203712,0,0.5588523745536804,-0.23418892920017242,0,-0.027272867038846016
28526,536346111,641203712,0,0.5585946440696716,-0.23428991436958313,0,-0.02704227901995182
28529,536346111,641203712,0,0.5585946440696716,-0.23428991436958313,0,-0.02704227901995182
28533,536346111,641203712,0,0.5584385991096497,-0.23413972556591034,0,-0.026906559243798256
28537,536346111,642252288,0,0.558336615562439,-0.23380059003829956,0,-0.027341756969690323
28541,536346111,642252288,0,0.5584039092063904,-0.23332995176315308,0,-0.02774687111377716
28545,536346111,641203712,0,0.5583896040916443,-0.23295247554779053,0,-0.027541302144527435
28549,536346111,641203712,0,0.5583609938621521,-0.23289380967617035,0,-0.027266617864370346
28553,536346111,641203712,0,0.5583417415618896,-0.23228219151496887,0,-0.027321381494402885
28557,536346111,641203712,0,0.5580438375473022,-0.23215351998806,0,-0.027658803388476372
28561,536346111,641203712,0,0.5581332445144653,-0.23247650265693665,0,-0.027801688760519028
28564,536346111,641203712,0,0.5581799745559692,-0.23266127705574036,0,-0.027816880494356155
28568,536346111,641203712,0,0.5579346418380737,-0.23260065913200378,0,-0.027981389313936234
28571,536346111,641203712,0,0.5576719641685486,-0.2323177009820938,0,-0.02804580330848694
28575,536346111,641203712,0,0.5576825737953186,-0.23211787641048431,0,-0.028287407010793686
28579,536346111,641203712,0,0.5577887892723083,-0.2323433756828308,0,-0.028652412816882133
28583,536346111,641203712,0,0.5577617883682251,-0.2323652058839798,0,-0.028512131422758102
28587,536346111,641203712,0,0.5576081871986389,-0.23173420131206512,0,-0.028470056131482124
28591,536346111,641203712,0,0.5574222207069397,-0.2314954549074173,0,-0.028888000175356865
28595,536346111,641203712,0,0.5573312640190125,-0.23174937069416046,0,-0.029313696548342705
28599,536346110,641203712,0,0.5573155283927917,-0.2322799414396286,0,-0.029401499778032303
28603,536346111,641203712,0,0.5572981238365173,-0.2322757989168167,0,-0.02969416417181492
28607,536346111,641203712,0,0.5576031804084778,-0.23226676881313324,0,-0.029549123719334602
28611,536346111,641203712,0,0.5577373504638672,-0.23218512535095215,0,-0.02922222577035427
28615,536346111,641202688,0,0.5579063296318054,-0.23230242729187012,0,-0.028902295976877213
28619,536346111,641202688,0,0.5580247044563293,-0.23274609446525574,0,-0.028499167412519455
28623,536346111,641202688,0,0.5583252310752869,-0.23326152563095093,0,-0.028412822633981705
28627,535297535,641203712,0,0.5586493015289307,-0.23314201831817627,0,-0.02887621708214283
28631,535297535,641203712,0,0.5588205456733704,-0.2329661101102829,0,-0.029689697548747063
28635,536346111,641203712,0,0.558271050453186,-0.23296649754047394,0,-0.029843656346201897
28639,536346111,641203712,0,0.557781457901001,-0.23273061215877533,0,-0.02893923968076706
28643,536346111,641203712,0,0.557843029499054,-0.23247872292995453,0,-0.02858554571866989
28647,536346111,641203712,0,0.5578731298446655,-0.23231080174446106,0,-0.02874087542295456
28651,536346111,641203712,0,0.5576708912849426,-0.23261809349060059,0,-0.0290694497525692
28655,536346111,641203712,0,0.5577836632728577,-0.23281042277812958,0,-0.029221683740615845
28659,536346111,641202688,0,0.5579766035079956,-0.2328830361366272,0,-0.02876982092857361
28663,536346111,641202688,0,0.5582659840583801,-0.23305773735046387,0,-0.028128374367952347
28667,536346111,641202688,0,0.5585927963256836,-0.23321260511875153,0,-0.02778920717537403
28671,536346111,641203712,0,0.5587608218193054,-0.23297032713890076,0,-0.02734220400452614
28675,536346111,641203712,0,0.5587694644927979,-0.23273243010044098,0,-0.027065647765994072
28679,536346111,641203712,0,0.5588880181312561,-0.23266297578811646,0,-0.027089271694421768
28683,536346111,641203712,0,0.5588560104370117,-0.2325693815946579,0,-0.027416588738560677
28687,536346111,641203712,0,0.5587441325187683,-0.23306232690811157,0,-0.027710415422916412
28691,536346111,641203712,0,0.5586308240890503,-0.23331543803215027,0,-0.02764979563653469
28695,536346111,641203712,0,0.5588226318359375,-0.2335798144340515,0,-0.027564814314246178
28699,536346111,641203712,0,0.559007465839386,-0.23366054892539978,0,-0.027466170489788055
28703,536346111,641203712,0,0.5589150190353394,-0.23345158994197845,0,-0.02731439471244812
28707,536346111,641203712,0,0.5585865378379822,-0.23331832885742188,0,-0.027130283415317535
28711,536346111,641203712,0,0.558235228061676,-0.23330368101596832,0,-0.027546042576432228
28715,536346111,641203712,0,0.5579416155815125,-0.23333963751792908,0,-0.027958624064922333
28719,536346111,641203712,0,0.5584245324134827,-0.23300406336784363,0,-0.027907656505703926
28723,536346111,641203712,0,0.5590734481811523,-0.23284821212291718,0,-0.02751252055168152
28729,536346111,641202688,0,0.5591459274291992,-0.23302142322063446,0,-0.02738822251558304
28733,536346111,641202688,0,0.5595908164978027,-0.2330777496099472,0,-0.027497727423906326
28737,536346111,641202688,0,0.5601654052734375,-0.23310160636901855,0,-0.02783612720668316
28743,536346111,641203712,0,0.5604389905929565,-0.2323915809392929,0,-0.02795812487602234
28747,536346111,641203712,0,0.5603680610656738,-0.23259104788303375,0,-0.027966823428869247
28751,536346111,641203712,0,0.5605812072753906,-0.2324952334165573,0,-0.02823152206838131
28754,536346111,641203712,0,0.5601534247398376,-0.23244865238666534,0,-0.02851807326078415
28758,536346111,641203712,0,0.5597855448722839,-0.23246577382087708,0,-0.028442561626434326
28761,536346111,641203712,0,0.5597855448722839,-0.23246577382087708,0,-0.028442561626434326
28765,536346111,641203712,0,0.5594627261161804,-0.23260395228862762,0,-0.028478292748332024
28768,536346111,641203712,0,0.5590319037437439,-0.23231947422027588,0,-0.02886027656495571
28771,536346111,641203712,0,0.5586657524108887,-0.23212304711341858,0,-0.029044311493635178
28775,536346111,641203712,0,0.5583117604255676,-0.23231305181980133,0,-0.028933517634868622
28778,536346111,641203712,0,0.557902991771698,-0.23212949931621552,0,-0.029033616185188293
28782,536346111,641203712,0,0.5579046607017517,-0.23170115053653717,0,-0.02898259274661541
28785,536346111,641203712,0,0.5579046607017517,-0.23170115053653717,0,-0.02898259274661541
28788,536346111,642252288,0,0.5581009387969971,-0.23118776082992554,0,-0.02918393909931183
28792,536346111,642252288,0,0.5583469867706299,-0.23095443844795227,0,-0.029195431619882584
28795,536346111,642252288,0,0.5578159093856812,-0.23086145520210266,0,-0.02874990738928318
28798,536346111,642252288,0,0.5575242638587952,-0.23047548532485962,0,-0.028292987495660782
28801,536346111,642252288,0,0.5575242638587952,-0.23047548532485962,0,-0.028292987495660782
28804,536346111,641203712,0,0.5574355125427246,-0.22974687814712524,0,-0.02789098024368286
28807,536346111,642252288,0,0.5571856498718262,-0.22968445718288422,0,-0.028062470257282257
28810,536346111,642252288,0,0.5573878288269043,-0.2300252616405487,0,-0.028008781373500824
28814,536346111,642251264,0,0.5574401617050171,-0.23026174306869507,0,-0.02768070250749588
28818,536346111,641202688,0,0.5575646162033081,-0.23024415969848633,0,-0.02745354361832142
28821,536346111,641202688,0,0.5575646162033081,-0.23024415969848633,0,-0.02745354361832142
28825,536346111,642252288,0,0.5577589869499207,-0.23013421893119812,0,-0.027542389929294586
28828,536346111,641202688,0,0.557527482509613,-0.230291485786438,0,-0.027588389813899994
28832,536346111,641203712,0,0.5575855374336243,-0.23066572844982147,0,-0.02703595906496048
28836,536346111,641203712,0,0.5574648976325989,-0.230942502617836,0,-0.026802770793437958
28840,536346111,641203712,0,0.5571587085723877,-0.230696439743042,0,-0.026798943057656288
28844,536346111,641203712,0,0.5565401911735535,-0.23033401370048523,0,-0.026587141677737236
28848,536346111,641203712,0,0.5562914609909058,-0.23009897768497467,0,-0.02653137408196926
28852,536346111,641203712,0,0.5560693144798279,-0.22974397242069244,0,-0.026405956596136093
28855,536346111,641203712,0,0.5557993650436401,-0.22962911427021027,0,-0.026342518627643585
28859,536346111,641203712,0,0.5558721423149109,-0.22985400259494781,0,-0.026456577703356743
28863,536346111,641203712,0,0.5561636686325073,-0.22961953282356262,0,-0.02624206803739071
28867,536346111,641203712,0,0.5563844442367554,-0.22896704077720642,0,-0.026348209008574486
28871,536346111,641203712,0,0.5566399097442627,-0.22878940403461456,0,-0.026356741786003113
28875,536346111,641203712,0,0.5567191243171692,-0.22899796068668365,0,-0.02644888311624527
28879,536346111,641203712,0,0.5564349889755249,-0.22909288108348846,0,-0.026414010673761368
28883,536346111,641203712,0,0.5561856031417847,-0.22884921729564667,0,-0.02664748579263687
28887,535297535,641203712,0,0.5562964081764221,-0.22880291938781738,0,-0.027613278478384018
28891,536346111,641203712,0,0.5562835931777954,-0.22881652414798737,0,-0.028220882639288902
28895,536346111,641203712,0,0.556337833404541,-0.22850264608860016,0,-0.028204061090946198
28899,536346111,641203712,0,0.5562416315078735,-0.22832870483398438,0,-0.027490416541695595
28903,536346111,641203712,0,0.5560666918754578,-0.22825922071933746,0,-0.027088306844234467
28907,536346111,641203712,0,0.5556555390357971,-0.22800318896770477,0,-0.02727677673101425
28910,536346111,641203712,0,0.5555292367935181,-0.22789593040943146,0,-0.027547050267457962
28913,536346111,641203712,0,0.5555292367935181,-0.22789593040943146,0,-0.027547050267457962
28917,536346111,641203712,0,0.5552957057952881,-0.2278028279542923,0,-0.027411658316850662
28921,536346111,641203712,0,0.5549718737602234,-0.22749632596969604,0,-0.02754313126206398
28925,536346111,641203712,0,0.5549082159996033,-0.2271822690963745,0,-0.027850031852722168
28928,535297535,641203712,0,0.5554443597793579,-0.2266387939453125,0,-0.028315162286162376
28931,535297535,641203712,0,0.5558006167411804,-0.2263001799583435,0,-0.02903238870203495
28935,536346111,641203712,0,0.5556936860084534,-0.22585156559944153,0,-0.02956409566104412
28939,536346111,641203712,0,0.5556288957595825,-0.22566872835159302,0,-0.029652444645762444
28943,536346111,641203712,0,0.5555150508880615,-0.22591592371463776,0,-0.029754551127552986
28947,536346110,641203712,0,0.5555881261825562,-0.22651036083698273,0,-0.02956097573041916
28950,536346110,641203712,0,0.5559589266777039,-0.22702746093273163,0,-0.029163783416152
28954,536346111,641203712,0,0.5561134815216064,-0.22701214253902435,0,-0.02898198738694191
28958,536346111,641203712,0,0.5561907887458801,-0.22713518142700195,0,-0.02886996418237686
28962,536346111,641203712,0,0.5560490489006042,-0.22713884711265564,0,-0.02879701741039753
28966,536346111,641203712,0,0.5559080243110657,-0.22672201693058014,0,-0.028666170313954353
28970,536346111,641203712,0,0.5559744834899902,-0.22632193565368652,0,-0.028782840818166733
28974,536346111,641203712,0,0.5558461546897888,-0.2261361926794052,0,-0.028942836448550224
28977,536346111,641203712,0,0.5558461546897888,-0.2261361926794052,0,-0.028942836448550224
28981,536346111,641202688,0,0.5557173490524292,-0.22614027559757233,0,-0.02866174466907978
28985,536346111,642251264,0,0.5556212663650513,-0.22621940076351166,0,-0.028712570667266846
28988,536346111,641202688,0,0.5559113025665283,-0.22614389657974243,0,-0.028886880725622177
28991,536346111,642251264,0,0.5562318563461304,-0.2262166440486908,0,-0.02893691696226597
28994,536346110,642252288,0,0.5563287734985352,-0.22688069939613342,0,-0.02902984619140625
28998,536346111,641203712,0,0.5562476515769958,-0.2274037003517151,0,-0.029514189809560776
29002,536346111,641203712,0,0.5562465190887451,-0.22778438031673431,0,-0.02970597892999649
29006,536346111,641203712,0,0.5561755895614624,-0.227924183011055,0,-0.02954467199742794
29010,536346111,641203712,0,0.5560587644577026,-0.2276252806186676,0,-0.028916731476783752
29014,536346111,641203712,0,0.5555852055549622,-0.2276618331670761,0,-0.028686800971627235
29018,536346111,641203712,0,0.5551251769065857,-0.22740033268928528,0,-0.028687212616205215
29022,536346111,641203712,0,0.5551618337631226,-0.22691978514194489,0,-0.028800370171666145
29026,536345087,641203712,0,0.5557242631912231,-0.22668631374835968,0,-0.02892620675265789
29030,536346111,641203712,0,0.5558921694755554,-0.22652918100357056,0,-0.029192442074418068
29033,536346111,641203712,0,0.5558921694755554,-0.22652918100357056,0,-0.029192442074418068
29037,535297535,641202688,0,0.555787980556488,-0.22630268335342407,0,-0.02966417744755745
29041,536346111,641202688,0,0.5553939342498779,-0.22614794969558716,0,-0.030294835567474365
29045,536346111,641203712,0,0.5551033616065979,-0.22585850954055786,0,-0.030673831701278687
29049,536346111,641203712,0,0.5552348494529724,-0.22579900920391083,0,-0.031018976122140884
29053,536346111,641203712,0,0.5552861094474792,-0.22603309154510498,0,-0.031424280256032944
29057,536346111,641202688,0,0.5550423264503479,-0.22632372379302979,0,-0.03112148307263851
29061,536346111,641202688,0,0.5548099279403687,-0.22654427587985992,0,-0.0309720728546381
29065,536346111,641202688,0,0.5545809864997864,-0.22662703692913055,0,-0.030883243307471275
29069,536346111,641202688,0,0.5545033812522888,-0.2268058955669403,0,-0.03114444576203823
29073,536346111,641203712,0,0.554559051990509,-0.2269860804080963,0,-0.03125563636422157
29077,536346111,641203712,0,0.5547233819961548,-0.22696547210216522,0,-0.03064434975385666
29081,536346111,641203712,0,0.5549267530441284,-0.22688734531402588,0,-0.030631626024842262
29085,536346111,641203712,0,0.554862380027771,-0.22669701278209686,0,-0.030480384826660156
29089,536346111,641203712,0,0.5547181367874146,-0.22679145634174347,0,-0.030209895223379135
29093,536346111,641203712,0,0.5546596646308899,-0.22686487436294556,0,-0.029678864404559135
29097,536346111,641203712,0,0.5546475052833557,-0.2270209938287735,0,-0.029268350452184677
29101,536346111,641203712,0,0.555054783821106,-0.22736160457134247,0,-0.02911575883626938
29106,536346111,641203712,0,0.5553455352783203,-0.22733691334724426,0,-0.0294459480792284
29110,536346111,641203712,0,0.554929256439209,-0.22736856341362,0,-0.029439589008688927
29114,536346111,641203712,0,0.5545028448104858,-0.22704192996025085,0,-0.029594020918011665
29118,536346111,641203712,0,0.5545605421066284,-0.22664406895637512,0,-0.030058175325393677
29122,536346111,641203712,0,0.5543340444564819,-0.22615104913711548,0,-0.03008277341723442
29126,536346111,641203712,0,0.5543148517608643,-0.2258669137954712,0,-0.029606398195028305
29130,536346111,641203712,0,0.5543465614318848,-0.225712850689888,0,-0.02923194319009781
29134,536346111,641203712,0,0.5543509721755981,-0.2259691208600998,0,-0.029459966346621513
29138,536346111,641203712,0,0.5543922185897827,-0.22559991478919983,0,-0.029698358848690987
29142,536346111,641203712,0,0.5545122027397156,-0.22536475956439972,0,-0.0297401063144207
29146,536346111,641203712,0,0.5545192956924438,-0.2256098836660385,0,-0.02984282188117504
29150,536346111,641202688,0,0.5539841651916504,-0.22586560249328613,0,-0.029872702434659004
29153,536346111,641202688,0,0.5539841651916504,-0.22586560249328613,0,-0.029872702434659004
29157,536346111,641202688,0,0.5533137321472168,-0.2259572446346283,0,-0.02982369251549244
29161,536346111,641203712,0,0.5529780387878418,-0.22593502700328827,0,-0.029660776257514954
29165,536346111,642252288,0,0.5527176260948181,-0.22590628266334534,0,-0.029240408912301064
29169,536346111,642252288,0,0.552783191204071,-0.2259760946035385,0,-0.028767138719558716
29173,536346111,642252288,0,0.5532172322273254,-0.22596532106399536,0,-0.028862573206424713
29177,536346111,641203712,0,0.5534480214118958,-0.22591517865657806,0,-0.029223516583442688
29181,536346110,641203712,0,0.5533561706542969,-0.22623883187770844,0,-0.029434319585561752
29185,536346111,641203712,0,0.5531031489372253,-0.22691616415977478,0,-0.029631994664669037
29189,536346111,641203712,0,0.5530797243118286,-0.2273961901664734,0,-0.030082402750849724
29193,536346111,642252288,0,0.553203284740448,-0.2275775521993637,0,-0.030527807772159576
29197,536346111,642252288,0,0.5529528856277466,-0.22763699293136597,0,-0.03067139722406864
29202,536346111,642251264,0,0.5521635413169861,-0.22731131315231323,0,-0.030979815870523453
29205,536346111,642251264,0,0.5521635413169861,-0.22731131315231323,0,-0.030979815870523453
29209,536346111,641202688,0,0.551784873008728,-0.22719399631023407,0,-0.03085879422724247
29213,536346111,641202688,0,0.5517438650131226,-0.22675572335720062,0,-0.030546799302101135
29217,536346111,641203712,0,0.5519384741783142,-0.2269277572631836,0,-0.030177127569913864
29221,536346111,641203712,0,0.5520262122154236,-0.22761590778827667,0,-0.02993614412844181
29225,536346111,641203712,0,0.5524706244468689,-0.22812145948410034,0,-0.02992933802306652
29229,536346111,641203712,0,0.5529817938804626,-0.22816602885723114,0,-0.030159002169966698
29233,536346111,641203712,0,0.5532971024513245,-0.2278871238231659,0,-0.03044932894408703
29237,536346111,641203712,0,0.5538197159767151,-0.22779864072799683,0,-0.030551984906196594
29242,536346111,641203712,0,0.5537863969802856,-0.22706161439418793,0,-0.030938811600208282
29245,536346111,641203712,0,0.5537863969802856,-0.22706161439418793,0,-0.030938811600208282
29249,536346111,641203712,0,0.5537970066070557,-0.22698262333869934,0,-0.030902966856956482
29252,536346111,641203712,0,0.5537487864494324,-0.22695773839950562,0,-0.030630087479948997
29256,536346111,641203712,0,0.5536179542541504,-0.22699719667434692,0,-0.030361924320459366
29261,536346111,642252288,0,0.5536255836486816,-0.2268783152103424,0,-0.030194343999028206
29264,536346111,642252288,0,0.5536172986030579,-0.2269674390554428,0,-0.030230669304728508
29268,536346111,642252288,0,0.5538858771324158,-0.227359339594841,0,-0.029909661039710045
29273,536346111,641203712,0,0.5539054274559021,-0.2273169606924057,0,-0.029621919617056847
29276,536346111,641203712,0,0.5534639954566956,-0.2273261696100235,0,-0.029407626017928123
29280,536346111,641203712,0,0.5529572367668152,-0.22739998996257782,0,-0.029365472495555878
29285,536346111,641203712,0,0.5526162385940552,-0.22745129466056824,0,-0.029615962877869606
29288,536346111,641203712,0,0.5527166724205017,-0.22765342891216278,0,-0.029958702623844147
29292,536346111,641203712,0,0.5529429316520691,-0.22734029591083527,0,-0.02970265783369541
29297,536346111,641203712,0,0.5531967282295227,-0.22711147367954254,0,-0.0293125007301569
29299,536346111,641203712,0,0.5535804629325867,-0.22724787890911102,0,-0.029274534434080124
29303,536346111,642252288,0,0.553747296333313,-0.22765222191810608,0,-0.029272817075252533
29307,536346111,642252288,0,0.5535455942153931,-0.22746111452579498,0,-0.029537733644247055
29311,536346111,642252288,0,0.553486704826355,-0.2269274890422821,0,-0.030098535120487213
29315,536346111,642252288,0,0.5534543395042419,-0.22656643390655518,0,-0.03048936277627945
29319,536346111,641203712,0,0.5531310439109802,-0.2268814593553543,0,-0.031037284061312675
29323,536346111,641203712,0,0.5527524948120117,-0.22729989886283875,0,-0.03122559003531933
29327,536346111,641203712,0,0.5524914264678955,-0.22753185033798218,0,-0.030985431745648384
29331,536346111,641202688,0,0.5523367524147034,-0.22771283984184265,0,-0.030884623527526855
29335,536346111,641203712,0,0.5520521998405457,-0.2276294231414795,0,-0.03069513477385044
29339,536346111,641203712,0,0.5519223809242249,-0.227558895945549,0,-0.030497819185256958
29342,536346111,641203712,0,0.551702082157135,-0.22775529325008392,0,-0.03042617440223694
29346,536346111,641203712,0,0.5510750412940979,-0.22783632576465607,0,-0.030701931565999985
29350,536346111,641203712,0,0.550733208656311,-0.22821637988090515,0,-0.03102130815386772
29354,536346111,641203712,0,0.5501949191093445,-0.22863952815532684,0,-0.03128427639603615
29358,536346111,641203712,0,0.5497862100601196,-0.22914329171180725,0,-0.03155088797211647
29362,536346111,641203712,0,0.5493137240409851,-0.22961217164993286,0,-0.03152758628129959
29366,536346111,641203712,0,0.5490033626556396,-0.2295234352350235,0,-0.031159348785877228
29370,536346111,641203712,0,0.5484828352928162,-0.2293127030134201,0,-0.03150396794080734
29374,536346111,641203712,0,0.547941267490387,-0.2294325977563858,0,-0.03186842426657677
29377,536346111,641203712,0,0.547941267490387,-0.2294325977563858,0,-0.03186842426657677
29381,536346111,641203712,0,0.5477361679077148,-0.22971177101135254,0,-0.03216587007045746
29384,535297535,641203712,0,0.5477675199508667,-0.2295289784669876,0,-0.03256390243768692
29388,536346111,641203712,0,0.5476555824279785,-0.22921811044216156,0,-0.03316309303045273
29392,536346111,641203712,0,0.5471376180648804,-0.22916729748249054,0,-0.03325026109814644
29396,536346111,641203712,0,0.5463775992393494,-0.22903606295585632,0,-0.03310680761933327
29400,536346111,642252288,0,0.5459942817687988,-0.2287476360797882,0,-0.03322335705161095
29404,536346111,641203712,0,0.5459378957748413,-0.2284223884344101,0,-0.03320169821381569
29406,536346111,641203712,0,0.5460125207901001,-0.22807498276233673,0,-0.033100154250860214
29410,536346111,641203712,0,0.5461722612380981,-0.22797541320323944,0,-0.033256273716688156
29414,536346111,641203712,0,0.5462318658828735,-0.22819407284259796,0,-0.03310198336839676
29418,536346111,642252288,0,0.5462899208068848,-0.22815079987049103,0,-0.03272327035665512
29422,536346111,642252288,0,0.5461323261260986,-0.22810852527618408,0,-0.0330110602080822
29425,535297535,642252288,0,0.5461323261260986,-0.22810852527618408,0,-0.0330110602080822
29429,535297535,642252288,0,0.5448241233825684,-0.22823601961135864,0,-0.033843740820884705
29433,536346111,642252288,0,0.5437694191932678,-0.22838404774665833,0,-0.03434346988797188
29437,536346110,642252288,0,0.5433350205421448,-0.22842451930046082,0,-0.03439044579863548
29441,536346110,641203712,0,0.5424118041992188,-0.2291536182165146,0,-0.03473277390003204
29444,536346110,641203712,0,0.5419273972511292,-0.22968658804893494,0,-0.03494908660650253
29448,536346111,641203712,0,0.5422333478927612,-0.22989945113658905,0,-0.03418251872062683
29452,536346111,641202688,0,0.5424439907073975,-0.2293643355369568,0,-0.034211527556180954
29456,535297535,642251264,0,0.5423134565353394,-0.2295968234539032,0,-0.03520258888602257
29459,536346111,642251264,0,0.5423063635826111,-0.2306840866804123,0,-0.03504044562578201
29463,536346111,641202688,0,0.5425307154655457,-0.23121699690818787,0,-0.03456514701247215
29467,536346111,641202688,0,0.5426624417304993,-0.2308966964483261,0,-0.0347709096968174
29470,536346111,641202688,0,0.5426133275032043,-0.23070092499256134,0,-0.03444443270564079
29473,536346111,641203712,0,0.5426133275032043,-0.23070092499256134,0,-0.03444443270564079
29477,536346111,641203712,0,0.5425170660018921,-0.2309650182723999,0,-0.033780038356781006
29480,536346111,641203712,0,0.5424412488937378,-0.23074880242347717,0,-0.033623918890953064
29483,536346111,641203712,0,0.5420552492141724,-0.2301160991191864,0,-0.03356608748435974
29487,536346111,641203712,0,0.5416940450668335,-0.22970154881477356,0,-0.03393475338816643
29490,536346111,641203712,0,0.5415436625480652,-0.22924277186393738,0,-0.03426855057477951
29494,536346111,641203712,0,0.5414869785308838,-0.22891445457935333,0,-0.034501370042562485
29497,536346111,641203712,0,0.5414869785308838,-0.22891445457935333,0,-0.034501370042562485
29500,536346111,641203712,0,0.5413949489593506,-0.22841717302799225,0,-0.03424402326345444
29504,536346111,641203712,0,0.5415797829627991,-0.22809500992298126,0,-0.03384282439947128
29508,536346111,641203712,0,0.5419538021087646,-0.22715052962303162,0,-0.03407345712184906
29511,536346111,641203712,0,0.5422901511192322,-0.2263779193162918,0,-0.034333810210227966
29515,536346111,641202688,0,0.5425195693969727,-0.22643375396728516,0,-0.03436412662267685
29518,536346111,641202688,0,0.5423914790153503,-0.2270609587430954,0,-0.034379247575998306
29523,536346110,641202688,0,0.5423024296760559,-0.22806726396083832,0,-0.03449370339512825
29526,536346110,641202688,0,0.5422946810722351,-0.228878453373909,0,-0.03445694223046303
29530,536346110,641202688,0,0.5424018502235413,-0.22980405390262604,0,-0.034768231213092804
29535,536346111,641203712,0,0.542437732219696,-0.2302323579788208,0,-0.034785814583301544
29539,536346111,641203712,0,0.5427666306495667,-0.23033013939857483,0,-0.03415178135037422
29543,536345087,641203712,0,0.543276846408844,-0.23031467199325562,0,-0.03345568850636482
29547,536346111,641203712,0,0.5432631373405457,-0.2301766276359558,0,-0.0331714041531086
29551,536346111,642252288,0,0.5429749488830566,-0.23032797873020172,0,-0.03305448591709137
29555,536346111,642252288,0,0.5426874756813049,-0.23074573278427124,0,-0.03280797228217125
29559,536346111,642252288,0,0.5421508550643921,-0.23082424700260162,0,-0.0325588695704937
29562,536346111,641203712,0,0.5419799089431763,-0.2310434728860855,0,-0.032182298600673676
29566,536346111,641203712,0,0.5417272448539734,-0.23113028705120087,0,-0.032420650124549866
29570,535297535,641202688,0,0.5415328145027161,-0.23137246072292328,0,-0.0331750325858593
29574,536346111,641202688,0,0.541320264339447,-0.23177646100521088,0,-0.033659689128398895
29578,536346111,642251264,0,0.541121244430542,-0.23211216926574707,0,-0.03341575711965561
29582,536346111,641202688,0,0.5412677526473999,-0.23206454515457153,0,-0.03322340175509453
29586,536346111,641202688,0,0.5419254302978516,-0.23226188123226166,0,-0.03334755823016167
29590,536346111,641203712,0,0.5424218773841858,-0.23226726055145264,0,-0.03332223370671272
29594,536346111,641203712,0,0.5426192879676819,-0.23222984373569489,0,-0.03311498463153839
29598,536346111,642252288,0,0.5429619550704956,-0.23251232504844666,0,-0.03260555863380432
29601,536346111,642252288,0,0.5429619550704956,-0.23251232504844666,0,-0.03260555863380432
29605,536346111,642252288,0,0.5431987643241882,-0.23233440518379211,0,-0.03259969875216484
29609,536346111,642252288,0,0.5431975722312927,-0.23194782435894012,0,-0.03274987265467644
29613,536346111,642252288,0,0.5429885387420654,-0.2316584587097168,0,-0.032878026366233826
29617,536346111,641203712,0,0.5428932309150696,-0.2312692254781723,0,-0.032642070204019547
29620,536346111,641203712,0,0.5426735281944275,-0.23088769614696503,0,-0.03245167061686516
29624,536346111,641203712,0,0.5424360632896423,-0.23007610440254211,0,-0.03271768242120743
29628,536346111,641203712,0,0.542080819606781,-0.2290833443403244,0,-0.03274696320295334
29632,536346111,642252288,0,0.5418901443481445,-0.22833994030952454,0,-0.03292621672153473
29635,536346111,642251264,0,0.5415937900543213,-0.22812505066394806,0,-0.03295277804136276
29639,536346111,642251264,0,0.5412458777427673,-0.22840343415737152,0,-0.0328366756439209
29643,536346111,642251264,0,0.5408589839935303,-0.22863928973674774,0,-0.0331183560192585
29647,536346111,642251264,0,0.540709912776947,-0.22882165014743805,0,-0.033335402607917786
29651,536346111,641202688,0,0.5410515666007996,-0.22895051538944244,0,-0.03381551057100296
29655,536346111,641202688,0,0.5409846901893616,-0.22914187610149384,0,-0.034051839262247086
29659,536346111,641202688,0,0.5409069657325745,-0.2295977920293808,0,-0.03373812884092331
29663,536346111,641202688,0,0.5411727428436279,-0.22989201545715332,0,-0.03356237709522247
29667,536346111,641203712,0,0.5413430333137512,-0.22953547537326813,0,-0.033456943929195404
29671,536346111,641203712,0,0.541316032409668,-0.2289237678050995,0,-0.033485475927591324
29675,536346111,641203712,0,0.5409078598022461,-0.22839821875095367,0,-0.033477023243904114
29679,536346111,641203712,0,0.5406211018562317,-0.22837933897972107,0,-0.033726781606674194
29683,536346111,641203712,0,0.5406574010848999,-0.22802060842514038,0,-0.03397247567772865
29687,536346111,641203712,0,0.5407452583312988,-0.22750867903232574,0,-0.03384461998939514
29691,536346111,641203712,0,0.5406523942947388,-0.2273930162191391,0,-0.033743832260370255
29694,536346111,641203712,0,0.5404121279716492,-0.22753581404685974,0,-0.03347092121839523
29698,536346110,641203712,0,0.5405411720275879,-0.2281516045331955,0,-0.03358413651585579
29702,536346111,641203712,0,0.5407414436340332,-0.22855466604232788,0,-0.03371145948767662
29706,535297535,641203712,0,0.5413824319839478,-0.22809383273124695,0,-0.03447097912430763
29710,536346111,642252288,0,0.5414738655090332,-0.22793641686439514,0,-0.03490877524018288
29714,536346111,642252288,0,0.5411881804466248,-0.22810041904449463,0,-0.03497464209794998
29718,536346111,642252288,0,0.5409725904464722,-0.2282928079366684,0,-0.034705694764852524
29722,536346111,642252288,0,0.5410309433937073,-0.22868098318576813,0,-0.034508466720581055
29726,536346111,641203712,0,0.5408247709274292,-0.2287379652261734,0,-0.034670524299144745
29729,536346111,642252288,0,0.5408247709274292,-0.2287379652261734,0,-0.034670524299144745
29733,536346111,642252288,0,0.5408144593238831,-0.2285011261701584,0,-0.035017672926187515
29737,536346111,641203712,0,0.5406917333602905,-0.2284705638885498,0,-0.035210300236940384
29741,536346111,641202688,0,0.5404855012893677,-0.2286490947008133,0,-0.03502180427312851
29745,536346111,641202688,0,0.5401050448417664,-0.2284010499715805,0,-0.03491443395614624
29749,536346111,641202688,0,0.5399511456489563,-0.22806715965270996,0,-0.03528760373592377
29753,536346111,641202688,0,0.5399592518806458,-0.22802099585533142,0,-0.03528046980500221
29757,536346111,641202688,0,0.5399577617645264,-0.22850677371025085,0,-0.035302381962537766
29761,536346111,641203712,0,0.5400936603546143,-0.22864726185798645,0,-0.03527721390128136
29765,536346111,641202688,0,0.5402275323867798,-0.2285638004541397,0,-0.03511882945895195
29769,536346111,641202688,0,0.5401535034179688,-0.2288946807384491,0,-0.035454846918582916
29773,536346111,641202688,0,0.5400402545928955,-0.22942407429218292,0,-0.035515930503606796
29777,536346111,641202688,0,0.5396754145622253,-0.2295612245798111,0,-0.035198938101530075
29781,536346111,641203712,0,0.5393683910369873,-0.22964052855968475,0,-0.034932542592287064
29785,536346111,641203712,0,0.5395321249961853,-0.2296735644340515,0,-0.034622881561517715
29789,536346111,641203712,0,0.5399304032325745,-0.22938920557498932,0,-0.03465789929032326
29793,536346111,641203712,0,0.5398566722869873,-0.2290620058774948,0,-0.03464776650071144
29797,536346111,641203712,0,0.5397205948829651,-0.22869181632995605,0,-0.03480929508805275
29801,536346111,641203712,0,0.5396531820297241,-0.22835411131381989,0,-0.03505318611860275
29805,536346111,641203712,0,0.5399458408355713,-0.22788923978805542,0,-0.0353565476834774
29809,536346111,642252288,0,0.5401127934455872,-0.2277936339378357,0,-0.03535977378487587
29812,536346111,642252288,0,0.5400805473327637,-0.22817650437355042,0,-0.03506329283118248
29816,536346111,642252288,0,0.5400739312171936,-0.22830311954021454,0,-0.03502742573618889
29820,536346111,642252288,0,0.5402489304542542,-0.22851315140724182,0,-0.034921977669000626
29824,536346111,642252288,0,0.5404813885688782,-0.2288590669631958,0,-0.0350939966738224
29828,536346111,641202688,0,0.5409792065620422,-0.22933410108089447,0,-0.035583123564720154
29832,536346111,641202688,0,0.5411005616188049,-0.22979213297367096,0,-0.035120874643325806
29836,536346111,641202688,0,0.5414170026779175,-0.23009271919727325,0,-0.034516267478466034
29839,536346111,641202688,0,0.54175865650177,-0.2300807535648346,0,-0.034265097230672836
29842,536346111,641202688,0,0.5421051383018494,-0.2302643358707428,0,-0.03415149822831154
29846,536346111,641202688,0,0.5420302748680115,-0.23046955466270447,0,-0.03417700529098511
29850,536346111,641202688,0,0.5415063500404358,-0.23074421286582947,0,-0.03395707905292511
29854,536346111,641202688,0,0.5409595370292664,-0.23072364926338196,0,-0.034146808087825775
29858,536346111,641203712,0,0.540391743183136,-0.23077265918254852,0,-0.034527119249105453
29862,536346111,641203712,0,0.5400664806365967,-0.23039133846759796,0,-0.034442540258169174
29866,536346111,641203712,0,0.5401595234870911,-0.2304779589176178,0,-0.034415699541568756
29870,536346110,641203712,0,0.5402259230613708,-0.23106056451797485,0,-0.03426751866936684
29874,536346111,641203712,0,0.5399836897850037,-0.2312317043542862,0,-0.034178465604782104
29877,536346111,641203712,0,0.5399836897850037,-0.2312317043542862,0,-0.034178465604782104
